timestamp,timestamp_sample,device_id,x,y,z,temperature
168000,168000,2294028,-0.0011692169,-0.002116659,-0.0035350707,11.828796
268000,268000,2294028,0.0045041586,-0.007204324,0.0073741446,11.828796
368000,368000,2294028,0.0060020327,-0.0040058056,-0.0068821725,11.828796
468000,468000,2294028,0.011929493,-0.016524583,-0.0051273177,11.828796
568000,568000,2294028,0.0011157176,-0.0011988843,0.0038717366,11.828796
668000,668000,2294028,0.013905624,0.0011822474,0.0008596452,11.828796
768000,768000,2294028,-0.004727745,-0.0012136924,-0.0006227241,11.828796
868000,868000,2294028,0.00046180334,-0.0069649653,0.0015214875,11.828796
968000,968000,2294028,-0.007114572,-0.0036948433,0.00276781,11.828796
1068000,1068000,2294028,-0.0011033253,0.007951197,-0.0030833487,11.828796
1168000,1168000,2294028,0.007937801,0.00050177186,-0.0005807974,11.828796
1268000,1268000,2294028,-0.0076156864,-0.006760139,-0.0030967763,11.828796
1368000,1368000,2294028,0.0029284928,-0.0027699666,0.004262274,11.828796
1468000,1468000,2294028,0.007247955,-0.0049178177,-0.0054104165,11.828796
1568000,1568000,2294028,0.002113395,-0.003814309,0.003248574,11.828796
1668000,1668000,2294028,0.010642929,0.001958741,-0.0052788667,11.828796
1768000,1768000,2294028,0.0030108904,-0.012138662,-0.003216935,11.828796
1868000,1868000,2294028,-0.0033815303,-0.00026254207,-0.0026691987,11.828796
1968000,1968000,2294028,0.00060934183,-0.010873675,0.0020343014,11.828796
2068000,2068000,2294028,0.001863315,-0.0070473403,0.004872086,11.828796
2168000,2168000,2294028,-0.007891351,-0.00243137,-0.006842091,11.828796
2268000,2268000,2294028,0.003000587,-0.0053017335,0.0012536552,11.828796
2371999,2371999,2294028,0.001752512,-0.0062809945,0.00048843754,11.828796
2475999,2475999,2294028,-0.0019008955,-0.013928061,0.00025341212,11.828796
2576000,2576000,2294028,0.0030832966,-0.0036907878,0.006150419,11.828796
2676000,2676000,2294028,0.004830458,-0.0027404241,-0.0027245688,11.828796
2776000,2776000,2294028,0.011892325,-0.016830968,0.0066478527,11.828796
2876000,2876000,2294028,-0.0013061808,-0.011046247,0.004551751,11.828796
2976000,2976000,2294028,0.0069457125,-0.0044821687,0.00425051,11.828796
3076000,3076000,2294028,-0.009050637,-0.0022311653,-0.010408787,11.828796
3176000,3176000,2294028,0.0039138207,0.00054029864,-0.0085611,11.828796
3276000,3276000,2294028,-0.005345233,-0.0063783424,0.002559361,11.828796
3376000,3376000,2294028,-0.009302541,-0.0023768723,-0.0034112602,11.828796
3476000,3476000,2294028,-0.0026922673,0.006220541,-0.00021516113,11.828796
3576000,3576000,2294028,-0.0023629982,-0.0058000954,-0.0010820084,11.828796
3676000,3676000,2294028,0.0030074443,-0.0024186787,0.00018308831,11.828796
3776000,3776000,2294028,0.0008559979,-0.012189026,0.005724028,11.828796
3876000,3876000,2294028,-0.0020817756,-0.0031053913,0.0016136689,11.828796
3976000,3976000,2294028,-0.0056758844,-0.003071991,-0.004194197,11.828796
4076000,4076000,2294028,-0.0020259721,-0.0146794,-0.0048511825,11.828796
4176000,4176000,2294028,-0.010494179,-0.004339225,0.005727182,11.828796
4276000,4276000,2294028,-0.011835249,-0.0051125414,-0.0047372007,11.828796
4376000,4376000,2294028,0.0031324578,-0.009282205,0.004078164,11.828796
4476000,4476000,2294028,0.0052210004,0.0023525995,0.0035282644,11.828796
4576000,4576000,2294028,-0.004568863,-0.00971062,-0.0022219676,11.828796
4676000,4676000,2294028,-0.002723675,-0.0031289605,0.0018997622,11.828796
4776000,4776000,2294028,0.0002306094,-0.0054964293,0.0031067608,11.828796
4876000,4876000,2294028,-0.0088561345,-0.011163515,0.007295834,11.828796
4976000,4976000,2294028,0.006033589,-0.008946005,-0.014460373,11.828796
5076000,5076000,2294028,-0.0015019074,-0.010603847,0.005683079,11.828796
5176000,5176000,2294028,-0.0021900714,-0.0046436205,-0.008751035,11.828796
5276000,5276000,2294028,0.0005069284,-0.0038020695,-0.00883885,11.828796
5376000,5376000,2294028,0.0006046691,-0.0044877343,-0.0049025714,11.828796
5476000,5476000,2294028,0.006763829,-0.011634581,-0.003582696,11.828796
5576000,5576000,2294028,0.00298224,0.0036414843,-0.003748177,11.828796
5676000,5676000,2294028,9.159354e-06,-0.0026893532,0.0010558951,11.828796
5776000,5776000,2294028,0.005194913,-0.0012093409,0.0033310615,11.828796
5876000,5876000,2294028,0.0027233702,-4.8393442e-05,-0.00031012268,11.828796
5976000,5976000,2294028,0.0053882445,-0.00450723,0.002840868,11.828796
6076000,6076000,2294028,0.0051660202,-0.0019741906,-0.0042415247,11.828796
6176000,6176000,2294028,0.0028542697,-0.00870749,-0.014147678,11.828796
6276000,6276000,2294028,-0.0010664028,-0.001619532,0.00068819214,11.828796
6376000,6376000,2294028,-0.002960712,-0.0042476202,0.0039456855,11.828796
6476000,6476000,2294028,0.0064069177,-0.0027738884,0.0019630194,11.828796
6575999,6575999,2294028,-0.010673742,-0.0034998392,0.005334066,11.828796
6680000,6680000,2294028,0.0028932486,-0.002414874,0.0033751826,11.828796
6780000,6780000,2294028,-0.007804616,-0.008334402,-0.0032031476,11.828796
6880000,6880000,2294028,-0.009233681,-0.008839119,0.0005296231,11.828796
6980000,6980000,2294028,0.007861248,-0.005989976,-0.0006597617,11.828796
7080000,7080000,2294028,0.00042258005,-0.007122316,-0.008690484,11.828796
7180000,7180000,2294028,0.002194268,-0.0061915107,-0.008873506,11.828796
7280000,7280000,2294028,-0.008594648,-0.0051159034,0.006586102,11.828796
7380000,7380000,2294028,0.0053485218,-0.001513577,0.0027973414,11.828796
7480000,7480000,2294028,-0.008357749,-0.009367949,-0.00056833477,11.828796
7580000,7580000,2294028,-0.0040303064,-0.000988158,0.0067280284,11.828796
7680000,7680000,2294028,-0.0024965017,-0.0040450967,0.0037408809,11.828796
7780000,7780000,2294028,0.0013931739,-0.00372025,0.0015993741,11.828796
7880000,7880000,2294028,-0.0036376156,-0.005434153,-0.008622919,11.828796
7980000,7980000,2294028,0.0010486547,-0.008603147,0.0083087655,11.828796
8080000,8080000,2294028,-0.0008754669,-0.00802445,0.007815536,11.828796
8180000,8180000,2294028,0.008094141,-0.0007936969,-0.0027568757,11.828796
8280000,8280000,2294028,-0.0015164,-0.011841,-0.004956541,11.828796
8380000,8380000,2294028,-0.0015507204,-0.00810247,0.0022504972,11.828796
8480000,8480000,2294028,0.0010728994,-0.0034270359,0.0035148081,11.828796
8580000,8580000,2294028,-0.0020793786,0.0064152614,-0.00040566892,11.828796
8680000,8680000,2294028,-0.008465269,-0.0033700578,0.009006229,11.828796
8780000,8780000,2294028,-0.004848034,-0.014937796,-0.017036652,11.828796
8880000,8880000,2294028,0.0052968487,-0.008626598,0.002525615,11.828796
8980000,8980000,2294028,0.0019434663,-0.01670973,0.0044852532,11.828796
9080000,9080000,2294028,-0.0025633816,-0.0062527764,-0.0049068443,11.828796
9180000,9180000,2294028,-0.0042773327,-0.008182337,0.0016510537,11.828796
9280000,9280000,2294028,-0.008372188,-0.011950949,0.00093041227,11.828796
9380000,9380000,2294028,-0.0035657608,-0.004197077,-0.008515395,11.828796
9480000,9480000,2294028,-0.00082681165,-0.007268353,0.004028609,11.828796
9580000,9580000,2294028,0.00023394039,-0.016648974,-0.0065015033,11.828796
9680000,9680000,2294028,-0.005850455,-0.01095466,-0.0066030365,11.828796
9780000,9780000,2294028,0.0028870811,-0.009020902,0.00017049954,11.828796
9880000,9880000,2294028,-0.0058777533,0.0014362081,-1.3453912e-05,11.828796
9980000,9980000,2294028,-0.0032858315,-0.00808588,0.007304843,11.828796
10080000,10080000,2294028,0.00017442975,0.0014574114,0.014015955,11.828796
10180000,10180000,2294028,-0.0012613903,-0.013996908,0.008136428,11.828796
10280000,10280000,2294028,0.0011802072,-0.0070993113,-0.0012662254,11.828796
10380000,10380000,2294028,-0.0031305777,-0.0014127997,0.0016430314,11.828796
10480000,10480000,2294028,-0.005306257,-0.013905982,-0.005187471,11.828796
10580000,10580000,2294028,0.0012574153,-0.010525916,-0.0052252486,11.828796
10680000,10680000,2294028,-0.011161654,-0.011375726,0.00011802048,11.828796
10780000,10780000,2294028,-0.0013027877,-0.0072779153,-0.0062714247,11.828796
10880000,10880000,2294028,-0.010915627,-0.0037655535,0.0080122305,11.828796
10980000,10980000,2294028,-0.00067669316,-0.006140358,7.871355e-05,11.828796
11080000,11080000,2294028,-0.0039626216,0.0064436966,-0.0022410806,11.828796
11180000,11180000,2294028,-0.0036086664,-0.015949093,0.0019482804,11.828796
11280000,11280000,2294028,-0.0021671597,-0.011183042,0.0002323627,11.828796
11380000,11380000,2294028,-0.012881758,-0.0053676134,-0.002964176,11.828796
11480000,11480000,2294028,-0.013028996,-0.0063180393,0.009791164,11.828796
11580000,11580000,2294028,0.0012741196,0.0031134153,0.005791853,11.828796
11680000,11680000,2294028,0.0011304946,-0.005926267,0.0029851312,11.828796
11780000,11780000,2294028,-0.012339614,-0.01147234,-0.006520282,11.828796
11880000,11880000,2294028,-0.0018727945,-0.0031362616,0.0010496099,11.828796
11980000,11980000,2294028,-0.00060751085,-0.0049579903,0.0035260275,11.828796
12080000,12080000,2294028,0.0025375187,-0.0068595274,-0.0035940562,11.828796
12180000,12180000,2294028,-0.0019761329,-0.010344878,0.0028313368,11.828796
12280000,12280000,2294028,-0.014343523,-0.005421851,-0.0015340777,11.828796
12380000,12380000,2294028,-0.0094628,-0.0081974035,0.005181831,11.828796
12480000,12480000,2294028,-0.002648,-0.004332995,0.0019840247,11.828796
12580000,12580000,2294028,-0.0035293302,-0.0042677824,-0.009856292,11.828796
12680000,12680000,2294028,0.0049922876,0.003539068,0.005354841,11.828796
12780000,12780000,2294028,0.03637487,-0.015646918,0.2041948,11.828796
12880000,12880000,2294028,0.19701517,-0.004336986,0.30447242,11.828766
12980000,12980000,2294028,0.33987626,-0.02274227,-0.021823948,11.828735
13080000,13080000,2294028,0.3484708,-0.060472038,-0.2260802,11.828674
13180000,13180000,2294028,0.27830058,-0.013288891,-0.21233165,11.828613
13280000,13280000,2294028,0.23340142,0.032654118,0.037677363,11.828583
13380000,13380000,2294028,0.20832762,0.17575479,0.14476815,11.828522
13480000,13480000,2294028,0.15965503,0.22871834,0.1352145,11.828308
13580000,13580000,2294028,0.11733801,0.1972351,0.044422217,11.82782
13680000,13680000,2294028,0.08623959,0.15542015,0.009189739,11.827087
13780000,13780000,2294028,0.058437414,0.13637972,0.017934809,11.82605
13880000,13880000,2294028,0.055683646,0.13906845,0.07064047,11.824799
13980000,13980000,2294028,0.044379447,0.15859054,0.091861404,11.823334
14080000,14080000,2294028,0.020545881,0.16509083,0.06482019,11.821655
14180000,14180000,2294028,0.02431721,0.16123506,0.04363753,11.819763
14280000,14280000,2294028,0.021055117,0.14596695,0.030591415,11.817535
14384000,14384000,2294028,0.0043359823,0.15445447,0.051500246,11.815216
14484000,14484000,2294028,0.0050441893,0.15987289,0.06385779,11.812683
14588000,14588000,2294028,0.0022349984,0.15418981,0.055579208,11.809814
14688000,14688000,2294028,-0.00889704,0.16664653,0.05426776,11.806854
14787999,14787999,2294028,-0.0041433964,0.16833009,0.047347825,11.803589
14888000,14888000,2294028,-0.0093037505,0.16852657,0.043136332,11.800201
14992000,14992000,2294028,-0.015424167,0.13769192,0.051772285,11.7966
15092000,15092000,2294028,-0.2317784,0.1116317,0.045415215,11.792786
15192000,15192000,2294028,-0.30303258,0.07270093,0.023225399,11.788666
15292000,15292000,2294028,-0.28917274,0.053224716,0.007110786,11.784546
15392000,15392000,2294028,-0.2591199,0.0367015,-0.002266763,11.780334
15492000,15492000,2294028,-0.21267453,0.037281834,-0.005778591,11.7760315
15592000,15592000,2294028,-0.1907437,0.019285055,-0.0055057374,11.771851
15692000,15692000,2294028,-0.17410676,0.013136017,-0.017543525,11.767456
15792000,15792000,2294028,-0.1480169,0.01456058,-0.016802974,11.762817
15892000,15892000,2294028,-0.3342355,0.07633156,0.03097853,11.758514
15992000,15992000,2294028,-0.33109936,0.024205768,0.02495541,11.753845
16092000,16092000,2294028,-0.27435884,-0.08873926,-0.03950203,11.749542
16192000,16192000,2294028,-0.19620207,-0.14803839,-0.094573475,11.744904
16292000,16292000,2294028,-0.1334064,-0.15956073,-0.11786712,11.740753
16392000,16392000,2294028,-0.1021001,-0.122008964,-0.09199891,11.73645
16492000,16492000,2294028,-0.07639183,-0.06764185,-0.060456734,11.732513
16592000,16592000,2294028,-0.038231995,-0.050542995,-0.050664205,11.72876
16692000,16692000,2294028,-0.02773317,-0.04704449,-0.059958585,11.72522
16792000,16792000,2294028,-0.0225739,-0.026942492,-0.06985731,11.721497
16892000,16892000,2294028,-0.006584895,-0.027382273,-0.084486224,11.718079
16992000,16992000,2294028,-0.00701598,-0.015939517,-0.08500721,11.714478
17092000,17092000,2294028,0.0075612725,-0.018207818,-0.07471717,11.711029
17192000,17192000,2294028,0.0098168105,-0.0069076163,-0.058081362,11.707794
17292000,17292000,2294028,0.022145288,-0.010009547,-0.058526527,11.704285
17392000,17392000,2294028,0.024140814,-0.010233397,-0.05729284,11.70108
17492000,17492000,2294028,0.036457434,0.0010757573,-0.074659325,11.697754
17592000,17592000,2294028,0.03460198,0.0022611762,-0.06280368,11.694458
17692000,17692000,2294028,0.028248325,0.0007831182,-0.05869775,11.6910095
17792000,17792000,2294028,0.046674468,-0.0029358515,-0.060654625,11.687836
17892000,17892000,2294028,0.04416683,0.002163659,-0.05375501,11.68457
17992000,17992000,2294028,0.04042285,-0.0052588107,-0.05385702,11.681152
18092000,18092000,2294028,0.053130392,-0.00467929,-0.054895625,11.677887
18192000,18192000,2294028,0.05088951,-0.0020761332,-0.051558364,11.674744
18292000,18292000,2294028,0.044404767,-0.014290046,-0.035922628,11.671478
18392000,18392000,2294028,0.046655055,-0.0048969435,-0.037056796,11.668213
18492000,18492000,2294028,0.051018566,-0.010451212,-0.045334544,11.6649475
18592000,18592000,2294028,0.052722316,-0.0016384026,-0.030547611,11.661591
18692000,18692000,2294028,0.038916517,-0.010265001,-0.029715108,11.658447
18792000,18792000,2294028,0.05089615,-0.011314779,-0.034954455,11.655212
18892000,18892000,2294028,0.03675304,-0.003867779,-0.028820707,11.651978
18992000,18992000,2294028,0.043813843,-0.01214729,-0.03835836,11.648621
19092000,19092000,2294028,0.03240021,-0.0040857047,-0.02076306,11.645386
19192000,19192000,2294028,0.04809105,-0.0038028825,-0.027053896,11.642273
19292000,19292000,2294028,0.032206926,-0.0040482157,-0.012113478,11.638916
19392000,19392000,2294028,0.025867982,-0.011546946,-0.01378868,11.635834
19492000,19492000,2294028,0.027556248,-0.0036358428,-0.021475274,11.632599
19592000,19592000,2294028,0.030602429,-0.0060105924,-0.015995743,11.629242
19692000,19692000,2294028,0.032058526,-0.0064348313,-0.014117473,11.626129
19792000,19792000,2294028,0.019295854,-0.008950332,-0.012603083,11.622803
19892000,19892000,2294028,0.015099814,-0.011373372,-0.008569656,11.619568
19992000,19992000,2294028,0.02567555,-0.00041377026,-0.015215035,11.616364
20092000,20092000,2294028,0.014439134,-0.0066939676,-0.020211194,11.613281
20192000,20192000,2294028,0.015673526,-0.00826808,-0.008119461,11.610077
20292000,20292000,2294028,0.0064212694,-0.0033013104,-0.0049805893,11.606873
20392000,20392000,2294028,0.01047965,-0.0028924935,-0.00570918,11.603516
20492000,20492000,2294028,0.006138033,-0.01096171,-0.015914435,11.600464
20592000,20592000,2294028,0.02060268,-0.0051253983,-0.007438705,11.5972595
20692000,20692000,2294028,0.013858114,-0.0048876535,0.00028832688,11.593933
20792000,20792000,2294028,0.004730753,0.00062760373,-0.0067208195,11.590851
20892000,20892000,2294028,0.017390933,-0.020492416,-0.008456332,11.587677
20992000,20992000,2294028,0.012097332,-0.0058787754,-0.0061770077,11.584503
21092000,21092000,2294028,0.0023489625,-0.006016582,-0.0009834975,11.581329
21192000,21192000,2294028,0.0033852742,-0.0055837836,0.0037607853,11.5781555
21292000,21292000,2294028,0.0055028554,-0.015194952,-0.0041588093,11.57486
21392000,21392000,2294028,0.007966475,-0.0021875885,0.0013021517,11.571838
21492000,21492000,2294028,0.0011520429,-0.0032153483,-0.008038215,11.568665
21592000,21592000,2294028,0.00085207797,-0.0020035035,-0.00040961895,11.565521
21692000,21692000,2294028,-0.004790796,-0.0067248046,-0.0073641306,11.562256
21792000,21792000,2294028,0.0027147294,-0.011960754,0.0005608993,11.559235
21892000,21892000,2294028,0.0027239074,-0.0062167244,-0.01273764,11.556091
21992000,21992000,2294028,-0.008412557,-0.002953411,-0.004682547,11.5529785
22092000,22092000,2294028,-0.0033702005,-0.008168175,-0.0014286854,11.549835
22192000,22192000,2294028,0.006440104,0.0031531693,0.0045561027,11.5466
22292000,22292000,2294028,-0.002242963,-0.0057131196,-0.00041680926,11.54361
22392000,22392000,2294028,-0.0041085845,-0.01027712,0.001468154,11.540466
22492000,22492000,2294028,-0.009181376,-0.005099433,-0.013651375,11.537262
22592000,22592000,2294028,-0.0065438105,-0.008494575,-0.005849634,11.534149
22692000,22692000,2294028,0.0068488475,-0.0066571324,-0.008066772,11.531158
22792000,22792000,2294028,-0.0026208055,-0.014680704,-0.007817413,11.527954
22892000,22892000,2294028,-0.0037518546,-0.0051930845,0.0051514716,11.524994
22992000,22992000,2294028,-0.003117392,0.0014556175,-0.006474743,11.521759
23092000,23092000,2294028,-0.0017358765,-0.005273755,-0.005607772,11.518799
23192000,23192000,2294028,0.0125448685,-0.0054726615,0.011846261,11.5155945
23292000,23292000,2294028,-0.0043803025,-0.0018027407,-0.00350365,11.512665
23392000,23392000,2294028,0.011180941,-0.008019642,0.0044596,11.5095825
23492000,23492000,2294028,-0.0033627907,-0.0005199739,-0.007937467,11.506378
23592000,23592000,2294028,-0.0017610128,-0.012771768,-0.008401087,11.503326
23692000,23692000,2294028,-0.0019831967,-0.008009442,-0.0023864682,11.500366
23792000,23792000,2294028,-0.0047546085,-0.010912095,-0.0105701685,11.497192
23892000,23892000,2294028,-0.018525826,-0.013858356,-0.0016214197,11.494232
23992000,23992000,2294028,-0.04213259,-0.060962815,-0.009411791,11.491058
24092000,24092000,2294028,-0.06770447,-0.09034589,-0.014892201,11.488068
24192000,24192000,2294028,-0.06323767,-0.12717114,-0.0019537169,11.485321
24292000,24292000,2294028,-0.06694993,-0.1593327,-0.007051158,11.482452
24392000,24392000,2294028,-0.066305526,-0.18846118,-0.011060885,11.480011
24492000,24492000,2294028,-0.042336527,-0.18827288,-0.018358603,11.477692
24592000,24592000,2294028,-0.04985476,-0.16286066,-0.013785272,11.475494
24692000,24692000,2294028,-0.051688775,-0.15165736,-0.026481286,11.473724
24792000,24792000,2294028,-0.03798446,-0.1408954,-0.023463713,11.472015
24892000,24892000,2294028,-0.027544534,-0.14051153,-0.025991954,11.470581
24992000,24992000,2294028,-0.027503118,-0.13480079,-0.03293471,11.46936
25092000,25092000,2294028,-0.014890128,-0.13468276,-0.036672283,11.468262
25192000,25192000,2294028,-0.01659524,-0.12044554,-0.023052456,11.467346
25292000,25292000,2294028,0.0060513765,-0.12110563,-0.038463734,11.466644
25392000,25392000,2294028,0.0022843904,-0.1056426,-0.029966917,11.466064
25492000,25492000,2294028,0.011980319,-0.08979007,-0.02617703,11.465607
25592000,25592000,2294028,0.005838229,-0.09640678,-0.035896756,11.465271
25692000,25692000,2294028,0.013723059,-0.07845622,-0.029423954,11.465088
25792000,25792000,2294028,0.018787004,-0.07584182,-0.021967154,11.464996
25892000,25892000,2294028,0.011667506,-0.07024873,-0.023246802,11.464996
25992000,25992000,2294028,0.005103399,-0.06315066,-0.017454656,11.465088
26092000,26092000,2294028,0.012527042,-0.054701645,-0.02930559,11.4652405
26192000,26192000,2294028,0.031116521,-0.059099186,-0.022013027,11.465515
26292000,26292000,2294028,0.025136305,-0.04353255,-0.023307275,11.46579
26392000,26392000,2294028,0.02548972,-0.0464765,-0.01897554,11.466156
26492000,26492000,2294028,0.031656515,-0.023865081,-0.019991046,11.466583
26592000,26592000,2294028,0.028057536,-0.035750933,-0.017362446,11.4670105
26692000,26692000,2294028,0.02810745,-0.035524093,-0.0200751,11.467529
26792000,26792000,2294028,0.024628185,-0.0215049,-0.013558577,11.468048
26892000,26892000,2294028,0.027441325,-0.020770716,-0.018248996,11.468597
26992000,26992000,2294028,0.027105087,-0.0068728114,-0.007936162,11.469177
27092000,27092000,2294028,0.03340837,-0.012133001,-0.0103484625,11.469757
27192000,27192000,2294028,0.02804403,-0.023053182,-0.00073374924,11.470398
27292000,27292000,2294028,0.026952555,-0.014645462,0.0059148343,11.471039
27392000,27392000,2294028,0.019799538,-0.015351035,0.0025091628,11.471649
27492000,27492000,2294028,0.01861874,-0.013346973,-0.0033113775,11.472351
27592000,27592000,2294028,0.0121476045,-0.0063636927,0.003862194,11.472992
27692000,27692000,2294028,0.019582408,-0.01433824,-0.0045772134,11.473663
27792000,27792000,2294028,0.02968598,-0.010569561,-0.0017218001,11.474335
27892000,27892000,2294028,0.02537608,-0.002838031,-0.0036101034,11.475006
27992000,27992000,2294028,0.017867086,-0.0031442214,0.008384777,11.475647
28092000,28092000,2294028,0.036512647,-0.0023582787,0.008432502,11.476318
28192000,28192000,2294028,0.016111197,0.0047336933,0.01431882,11.47702
28292000,28292000,2294028,0.016930752,0.002618398,0.011642537,11.477661
28392000,28392000,2294028,0.017916294,-0.0037913916,0.010300224,11.478302
28492000,28492000,2294028,0.007942048,-0.0006142081,0.013755492,11.478973
28592000,28592000,2294028,0.0036803146,-0.0054102424,0.020350594,11.479645
28692000,28692000,2294028,0.014491206,0.0031820738,0.018723423,11.480255
28792000,28792000,2294028,0.022523044,8.942984e-05,0.007303411,11.480896
28892000,28892000,2294028,0.013624389,0.00060331996,0.01734227,11.481537
28992000,28992000,2294028,0.005800488,0.002466447,0.012931974,11.482178
29092000,29092000,2294028,0.009341139,0.006271669,0.014368768,11.482788
29192000,29192000,2294028,0.0076189023,0.0088797165,0.0053241164,11.483398
29292000,29292000,2294028,-0.0029004216,0.009466718,0.016634079,11.483978
29392000,29392000,2294028,0.0032582644,0.0073361886,0.0062658545,11.484558
29492000,29492000,2294028,0.004110474,0.005505536,0.015088515,11.485138
29592000,29592000,2294028,0.0021811412,0.005124956,0.014056835,11.485718
29692000,29692000,2294028,0.010650023,-0.00067586236,0.024267077,11.486237
29792000,29792000,2294028,0.0058188885,0.00370541,0.013863597,11.486816
29892000,29892000,2294028,0.0036399695,-0.0012047673,0.014900358,11.487335
29992000,29992000,2294028,0.020407869,0.026003197,0.021348383,11.4878845
30092000,30092000,2294028,0.06910525,0.1100904,0.033629052,11.488373
30192000,30192000,2294028,0.083037525,0.18177879,0.035836067,11.4888
30292000,30292000,2294028,0.091859154,0.24018447,0.018942665,11.489105
30392000,30392000,2294028,0.08046188,0.25720987,0.026280368,11.489166
30496000,30496000,2294028,0.053381603,0.24679929,0.021570724,11.488892
30596000,30596000,2294028,0.0463003,0.21037541,0.048233368,11.488312
30700000,30700000,2294028,0.026542803,0.18002814,0.050815888,11.487366
30800000,30800000,2294028,0.008138686,0.15383823,0.045078956,11.486176
30904000,30904000,2294028,0.0039958213,0.1402667,0.042971537,11.484558
31008000,31008000,2294028,-0.005684523,0.13072988,0.026070533,11.482849
31108000,31108000,2294028,-0.022778073,0.12290763,0.030487541,11.4809265
31212000,31212000,2294028,-0.036124453,0.10932604,0.019815128,11.478638
31316000,31316000,2294028,-0.031505838,0.091756076,0.020263996,11.476349
31416000,31416000,2294028,-0.04414661,0.07513084,0.028652785,11.473816
31520000,31520000,2294028,-0.051128544,0.060176574,0.021338902,11.471161
31624000,31624000,2294028,-0.049640816,0.05128284,0.0283438,11.468414
31724000,31724000,2294028,-0.050717052,0.044798978,0.022791248,11.465668
31828000,31828000,2294028,-0.041762512,0.04186739,0.016306268,11.46283
31928000,31928000,2294028,-0.05504702,0.03065405,0.012804709,11.4599
32028000,32028000,2294028,-0.03359474,0.02940444,0.012078599,11.45694
32128000,32128000,2294028,-0.039577726,0.024717344,0.0094747245,11.453796
32228000,32228000,2294028,-0.028568927,0.009575963,0.008408331,11.450867
32328000,32328000,2294028,-0.033711836,0.023144446,0.0073290295,11.447754
32428000,32428000,2294028,-0.026234092,0.012970172,0.003296142,11.44458
32528000,32528000,2294028,-0.041459877,0.013626977,0.0017994541,11.441284
32628000,32628000,2294028,-0.03167616,0.0054347417,0.0026353202,11.438049
32728000,32728000,2294028,-0.026560897,0.013077565,0.008584788,11.434814
32828000,32828000,2294028,-0.020249799,0.012000442,-0.0022855063,11.431671
32928000,32928000,2294028,-0.028313307,0.010173594,-0.004717691,11.428375
33028000,33028000,2294028,-0.018043157,0.011935936,0.0021579715,11.424927
33128000,33128000,2294028,-0.033005867,-0.011165637,-0.001909111,11.4216
33228000,33228000,2294028,-0.031927906,0.0072064614,-0.012487294,11.418396
33328000,33328000,2294028,-0.026028268,0.0013953614,-0.0148764895,11.415039
33428000,33428000,2294028,-0.019945156,0.009381138,-0.014978831,11.41156
33528000,33528000,2294028,-0.023278449,-0.005401937,-0.0067623844,11.408173
33628000,33628000,2294028,-0.010533816,-0.001351139,-0.005401842,11.404785
33728000,33728000,2294028,-0.023936428,0.0065767635,-0.0072984826,11.401398
33828000,33828000,2294028,-0.019636022,0.0021777,-0.005034648,11.39801
33928000,33928000,2294028,-0.011470052,0.004245679,-0.01095087,11.394592
34028000,34028000,2294028,-0.01918484,-0.0023155708,-0.0065434477,11.391327
34128000,34128000,2294028,-0.010294572,-0.002696691,-0.0029080948,11.387787
34228000,34228000,2294028,-0.015367459,0.0050227363,-0.0021384351,11.384369
34328000,34328000,2294028,-0.0078076925,-0.008028337,-0.009694864,11.380951
34428000,34428000,2294028,0.007914605,-0.010603334,-0.0022735498,11.377533
34528000,34528000,2294028,-0.0057881814,-0.004321209,-0.00067329465,11.374115
34628000,34628000,2294028,-0.0054426207,-0.0010803874,-0.007591732,11.37085
34728000,34728000,2294028,0.0011326409,-0.009123852,-0.0035573828,11.367279
34828000,34828000,2294028,-0.0024071406,-0.0046523837,-0.018587194,11.364014
34928000,34928000,2294028,-0.0030961412,-0.0062222397,-0.01163986,11.360596
35028000,35028000,2294028,0.00028931818,-0.004571369,-0.016547404,11.357178
35128000,35128000,2294028,-0.004384794,-0.006865973,-0.005589822,11.35376
35228000,35228000,2294028,-0.0061439434,-0.0017528541,-0.017466385,11.350342
35328000,35328000,2294028,0.009015487,0.0015075594,-0.013045741,11.346924
35428000,35428000,2294028,0.005536165,-0.010617316,-0.018167173,11.343506
35528000,35528000,2294028,0.0050690267,-0.0036938607,-0.004176532,11.339935
35628000,35628000,2294028,-0.006197691,-0.0076213474,-0.00608999,11.336517
35728000,35728000,2294028,0.008577379,-0.0025474357,-0.0068282727,11.333099
35828000,35828000,2294028,0.0056062173,0.0011395634,-0.0072013466,11.329834
35928000,35928000,2294028,0.009567995,-0.0021527656,-0.0221274,11.326294
36028000,36028000,2294028,0.0011903635,-0.0069196415,-0.008845152,11.323029
36128000,36128000,2294028,-0.0059878253,-0.002694711,-0.009179655,11.319458
36228000,36228000,2294028,-0.0009065915,0.0013782027,-0.013455378,11.316193
36328000,36328000,2294028,-0.003778316,0.007079576,-0.012412418,11.312805
36428000,36428000,2294028,0.0038016436,-0.0007549998,-0.0054634335,11.309265
36528000,36528000,2294028,-0.011725332,-0.01641164,-0.007253064,11.306
36628000,36628000,2294028,0.00394473,-0.0005670382,-0.004885354,11.302582
36728000,36728000,2294028,-0.014067194,-0.0011918803,-0.0005646007,11.299194
36828000,36828000,2294028,0.004360943,0.004799077,-0.003527421,11.295654
36928000,36928000,2294028,0.0053077615,-0.0020880648,-0.01241237,11.292267
37028000,37028000,2294028,0.008173611,0.0072708717,-0.0056210994,11.289001
37128000,37128000,2294028,9.165523e-05,-0.0055116722,-0.012746485,11.285614
37228000,37228000,2294028,0.0058635166,0.003223847,-0.0041111265,11.282227
37328000,37328000,2294028,0.007339046,-0.004499354,-0.001402548,11.278839
37428000,37428000,2294028,0.00079557125,0.001668915,-0.01066282,11.275452
37528000,37528000,2294028,-0.0026635414,0.0014804435,-0.009633844,11.271942
37628000,37628000,2294028,0.005539457,0.008233472,-0.005845066,11.268677
37728000,37728000,2294028,-0.001971378,0.0003930999,-0.0073842467,11.265167
37828000,37828000,2294028,0.0028875105,-0.012971306,-0.0051528583,11.261932
37928000,37928000,2294028,0.0026051688,-0.0011048663,0.0012862653,11.258545
38028000,38028000,2294028,0.0004337107,0.0010244906,0.003709155,11.255035
38128000,38128000,2294028,0.0063321986,-0.010253363,-0.014828981,11.251801
38228000,38228000,2294028,0.004251117,-0.0011333239,0.0031544433,11.248291
38328000,38328000,2294028,-0.0022080396,-0.0029315192,0.0017080737,11.245056
38428000,38428000,2294028,0.007110262,-0.0082009,0.0015667324,11.241547
38528000,38528000,2294028,0.00740132,-0.0016208391,-0.0002778527,11.238159
38628000,38628000,2294028,0.0004816075,-0.004406804,-0.0021326814,11.234802
38728000,38728000,2294028,-0.007613568,0.00862824,-0.012157234,11.231445
38828000,38828000,2294028,0.0037481629,-0.0005613809,0.0020100975,11.22821
38928000,38928000,2294028,0.0045133005,-0.002180927,-0.012405663,11.224701
39028000,39028000,2294028,-0.005536498,0.0063591017,-0.0018214338,11.221466
39128000,39128000,2294028,0.0032525838,-0.0041900957,0.0054056924,11.218109
39228000,39228000,2294028,-0.0018625567,-0.0074772527,-0.0019701375,11.214752
39328000,39328000,2294028,-0.0053642043,-0.0026597355,-0.010337763,11.211243
39428000,39428000,2294028,-0.009650529,-0.0024934008,-0.00018346918,11.208038
39528000,39528000,2294028,-0.00084601855,-0.0045780228,-0.0026132022,11.204681
39628000,39628000,2294028,-0.0041748364,-0.0041752425,-0.009005666,11.201324
39728000,39728000,2294028,-0.010327155,-0.0055805286,0.007817986,11.197815
39828000,39828000,2294028,-0.0070646666,-0.0060014157,-0.004755868,11.194489
39928000,39928000,2294028,-0.0020938145,-0.0057795406,-0.005663108,11.191132
40028000,40028000,2294028,-0.019544346,-0.048675835,-0.0005108058,11.187775
40128000,40128000,2294028,-0.057209894,-0.0927961,-0.0022902067,11.184631
40228000,40228000,2294028,-0.061850682,-0.12344933,-0.013146101,11.181427
40328000,40328000,2294028,-0.057336334,-0.16438638,-0.014409653,11.178375
40428000,40428000,2294028,-0.05820623,-0.19506589,-0.024795158,11.175415
40528000,40528000,2294028,-0.04112135,-0.21076874,-0.0132608265,11.172791
40628000,40628000,2294028,-0.026615215,-0.20109956,-0.022899909,11.170441
40728000,40728000,2294028,-0.025930542,-0.17787187,-0.015103832,11.168396
40828000,40828000,2294028,-0.02105747,-0.16272266,-0.025732335,11.166412
40928000,40928000,2294028,-0.017586565,-0.15434591,-0.029915793,11.164764
41028000,41028000,2294028,-0.0126129845,-0.14155832,-0.025589814,11.1633
41128000,41128000,2294028,-0.008167374,-0.13538156,-0.022009525,11.162018
41228000,41228000,2294028,0.0047996514,-0.1361085,-0.020218793,11.16098
41328000,41328000,2294028,-0.0027580129,-0.1264355,-0.023522345,11.160004
41428000,41428000,2294028,0.009995863,-0.10626947,-0.022616496,11.159271
41528000,41528000,2294028,0.005251113,-0.10363557,-0.026109522,11.15863
41628000,41628000,2294028,0.016747674,-0.09418765,-0.018444376,11.158112
41728000,41728000,2294028,0.00341641,-0.09294767,-0.033859942,11.157715
41828000,41828000,2294028,0.020504434,-0.08456091,-0.027499892,11.15744
41928000,41928000,2294028,0.014633953,-0.06841099,-0.02522776,11.157257
42028000,42028000,2294028,0.016808052,-0.07275155,-0.028951444,11.157135
42128000,42128000,2294028,0.013810631,-0.05567234,-0.018934397,11.1571045
42228000,42228000,2294028,0.024586855,-0.053194784,-0.038386155,11.157135
42328000,42328000,2294028,0.029215494,-0.045616902,-0.016000766,11.157257
42428000,42428000,2294028,0.0155445,-0.043501485,-0.018648308,11.157379
42528000,42528000,2294028,0.012285263,-0.03911897,-0.0046386104,11.157593
42628000,42628000,2294028,0.03121293,-0.032976296,-0.008399645,11.157837
42728000,42728000,2294028,0.021366654,-0.024635231,-0.014397715,11.158081
42828000,42828000,2294028,0.022951454,-0.019830119,-0.009803034,11.158386
42928000,42928000,2294028,0.016440611,-0.019355228,-0.0036203237,11.158722
43028000,43028000,2294028,0.01766471,-0.019498635,-0.003375164,11.159088
43128000,43128000,2294028,0.024122952,-0.014752681,-0.011624562,11.159454
43228000,43228000,2294028,0.01535516,-0.011696653,-0.003168035,11.159821
43328000,43328000,2294028,0.013928194,-0.017822064,-0.003159146,11.160248
43428000,43428000,2294028,0.015201578,-0.012145898,-0.00953606,11.160645
43528000,43528000,2294028,0.02297414,-0.010303079,0.0026520428,11.161041
43628000,43628000,2294028,0.01773595,-0.013476778,0.00035338185,11.1614685
43728000,43728000,2294028,0.015005814,-0.008607932,0.0030129082,11.161896
43828000,43828000,2294028,0.011920097,-0.006210155,0.0015361604,11.162323
43928000,43928000,2294028,0.008879872,0.001791495,0.005737338,11.16275
44028000,44028000,2294028,0.013245058,-0.0035804985,0.002239048,11.163208
44128000,44128000,2294028,0.015607329,-0.00046663018,0.009269008,11.163605
44228000,44228000,2294028,0.013541301,-0.0023800905,0.00532537,11.1640625
44328000,44328000,2294028,0.016602727,-0.0022728562,0.0062220385,11.164459
44428000,44428000,2294028,0.011549343,0.0032061643,0.0034963412,11.164856
44528000,44528000,2294028,0.015310588,0.004312245,0.0013053657,11.165283
44628000,44628000,2294028,0.0077467766,0.009267024,0.009372582,11.16568
44728000,44728000,2294028,0.009560578,-0.0025473733,0.0017133116,11.166077
44828000,44828000,2294028,0.01393856,-0.00096529495,0.0058833887,11.166473
44928000,44928000,2294028,0.008836083,0.00012944719,0.007373859,11.16687
45028000,45028000,2294028,0.007898079,0.008259919,0.001993364,11.167236
45128000,45128000,2294028,0.0025539864,-0.0026779452,0.011043703,11.167603
45228000,45228000,2294028,0.008441035,0.009364991,0.004403592,11.167969
45328000,45328000,2294028,0.007251274,-0.0056689093,0.02392292,11.168335
45428000,45428000,2294028,-0.00068726315,0.0067129824,0.006894682,11.168671
45528000,45528000,2294028,-0.0003480029,-0.0045103766,0.014700702,11.169006
45628000,45628000,2294028,0.011263659,-0.0031986965,0.012992022,11.169312
45728000,45728000,2294028,0.007502497,0.00236468,0.011209445,11.169617
45828000,45828000,2294028,0.0063683367,-0.0022689875,0.02562823,11.169922
45928000,45928000,2294028,-0.00035989718,-0.002722109,0.014552912,11.170227
46028000,46028000,2294028,-0.007971139,-0.012945631,0.013820571,11.170532
46128000,46128000,2294028,0.00021570065,-0.0061178245,0.010676743,11.170807
46228000,46228000,2294028,0.0027881172,-0.004707408,0.013474985,11.171082
46328000,46328000,2294028,-0.0033004535,-0.0015912781,0.015892414,11.171326
46428000,46428000,2294028,-0.0034317798,-0.004437176,0.010763065,11.17157
46528000,46528000,2294028,-0.008864347,0.004797425,0.0074834474,11.171814
46628000,46628000,2294028,-0.005111951,-0.0032022547,0.011130028,11.172058
46728000,46728000,2294028,-0.0016962113,0.012581254,0.015650919,11.172272
46828000,46828000,2294028,0.0033913967,-0.0035357114,0.0081069395,11.172516
46928000,46928000,2294028,0.0023323502,-0.0045577865,0.01402078,11.172699
47028000,47028000,2294028,0.0062034256,-0.0013002125,0.010063843,11.172913
47128000,47128000,2294028,0.017348891,0.0036754187,0.015792025,11.173126
47228000,47228000,2294028,0.009454139,-0.0029775633,0.013929826,11.173309
47328000,47328000,2294028,0.0031378216,-0.0013958507,0.020128418,11.173462
47428000,47428000,2294028,0.0040635657,0.0068847435,0.02158932,11.173645
47528000,47528000,2294028,0.00015819138,-0.00072790653,0.007565714,11.173798
47628000,47628000,2294028,-0.010900675,0.0039294194,0.0048249788,11.173981
47728000,47728000,2294028,0.008366462,0.0052588354,0.018114313,11.174133
47828000,47828000,2294028,-0.0020044777,-0.006805087,0.011988636,11.174286
47928000,47928000,2294028,-0.007283658,-0.0018395655,0.014750605,11.174408
48028000,48028000,2294028,-0.0073220446,-0.002626743,0.010529063,11.174561
48128000,48128000,2294028,-0.006154464,-0.0012909501,0.005686785,11.174683
48228000,48228000,2294028,-0.010914569,0.0002794426,0.0051296693,11.174805
48328000,48328000,2294028,-0.015848825,0.0021345564,0.0042964965,11.174927
48428000,48428000,2294028,-0.007214337,-0.00095464516,0.011323103,11.175049
48528000,48528000,2294028,-0.003336511,-0.0011298957,0.006221904,11.17514
48628000,48628000,2294028,-0.014237544,-0.00056180585,-0.0051426226,11.175262
48728000,48728000,2294028,-0.0028273345,-0.008297999,0.0024751308,11.175354
48828000,48828000,2294028,-0.005448544,0.001003687,0.011305237,11.175446
48928000,48928000,2294028,-0.010328968,-0.008131754,0.0034901444,11.175537
49028000,49028000,2294028,-0.007619056,-0.0048623914,0.004165778,11.175598
49128000,49128000,2294028,-0.0029481594,0.0028998316,-0.0030407438,11.17569
49228000,49228000,2294028,-0.0036925368,0.0065775933,0.004778956,11.175781
49328000,49328000,2294028,-0.0049634585,-0.003505293,0.018575963,11.175842
49428000,49428000,2294028,-0.004612212,-0.00041659738,0.008463548,11.175903
49528000,49528000,2294028,-0.006231,-0.0021637906,0.014703517,11.175964
49628000,49628000,2294028,0.0020622285,-0.009365377,-0.007308234,11.176025
49728000,49728000,2294028,0.0025725418,-0.004424447,0.0012149402,11.176056
49828000,49828000,2294028,-0.0071368665,0.00034711565,-0.00016923605,11.176117
49928000,49928000,2294028,0.0029373977,-0.0020873747,0.007198702,11.176147
50028000,50028000,2294028,0.007184277,0.00092495244,0.010332603,11.1762085
50128000,50128000,2294028,-0.0011885875,-0.0021632917,0.0042283395,11.176239
50228000,50228000,2294028,-0.005780779,-0.00017508412,0.006221179,11.17627
50328000,50328000,2294028,-0.0052322918,-0.0063845236,0.0015536158,11.1763
50428000,50428000,2294028,-0.006441408,-0.00093922496,0.0025726922,11.176331
50528000,50528000,2294028,-0.0020278273,-0.012381948,0.009548517,11.176361
50628000,50628000,2294028,-0.0076719644,-0.0037934962,-0.0077235377,11.176392
50728000,50728000,2294028,-0.010078635,-0.0082064625,0.008317161,11.176422
50828000,50828000,2294028,0.0035527418,0.00020137457,-0.0021410263,11.176453
50928000,50928000,2294028,-0.005758788,0.0018522241,0.010243199,11.176453
51028000,51028000,2294028,0.005962879,0.0007565216,0.008132478,11.176483
51128000,51128000,2294028,-0.0013521144,-0.0011677499,0.0067538247,11.176483
51228000,51228000,2294028,0.0032820993,0.0008551697,0.003491282,11.176514
51328000,51328000,2294028,0.0062312065,0.004883052,0.0044477372,11.176514
51428000,51428000,2294028,0.012038586,-0.0004528044,0.005789624,11.176514
51528000,51528000,2294028,0.004137341,-0.0035372016,0.013346281,11.176514
51628000,51628000,2294028,0.0047579743,-0.0032013117,-0.00036779587,11.176514
51728000,51728000,2294028,0.0007092511,-0.008095554,0.0051111463,11.176514
51828000,51828000,2294028,-0.006964292,0.0050558313,-0.0028351299,11.176514
51928000,51928000,2294028,-0.006648835,-0.0059960843,-0.007042617,11.176514
52028000,52028000,2294028,-0.011032024,-0.009192188,0.0023830708,11.176514
52128000,52128000,2294028,-0.004871668,-0.007305112,0.011494265,11.176514
52228000,52228000,2294028,-0.007170098,-0.0062204287,-0.0065506953,11.176514
52328000,52328000,2294028,0.011534113,-0.011438514,0.0038847816,11.176514
52428000,52428000,2294028,0.00083904795,-0.014761452,-0.007316842,11.176514
52528000,52528000,2294028,0.0063958745,-0.0012832144,-0.008714086,11.176483
52628000,52628000,2294028,0.0019165571,-0.0024018658,0.004809871,11.176483
52728000,52728000,2294028,0.0026291676,-3.340038e-05,0.0055658547,11.176483
52828000,52828000,2294028,-0.008821993,-0.0031098134,0.007253942,11.176453
52928000,52928000,2294028,-0.008921947,-0.0044870446,0.003903867,11.176453
53028000,53028000,2294028,-0.0038224114,0.00065650913,-0.0021076181,11.176453
53128000,53128000,2294028,-0.0005363439,-0.0067464747,-0.0033946263,11.176422
53228000,53228000,2294028,-0.0010739223,-0.006866381,0.009783968,11.176392
53328000,53328000,2294028,-0.007835521,-0.0023654182,0.008263728,11.176392
53428000,53428000,2294028,-0.005312114,-0.0075052828,-0.007773236,11.176361
53528000,53528000,2294028,-0.0011871577,-0.011344617,-0.009362496,11.176361
53628000,53628000,2294028,-0.00022663856,-0.013519925,0.001825491,11.176361
53728000,53728000,2294028,0.0010461605,-0.0037613094,-0.009109854,11.176331
53828000,53828000,2294028,-0.0075066676,0.0013732057,0.007390539,11.1763
53928000,53928000,2294028,0.009372596,-6.8172725e-05,0.004437135,11.1763
54028000,54028000,2294028,-0.006480875,-0.004559874,0.0110220695,11.17627
54128000,54128000,2294028,-0.0049880836,-0.0021543964,-0.013038055,11.17627
54228000,54228000,2294028,0.0030856275,-0.016684482,-0.007379732,11.176239
54328000,54328000,2294028,-0.002832868,-0.01657297,-0.0042015277,11.1762085
54428000,54428000,2294028,-0.003695571,-0.007679237,-0.007488334,11.1762085
54528000,54528000,2294028,-0.0037598389,-0.00014401256,-0.0081558265,11.176178
54628000,54628000,2294028,-0.0023345712,-0.004200809,0.0014012315,11.176178
54728000,54728000,2294028,-0.0021494406,0.004480088,-0.012368106,11.176147
54828000,54828000,2294028,-0.005321227,-0.009039796,-0.0042251362,11.176147
54928000,54928000,2294028,-0.0070783957,-0.010917829,0.0128364805,11.176147
55028000,55028000,2294028,0.007222523,-0.006228741,-0.0029638351,11.176117
55128000,55128000,2294028,-0.0050206124,-0.009633992,-6.2558414e-05,11.176117
55228000,55228000,2294028,-0.008659107,-0.001620973,0.0046207733,11.176086
55328000,55328000,2294028,0.003442907,-0.010152019,-0.006437419,11.176086
55428000,55428000,2294028,0.0007863847,-0.0056904033,-0.00035600786,11.176056
55528000,55528000,2294028,0.000452532,0.00030824207,-0.0011065198,11.176056
55628000,55628000,2294028,-0.00032197242,-0.0048195557,-0.0037705305,11.176056
55728000,55728000,2294028,-0.0016354432,-0.0044433647,0.0042825206,11.176025
55828000,55828000,2294028,-0.00335015,-0.0054762545,-0.00013523232,11.176025
55928000,55928000,2294028,-0.002355089,-0.009127405,-0.006474178,11.176025
56028000,56028000,2294028,0.0042355666,-0.0038358653,0.0054022702,11.175995
56128000,56128000,2294028,0.007981987,-0.007922374,-0.00397719,11.175995
56228000,56228000,2294028,0.0049167876,-0.013394345,-0.0004203645,11.175995
56328000,56328000,2294028,-0.0069485446,-0.011015572,0.0015561673,11.175964
56428000,56428000,2294028,0.0034979575,-0.0070145093,-0.0025013622,11.175964
56528000,56528000,2294028,-0.006255779,-0.008684092,0.012053025,11.175964
56628000,56628000,2294028,-0.0015300339,-0.0066061653,-0.006892319,11.175964
56728000,56728000,2294028,0.0042703105,-0.0049074246,0.002353986,11.175964
56828000,56828000,2294028,0.0046505737,-0.005005291,-0.00024258644,11.175964
56928000,56928000,2294028,0.0035161881,0.00058236386,-0.0052142055,11.175964
57028000,57028000,2294028,-0.0018099617,-0.008448004,-0.0047283177,11.175964
57128000,57128000,2294028,-0.0017156759,-0.0067600277,0.0042931736,11.175964
57228000,57228000,2294028,-0.00414423,-0.0016272996,-0.0068112356,11.175964
57328000,57328000,2294028,-0.006367018,-0.013199805,-0.0045629176,11.175964
57428000,57428000,2294028,-0.0046786726,-0.0044277757,0.0031648283,11.175964
57528000,57528000,2294028,-0.0059007,-0.0023039922,0.0009650108,11.175964
57628000,57628000,2294028,-0.006176093,-0.0021932446,-0.0026155645,11.175964
57728000,57728000,2294028,-0.010180363,-0.0012329279,-0.00595641,11.175964
57828000,57828000,2294028,0.0008599775,-0.0009839652,-0.0026430723,11.175964
57928000,57928000,2294028,-0.002609664,-0.0029693635,0.0033350675,11.175964
58028000,58028000,2294028,-0.001627592,-0.009193009,0.005904834,11.175964
58128000,58128000,2294028,0.0010695457,-0.013654002,0.0017412899,11.175964
58228000,58228000,2294028,0.0057522473,-0.010551713,-0.00012962818,11.175964
58328000,58328000,2294028,0.0017518785,-0.016205756,0.0073829307,11.175964
58428000,58428000,2294028,-0.0011981775,-0.00917148,-0.008118512,11.175964
58528000,58528000,2294028,-0.003911886,-0.013950425,0.0017666768,11.175964
58628000,58628000,2294028,0.009373887,-0.0055471095,-0.0020565414,11.175964
58728000,58728000,2294028,0.005922825,-0.004246591,-0.010438168,11.175964
58828000,58828000,2294028,-0.010541754,-0.013085706,0.002251119,11.175964
58928000,58928000,2294028,0.002486254,0.0020037387,0.0042175855,11.175964
59028000,59028000,2294028,0.004334102,-0.0021381234,0.008991067,11.175964
59128000,59128000,2294028,-0.008122251,0.007931226,0.008599272,11.175964
59228000,59228000,2294028,-0.0011795678,-0.0041399733,0.006024673,11.175964
59328000,59328000,2294028,-0.004656352,-0.0013616595,0.012916322,11.175964
59428000,59428000,2294028,-0.009372988,0.0036895117,-0.0026684615,11.175964
59528000,59528000,2294028,0.009485782,0.003018006,0.0039267642,11.175964
59628000,59628000,2294028,6.988749e-05,-0.0029171533,-0.0086274035,11.175964
59728000,59728000,2294028,0.0035776019,-0.0006904908,-0.00029250435,11.175964
59828000,59828000,2294028,-0.005610527,-0.007440819,0.0021830637,11.175964
59928000,59928000,2294028,0.00016369422,-0.018333282,0.0022963968,11.175964
60028000,60028000,2294028,0.004148032,0.0003738765,-0.0015200757,11.175964
60128000,60128000,2294028,-0.0035098982,-0.012012887,-0.0023972134,11.175964
60228000,60228000,2294028,0.0062714177,-0.0151840085,0.007703302,11.175964
60328000,60328000,2294028,-0.0064635747,-0.002494436,-0.0026787296,11.175995
60428000,60428000,2294028,-0.00079995644,-0.009867831,0.009299431,11.175995
60528000,60528000,2294028,-0.004249247,-0.007695194,0.007832988,11.175995
60628000,60628000,2294028,0.0015241152,0.00048430907,0.0059987735,11.175995
60728000,60728000,2294028,-0.008049973,-0.017251398,-0.0010010779,11.176025
60828000,60828000,2294028,-0.0039302614,-0.008641772,-0.0065970314,11.176025
60928000,60928000,2294028,-0.0013388612,0.004630913,-0.001666987,11.176025
61028000,61028000,2294028,-0.005351381,-0.008407932,0.0032883321,11.176025
61128000,61128000,2294028,-0.001760352,-0.0070974743,0.0024470247,11.176056
61228000,61228000,2294028,0.008093061,-0.001802492,0.01259358,11.176056
61328000,61328000,2294028,-0.0016486803,-0.0061514494,0.006949294,11.176056
61428000,61428000,2294028,-0.00081730663,-0.00031071765,0.0038812961,11.176056
61528000,61528000,2294028,-0.0067464183,-0.011770695,-0.0017914285,11.176056
61628000,61628000,2294028,0.0050800643,-0.0121416105,0.0032632358,11.176086
61728000,61728000,2294028,0.0011007688,0.0041865064,0.0057106595,11.176086
61828000,61828000,2294028,0.006847377,-0.013766589,-0.0050051413,11.176086
61928000,61928000,2294028,-0.00062324206,0.0035197972,0.0014090427,11.176086
62028000,62028000,2294028,0.0005719256,-0.0006898625,-0.00028624228,11.176086
62128000,62128000,2294028,0.00682458,-0.0011961303,0.0041186074,11.176086
62228000,62228000,2294028,0.00071879773,-0.013930068,-0.0010527393,11.176086
62328000,62328000,2294028,0.0036918058,-0.013092126,0.007955481,11.176086
62428000,62428000,2294028,0.0012602477,-0.009225133,0.00052586576,11.176086
62528000,62528000,2294028,0.001100996,0.002215031,0.0030345903,11.176086
62628000,62628000,2294028,-0.0057566254,-0.005964947,0.0021149213,11.176086
62728000,62728000,2294028,-0.0052147945,-0.005863468,-0.0015107276,11.176086
62832000,62832000,2294028,-0.0012448352,-0.0029639136,-0.002563418,11.176086
62936000,62936000,2294028,0.0014103228,-0.006279491,0.0025483235,11.176086
63040000,63040000,2294028,-0.0034922163,-0.008993031,0.0020589428,11.176086
63140000,63140000,2294028,0.0024476736,-0.0020237907,-0.0013159738,11.176086
63240000,63240000,2294028,0.005282273,-0.01803071,0.0010049745,11.176086
63344000,63344000,2294028,-0.0067845,-0.0024927827,0.0045821453,11.176086
63448000,63448000,2294028,-0.0107534295,-0.012317481,-0.0019409562,11.176086
63552000,63552000,2294028,-0.017976455,-0.0023515804,-0.0037852188,11.176086
63656000,63656000,2294028,-0.0013640035,-0.00849712,0.002317303,11.176086
63756000,63756000,2294028,0.002358495,-0.005987014,-0.0011683989,11.176086
63856000,63856000,2294028,-0.008806164,-0.0030369314,-0.008996564,11.176086
63960000,63960000,2294028,-0.006571667,-0.00712697,0.0041244854,11.176086
64064000,64064000,2294028,-0.009187059,-0.011784759,0.00225254,11.176086
64168000,64168000,2294028,-0.0019614564,-0.011092929,-0.00067979045,11.176086
64268000,64268000,2294028,0.002165213,-0.010606999,-0.0020480203,11.176086
64368000,64368000,2294028,-0.009580849,-0.0051850635,-0.003984994,11.176086
64472000,64472000,2294028,0.0019719594,-0.0053716297,0.0054136845,11.176086
64576000,64576000,2294028,-0.004652917,-0.008376547,-0.0099489,11.176086
64680000,64680000,2294028,-0.003632332,-0.0012539868,6.9749294e-05,11.176086
64784000,64784000,2294028,0.006796937,-0.008647916,0.005534678,11.176056
64884000,64884000,2294028,-0.008306434,-0.006454478,0.009308449,11.176056
64984000,64984000,2294028,-0.011625643,0.0017954797,0.0038561393,11.176056
65088000,65088000,2294028,-0.002111499,-0.0016974324,0.0036062337,11.176056
65192000,65192000,2294028,-0.0051805573,-0.0048357192,0.008049683,11.176056
65296000,65296000,2294028,0.0048475196,-0.014229875,-0.0121453935,11.176056
65400000,65400000,2294028,-0.00010593677,-0.00807654,0.006208083,11.176056
65500000,65500000,2294028,-0.0061345533,-0.00674832,0.00035280353,11.176056
65600000,65600000,2294028,0.005134489,-0.009132059,-0.009861206,11.176056
65700000,65700000,2294028,-0.0075572603,-0.0033858009,0.003066388,11.176056
65800000,65800000,2294028,0.0014129296,-0.0049941824,0.007894559,11.176056
65900000,65900000,2294028,0.004076848,-0.0101167355,-0.002001811,11.176056
66000000,66000000,2294028,0.004964344,0.00021261565,0.008575671,11.176086
66100000,66100000,2294028,0.0006598319,-0.0104497485,-0.0054754657,11.176086
66200000,66200000,2294028,0.00555025,-0.0029845154,-0.0035290236,11.176086
66300000,66300000,2294028,0.0007098272,-0.008959133,0.007862314,11.176086
66400000,66400000,2294028,0.0015792294,-0.0019974196,0.0008576542,11.176086
66500000,66500000,2294028,0.0032866555,-0.010703889,0.008113912,11.176117
66600000,66600000,2294028,0.0006199781,-0.0025476308,0.0072263945,11.176117
66700000,66700000,2294028,-0.002324237,-0.013184932,-0.0121005,11.176117
66800000,66800000,2294028,0.0038152155,-0.009469715,-0.00852221,11.176117
66900000,66900000,2294028,-0.0046775867,-0.006824333,-0.0027650893,11.176147
67000000,67000000,2294028,-0.00051241653,-0.0016162735,0.0013115439,11.176147
67100000,67100000,2294028,0.0068124873,-0.0031819306,0.0012708615,11.176178
67200000,67200000,2294028,-0.004005544,-0.017028118,-0.0036092114,11.176178
67300000,67300000,2294028,0.000707954,-0.009268092,-0.0024589759,11.176178
67400000,67400000,2294028,-0.008029223,-0.008845896,-0.0035038628,11.1762085
67500000,67500000,2294028,-0.003705431,0.0007406751,4.629577e-05,11.1762085
67600000,67600000,2294028,-0.00019822032,-0.00984792,-0.0039737658,11.1762085
67700000,67700000,2294028,-0.00582093,-0.0060258666,-0.001121744,11.176239
67800000,67800000,2294028,0.0051339944,-0.009507966,0.0018738868,11.176239
67900000,67900000,2294028,0.0035936413,-0.01251936,0.0056060734,11.176239
68000000,68000000,2294028,0.0071859043,0.0020888487,0.0059704524,11.17627
68100000,68100000,2294028,0.0013871144,-0.008303727,0.000734839,11.17627
68200000,68200000,2294028,-0.01637444,-0.00910327,0.00242212,11.17627
68300000,68300000,2294028,0.0008679933,-0.0026578067,0.008441685,11.1763
68400000,68400000,2294028,-0.0005526305,-0.015032578,-5.173128e-05,11.1763
68500000,68500000,2294028,-0.0018382234,2.7752701e-05,-0.0041262247,11.176331
68600000,68600000,2294028,0.0027356683,-0.0044540903,0.004711518,11.176331
68700000,68700000,2294028,-0.0010414748,-0.0027549248,0.00054413144,11.176331
68800000,68800000,2294028,-0.00088765414,-0.008667248,0.0018212011,11.176361
68900000,68900000,2294028,0.0005443656,-0.0071006413,-0.0026669772,11.176361
69000000,69000000,2294028,0.005854929,-0.00047190636,-0.011332586,11.176361
69100000,69100000,2294028,0.002232849,0.0021961243,0.0031597298,11.176392
69200000,69200000,2294028,-0.0055945823,-0.00506582,-0.0041504856,11.176392
69300000,69300000,2294028,0.005906986,-0.00074001984,-0.006712181,11.176422
69400000,69400000,2294028,-0.0020984209,-0.014298917,-0.0016875557,11.176422
69500000,69500000,2294028,0.006274326,-0.01753029,-8.9871115e-05,11.176422
69600000,69600000,2294028,0.0009301032,-0.0017583938,-0.00055905635,11.176453
69700000,69700000,2294028,-0.000376614,-0.008410246,-0.00079815934,11.176453
69800000,69800000,2294028,-0.0010269238,-0.0013210272,-0.003956982,11.176483
69900000,69900000,2294028,-0.0065916777,-0.0049013128,-0.003102478,11.176483
70000000,70000000,2294028,-0.0022147922,-0.007869479,-0.0016958952,11.176514
70100000,70100000,2294028,0.0048491587,-0.010424601,0.004941742,11.176514
70200000,70200000,2294028,-0.0072959503,-0.0044766804,0.0011366948,11.176544
70300000,70300000,2294028,0.0070885457,-0.005516055,0.0101643875,11.176575
70400000,70400000,2294028,-0.005634836,-0.004909809,-0.005979287,11.176575
70500000,70500000,2294028,-0.00296378,-0.007864105,0.0065936544,11.176605
70600000,70600000,2294028,-0.00077202794,-0.0081211375,-0.001053254,11.176636
70700000,70700000,2294028,-0.010428046,-0.00035881213,-0.010197361,11.176636
70800000,70800000,2294028,-0.0009936615,-0.0074883127,-0.0049807397,11.176666
70900000,70900000,2294028,0.0075499285,-0.004385623,-0.0038972679,11.176666
71000000,71000000,2294028,0.006076434,-0.0038307505,-0.0007227732,11.176697
71100000,71100000,2294028,0.0027142956,-0.00811045,0.005652936,11.176697
71200000,71200000,2294028,-0.003516433,-0.0039486517,-0.008394168,11.176697
71300000,71300000,2294028,0.0027562182,-0.010699559,-0.0020951969,11.176727
71400000,71400000,2294028,0.0029315671,-0.0032074105,-0.0020943705,11.176727
71500000,71500000,2294028,0.004662738,-0.0057187513,-0.002233027,11.176727
71600000,71600000,2294028,-0.008271673,-0.00076686224,0.005496187,11.176727
71700000,71700000,2294028,-0.004772657,-0.008655818,0.0028655336,11.176727
71800000,71800000,2294028,-0.00073254114,-0.0048711854,0.0011177931,11.176727
71900000,71900000,2294028,0.0022937204,-0.016490009,0.0008374548,11.176727
72000000,72000000,2294028,-0.008952411,-0.0018946524,0.0018388272,11.176727
72100000,72100000,2294028,0.009696475,0.0050697154,-0.003882348,11.176727
72200000,72200000,2294028,-0.006421103,-0.016265595,0.0006455321,11.176727
72300000,72300000,2294028,-0.0062913303,-0.008564494,-0.0017349875,11.176727
72400000,72400000,2294028,0.0109677,-0.0063770926,-0.011137045,11.176727
72500000,72500000,2294028,0.0023610326,0.005947586,-0.005492919,11.176727
72600000,72600000,2294028,-0.0024366921,-0.008130781,0.0044478904,11.176727
72700000,72700000,2294028,-0.004427838,-0.010134007,-0.009798184,11.176697
72800000,72800000,2294028,0.005464944,-0.008997524,-0.002157183,11.176697
72900000,72900000,2294028,0.0051482976,-0.00971345,0.0017940786,11.176697
73000000,73000000,2294028,0.005040155,-0.003273024,0.0027352665,11.176697
73100000,73100000,2294028,0.005026723,0.00059682044,0.0019765038,11.176697
73200000,73200000,2294028,-0.00020719398,-0.01419594,-0.0008517791,11.176697
73300000,73300000,2294028,0.0035130463,-0.007813923,0.0008593468,11.176697
73400000,73400000,2294028,-0.01083531,-0.011655108,5.6945053e-05,11.176697
73500000,73500000,2294028,0.0033830728,-0.0028139658,-0.002734348,11.176666
73600000,73600000,2294028,-0.0027672024,-0.012568472,-0.00046277262,11.176666
73700000,73700000,2294028,-0.009560849,-0.005784895,0.0026465843,11.176666
73800000,73800000,2294028,0.004078411,-0.007774537,-0.0035607703,11.176666
73900000,73900000,2294028,0.0016166479,-0.0064124716,-0.011873109,11.176666
74000000,74000000,2294028,-0.0046179127,-0.0014870425,0.0003338253,11.176666
74100000,74100000,2294028,0.0039064274,-0.007253406,0.00510555,11.176666
74200000,74200000,2294028,-0.00035636435,-0.014151061,-0.0053009572,11.176666
74300000,74300000,2294028,0.0028761893,-0.00030777857,-0.0017247424,11.176666
74400000,74400000,2294028,-0.0017466537,-0.004868527,0.0037072564,11.176666
74500000,74500000,2294028,-0.0020483166,0.0032451563,0.011315118,11.176666
74600000,74600000,2294028,0.0057929927,-0.0083175,0.006661701,11.176666
74700000,74700000,2294028,0.0068160086,-0.007287138,0.009885867,11.176636
74800000,74800000,2294028,-0.013872022,-0.0076477146,-0.0023340422,11.176636
74900000,74900000,2294028,-0.008493743,-0.0018221865,0.01039715,11.176636
75000000,75000000,2294028,-0.0024187039,-0.0119633395,-0.0013555232,11.176636
75100000,75100000,2294028,-0.0046820072,-0.010020495,-0.004181575,11.176636
75200000,75200000,2294028,-0.0035028663,-0.0033237413,-0.009059654,11.176636
75300000,75300000,2294028,-0.0045582876,-0.0017273714,-0.0054368833,11.176636
75400000,75400000,2294028,0.0025761998,-0.0011525606,-0.00030261916,11.176636
75500000,75500000,2294028,-0.0074792593,-0.016947163,-0.004409467,11.176636
75600000,75600000,2294028,-0.00024397924,-0.0010992745,0.004915482,11.176605
75700000,75700000,2294028,-0.0072679534,-0.00271281,-0.0002498661,11.176605
75800000,75800000,2294028,0.00042314676,-0.009182095,-0.0015776509,11.176605
75900000,75900000,2294028,-0.007818429,-0.009553603,0.00564835,11.176605
76000000,76000000,2294028,-0.0057736966,-0.0029337623,-0.013239287,11.176605
76100000,76100000,2294028,0.013190909,0.00015940476,-0.0036420333,11.176605
76200000,76200000,2294028,-0.005871609,-0.015844848,-0.0095011275,11.176575
76300000,76300000,2294028,0.0016724477,0.0030519404,-0.0003354309,11.176575
76400000,76400000,2294028,-0.0067749256,-0.00019753579,-0.003442902,11.176575
76500000,76500000,2294028,0.0007654375,-0.002866177,-8.2428196e-05,11.176575
76600000,76600000,2294028,0.0024367215,0.003679796,-0.009345387,11.176575
76700000,76700000,2294028,-0.0025927476,-0.012697436,-0.008386572,11.176544
76800000,76800000,2294028,0.005651152,-0.0012781245,-0.005571075,11.176544
76900000,76900000,2294028,0.0007150338,-0.0055142227,0.0022050259,11.176544
77000000,77000000,2294028,0.0033878363,-0.0019643158,-0.00054411474,11.176544
77100000,77100000,2294028,0.0012852157,-0.011414085,-0.007184125,11.176544
77200000,77200000,2294028,-0.006220762,-0.012739099,0.0074741254,11.176514
77300000,77300000,2294028,0.0006292054,-0.00620972,-0.00021226294,11.176514
77400000,77400000,2294028,-0.009963681,-0.0005815045,-0.00091613375,11.176514
77500000,77500000,2294028,-0.01322128,0.0015700515,-0.008271798,11.176514
77600000,77600000,2294028,0.008197255,0.004320341,-0.002539684,11.176514
77700000,77700000,2294028,0.0069843642,-0.013935774,-0.00031202286,11.176483
77800000,77800000,2294028,-0.009041446,0.0020925873,0.007894157,11.176483
77900000,77900000,2294028,0.009212481,-0.010385481,-0.0043611326,11.176483
78000000,78000000,2294028,0.0062007057,-0.0062476844,-2.6086109e-05,11.176483
78100000,78100000,2294028,0.0054176976,-0.0128428135,-0.008184012,11.176453
78200000,78200000,2294028,0.0015490463,-0.0041430946,-0.00618144,11.176453
78300000,78300000,2294028,-0.009216835,-0.01739376,-0.0020726079,11.176453
78400000,78400000,2294028,-0.008120515,-0.0026613476,-0.0017594557,11.176453
78500000,78500000,2294028,-0.0044302214,-0.0017946576,-0.009256263,11.176422
78600000,78600000,2294028,0.0012494554,-0.0038967268,-0.005858867,11.176422
78700000,78700000,2294028,0.002987077,-0.011656456,0.0010369157,11.176422
78800000,78800000,2294028,0.002611761,-0.008847083,-0.002336275,11.176422
78900000,78900000,2294028,-0.0065570516,0.00041997337,-0.0017095117,11.176422
79000000,79000000,2294028,0.0009906216,0.00034946177,-4.9034006e-05,11.176392
79100000,79100000,2294028,0.007480919,0.0077906908,-0.0008417503,11.176392
79200000,79200000,2294028,-0.0036890781,-0.008204374,-0.0033509012,11.176392
79300000,79300000,2294028,-0.0062406603,-0.004886489,-0.0078956215,11.176392
79400000,79400000,2294028,-0.004436878,-0.0035858073,0.009497423,11.176361
79500000,79500000,2294028,-0.006277319,-0.0066642542,-0.0050284434,11.176361
79600000,79600000,2294028,0.004993963,-0.00079710945,0.003233148,11.176361
79700000,79700000,2294028,0.006145876,-0.008817505,-0.0046911994,11.176331
79800000,79800000,2294028,-0.0039025915,-0.004228545,-0.011607,11.176331
79900000,79900000,2294028,0.0009213278,-0.012659722,-0.0017218924,11.176331
80000000,80000000,2294028,0.006652963,-0.005819392,-0.012724393,11.1763
80100000,80100000,2294028,-0.0059551704,-0.009287948,-0.007405971,11.1763
80200000,80200000,2294028,0.006181263,-0.0001869075,0.0028147209,11.1763
80300000,80300000,2294028,0.0067017437,-0.008906975,0.004402736,11.17627
80400000,80400000,2294028,0.001974607,-0.007072509,0.003145339,11.17627
80500000,80500000,2294028,0.0019277039,0.0014036071,-0.0005770952,11.17627
80600000,80600000,2294028,0.004642016,-0.0045701764,-0.0044192197,11.17627
