timestamp,rollspeed_integ,pitchspeed_integ,yawspeed_integ,additional_integ1
11972000,4.162634e-06,1.19529695e-05,8.277578e-07,0.0
11980000,4.1271037e-06,1.2265899e-05,2.0679588e-06,0.0
11988000,3.923535e-06,1.1844242e-05,1.952499e-06,0.0
11992000,3.9546944e-06,1.1560579e-05,1.796958e-06,0.0
11996000,3.835197e-06,1.1233792e-05,1.8411768e-06,0.0
12004000,3.7186906e-06,1.1844208e-05,1.783812e-06,0.0
12012000,3.988599e-06,1.1472317e-05,5.1153984e-07,0.0
12020000,4.3780683e-06,1.0534387e-05,1.2601016e-06,0.0
12024000,4.3306227e-06,1.0223661e-05,1.8943349e-06,0.0
12028000,4.437781e-06,1.0443326e-05,2.0503983e-06,0.0
12032000,4.706417e-06,1.1060633e-05,1.3203821e-06,0.0
12036000,4.921252e-06,1.1562105e-05,9.379769e-08,0.0
12040000,4.934722e-06,1.1859657e-05,-2.8576378e-07,0.0
12044000,4.6979108e-06,1.1871579e-05,-1.7295142e-07,0.0
12052000,4.5665943e-06,1.1456754e-05,-7.49909e-07,0.0
12056000,4.8490206e-06,1.1271731e-05,-4.76085e-07,0.0
12060000,5.0114863e-06,1.151497e-05,2.1682663e-07,0.0
12064000,4.886142e-06,1.2069911e-05,6.797032e-07,0.0
12068000,4.5861557e-06,1.2253187e-05,8.203812e-07,0.0
12072000,4.2163383e-06,1.1944027e-05,1.3618467e-06,0.0
12076000,3.923172e-06,1.1320228e-05,1.5130594e-06,0.0
12084000,3.6685278e-06,1.0820668e-05,3.6473554e-07,0.0
12092000,3.7657733e-06,1.2145471e-05,-1.0572963e-06,0.0
12096000,3.9406873e-06,1.1850926e-05,-1.6084265e-06,0.0
12100000,4.183569e-06,1.1577935e-05,-1.4621646e-06,0.0
12108000,4.604117e-06,1.1633136e-05,3.004582e-07,0.0
12116000,4.7822186e-06,1.08711365e-05,2.2032141e-07,0.0
12124000,4.140522e-06,1.0795136e-05,-1.4351542e-06,0.0
12128000,4.0264276e-06,1.0904863e-05,-2.151485e-06,0.0
12132000,4.236387e-06,1.10205265e-05,-1.8334231e-06,0.0
12136000,4.6894506e-06,1.0661138e-05,-8.1890056e-07,0.0
12140000,4.858299e-06,9.77142e-06,-8.5912326e-08,0.0
12148000,4.428457e-06,1.1404352e-05,-2.7096181e-08,0.0
12156000,3.604893e-06,1.227542e-05,-1.1074394e-07,0.0
12160000,3.626083e-06,1.190621e-05,-5.704871e-07,0.0
12164000,3.8212056e-06,1.15625e-05,-1.0018306e-06,0.0
12168000,4.0328355e-06,1.1411539e-05,-8.999036e-07,0.0
12172000,4.1120147e-06,1.1232075e-05,-6.285861e-07,0.0
12180000,4.0751265e-06,1.0978719e-05,-1.3556499e-06,0.0
12188000,4.63101e-06,1.1490907e-05,-5.040213e-07,0.0
12196000,5.3134117e-06,1.1712989e-05,4.2249263e-07,0.0
12204000,4.8426577e-06,1.0881088e-05,3.2264927e-07,0.0
12212000,4.1684216e-06,9.9185145e-06,-1.4774163e-06,0.0
12216000,4.1211197e-06,9.346083e-06,-1.2667305e-06,0.0
12220000,4.0037394e-06,9.626453e-06,-5.196878e-07,0.0
12224000,4.040829e-06,1.0610828e-05,2.653178e-07,0.0
12228000,4.4104627e-06,1.1519255e-05,2.700752e-07,0.0
12236000,4.607213e-06,1.1421403e-05,9.309147e-08,0.0
12244000,4.523727e-06,1.0963735e-05,-9.191363e-08,0.0
12252000,3.3738288e-06,1.1104891e-05,0.0,0.0
12260000,3.1830148e-06,1.1811213e-05,0.0,0.0
12268000,3.5102369e-06,1.182426e-05,0.0,0.0
12272000,3.6987492e-06,1.1575422e-05,0.0,0.0
12276000,3.884246e-06,1.1004003e-05,0.0,0.0
12284000,4.3148284e-06,1.0936862e-05,0.0,0.0
12292000,3.866372e-06,1.05521e-05,0.0,0.0
12296000,3.5312337e-06,1.0585001e-05,0.0,0.0
12300000,3.4315526e-06,1.06902535e-05,0.0,0.0
12304000,3.4303823e-06,1.1036022e-05,0.0,0.0
12308000,3.4660256e-06,1.1369003e-05,0.0,0.0
12312000,3.596535e-06,1.1230909e-05,0.0,0.0
12316000,3.7382335e-06,1.081917e-05,0.0,0.0
12320000,3.876816e-06,1.0777868e-05,0.0,0.0
12324000,4.014422e-06,1.1173074e-05,0.0,0.0
12332000,3.6262086e-06,1.1980947e-05,0.0,0.0
12336000,3.4231334e-06,1.2487188e-05,0.0,0.0
12340000,3.2198216e-06,1.2572392e-05,0.0,0.0
12344000,3.0654203e-06,1.1974817e-05,0.0,0.0
12348000,3.1245977e-06,1.0907131e-05,0.0,0.0
12356000,3.437232e-06,1.0715341e-05,0.0,2.0478556e-06
12364000,3.8611756e-06,1.0884755e-05,0.0,4.063731e-06
12372000,4.1783082e-06,1.10465435e-05,0.0,7.2173243e-06
12380000,4.6754544e-06,1.1640719e-05,0.0,1.2022051e-05
12384000,4.7473404e-06,1.1380281e-05,0.0,1.4881037e-05
12388000,4.590025e-06,1.0910616e-05,0.0,1.8905082e-05
12392000,4.110974e-06,1.0588282e-05,0.0,2.3740311e-05
12396000,3.666736e-06,1.02661e-05,0.0,2.780232e-05
12400000,3.6040208e-06,9.513695e-06,0.0,2.996006e-05
12404000,3.6946294e-06,9.052633e-06,0.0,3.049012e-05
12408000,3.821838e-06,9.499305e-06,0.0,3.0795065e-05
12412000,4.140842e-06,1.0304117e-05,0.0,3.1794923e-05
12416000,4.4161206e-06,1.0566627e-05,0.0,3.37144e-05
12420000,4.4235976e-06,1.0318901e-05,0.0,3.646839e-05
12424000,4.2407255e-06,1.0146139e-05,0.0,3.9667164e-05
12428000,4.025674e-06,9.77493e-06,0.0,4.3004755e-05
12432000,3.921474e-06,9.486847e-06,0.0,4.622731e-05
12436000,3.783597e-06,9.639531e-06,0.0,4.9138845e-05
12440000,3.4557406e-06,9.72901e-06,0.0,5.2046133e-05
12444000,3.1736545e-06,9.704856e-06,0.0,5.5419223e-05
12452000,3.4694885e-06,1.0201489e-05,0.0,6.3413194e-05
12460000,3.9225683e-06,1.1082681e-05,0.0,7.1355746e-05
12464000,4.1291987e-06,1.098556e-05,0.0,7.452273e-05
12468000,4.3002183e-06,1.0762511e-05,0.0,7.709496e-05
12476000,4.3771843e-06,1.0077168e-05,0.0,8.185747e-05
12480000,4.282612e-06,1.0148908e-05,0.0,8.4146224e-05
12484000,4.100156e-06,1.0438327e-05,0.0,8.616304e-05
12488000,4.0040977e-06,1.0691583e-05,0.0,8.7921275e-05
12492000,4.0154123e-06,1.1051327e-05,0.0,9.009749e-05
12496000,3.8356784e-06,1.1556399e-05,0.0,9.27222e-05
12500000,3.5967962e-06,1.1780929e-05,0.0,9.5330965e-05
12504000,3.4872508e-06,1.1790035e-05,0.0,9.7282886e-05
12508000,3.4540983e-06,1.16813535e-05,0.0,9.872017e-05
12512000,3.4397435e-06,1.0996732e-05,0.0,0.00010012386
12516000,3.371489e-06,1.0014698e-05,0.0,0.000101780955
12520000,3.309559e-06,9.769256e-06,0.0,0.0001036628
12524000,3.36893e-06,1.0098398e-05,0.0,0.00010595298
12532000,3.714494e-06,9.812342e-06,0.0,0.00011077419
12540000,3.7259672e-06,1.0811217e-05,0.0,0.00011529261
12548000,3.8298126e-06,1.07245605e-05,0.0,0.00011976697
12552000,4.01236e-06,1.088639e-05,0.0,0.000121913574
12556000,3.96636e-06,1.1448006e-05,0.0,0.00012404968
12564000,3.848924e-06,1.267925e-05,0.0,0.00012808907
12572000,3.9955917e-06,1.1619416e-05,0.0,0.00013227497
12576000,4.273529e-06,1.1089293e-05,0.0,0.00013443036
12580000,4.3407763e-06,1.050324e-05,0.0,0.0001366661
12588000,3.947853e-06,9.662141e-06,0.0,0.0001414652
12592000,3.827005e-06,9.766196e-06,0.0,0.000144101
12596000,3.560345e-06,1.0154828e-05,0.0,0.00014719077
12600000,3.273384e-06,1.0533851e-05,0.0,0.00015043466
12604000,3.0772947e-06,1.0172343e-05,0.0,0.00015359408
12608000,2.9555918e-06,8.95727e-06,0.0,0.00015624767
12612000,3.0385006e-06,7.994905e-06,0.0,0.00015834949
12616000,3.34782e-06,8.144997e-06,0.0,0.00016016707
12620000,3.6510398e-06,8.637753e-06,0.0,0.0001620604
12624000,3.9230713e-06,9.225975e-06,0.0,0.00016415068
12628000,4.105341e-06,9.918326e-06,0.0,0.00016652198
12632000,4.072116e-06,1.0233609e-05,0.0,0.0001690971
12636000,3.895879e-06,1.0560177e-05,0.0,0.00017165519
12644000,3.2880032e-06,1.1508885e-05,0.0,0.00017483716
12648000,3.116085e-06,1.1407837e-05,0.0,0.00017585196
12652000,3.0227316e-06,1.078602e-05,0.0,0.00017733123
12660000,3.2999299e-06,9.1977245e-06,0.0,0.00018121286
12668000,3.6689103e-06,8.900041e-06,0.0,0.000184561
12672000,3.545864e-06,9.3931e-06,0.0,0.00018623401
12676000,3.2926073e-06,9.955875e-06,0.0,0.00018772126
12680000,3.1353172e-06,9.909206e-06,0.0,0.00018870288
12684000,2.611505e-06,7.369172e-06,0.0,0.00018967179
12688000,2.8493644e-06,6.5716026e-06,0.0,0.00019109232
12692000,2.9908915e-06,6.286298e-06,0.0,0.00019284469
12696000,2.9475323e-06,6.5654363e-06,0.0,0.00019460227
12700000,2.9320543e-06,6.9085977e-06,0.0,0.00019644962
12704000,3.020995e-06,7.2543417e-06,0.0,0.00019861356
12708000,3.0039919e-06,7.597356e-06,0.0,0.00020121147
12716000,2.6853877e-06,7.839536e-06,0.0,0.00020719602
12720000,2.7888486e-06,7.965044e-06,0.0,0.0002100364
12724000,3.0233002e-06,7.780146e-06,0.0,0.00021268155
12728000,3.100283e-06,7.5594303e-06,0.0,0.00021507007
12732000,6.0966822e-06,-0.00012574707,0.0,0.00021732658
12740000,1.1498831e-05,-0.0003919445,0.0,0.00022197956
12744000,1.4149127e-05,-0.00052477984,0.0,0.00022383912
12748000,1.6709164e-05,-0.0006576308,0.0,0.00022425802
12752000,1.903137e-05,-0.00079053105,0.0,0.00022231447
12756000,2.1219668e-05,-0.00091679837,0.0,0.0002171445
12760000,2.3299397e-05,-0.0010426062,0.0,0.00020834804
12764000,2.5188305e-05,-0.0011681917,0.0,0.00019558525
12768000,2.6879045e-05,-0.0012937691,0.0,0.00017889582
12772000,2.8216533e-05,-0.0014191786,0.0,0.00015808406
12776000,2.904521e-05,-0.0015441449,0.0,0.00013350538
12780000,2.9466239e-05,-0.0016625712,0.0,0.000105154206
12784000,2.9491206e-05,-0.0017628276,0.0,7.344104e-05
12788000,2.9123517e-05,-0.0018629393,0.0,3.810527e-05
12792000,2.8335135e-05,-0.0019629002,0.0,-3.6704296e-07
12796000,2.7023938e-05,-0.0020625195,0.0,-4.228002e-05
12800000,2.5116768e-05,-0.0021618358,0.0,-8.73356e-05
12804000,2.2675493e-05,-0.0022563634,0.0,-0.00013607639
12808000,1.9750274e-05,-0.0023514077,0.0,-0.00018776154
12812000,1.6346732e-05,-0.002447347,0.0,-0.00024265818
12816000,1.2511563e-05,-0.0025440997,0.0,-0.0003000618
12820000,8.239957e-06,-0.002641333,0.0,-0.0003600866
12824000,3.4505338e-06,-0.002738746,0.0,-0.00042205016
12828000,-1.8832461e-06,-0.0028316742,0.0,-0.00048667734
12832000,-7.753901e-06,-0.0029248705,0.0,-0.0005533817
12836000,-1.4240816e-05,-0.0030186847,0.0,-0.0006228147
12840000,-2.143862e-05,-0.0031132214,0.0,-0.000694049
12844000,-2.9363626e-05,-0.003207888,0.0,-0.0007672353
12848000,-3.7875616e-05,-0.003301974,0.0,-0.00084150286
12852000,-4.6830428e-05,-0.0033912496,0.0,-0.0009172096
12856000,-5.6341523e-05,-0.003480372,0.0,-0.0009936581
12860000,-6.668421e-05,-0.003569322,0.0,-0.0010714029
12864000,-7.800907e-05,-0.0036581596,0.0,-0.0011496209
12868000,-9.019819e-05,-0.0037471422,0.0,-0.001229133
12872000,-0.00010300891,-0.0038364949,0.0,-0.0013094035
12876000,-0.00011621741,-0.0039221626,0.0,-0.001390788
12880000,-0.00012970802,-0.004008089,0.0,-0.0014724211
12884000,-0.0001421567,-0.0040848544,0.0,-0.0015547755
12888000,-0.00015525265,-0.004161514,0.0,-0.0016369416
12892000,-0.00016905855,-0.004238007,0.0,-0.0017190588
12896000,-0.0001835454,-0.0043143686,0.0,-0.0018001219
12900000,-0.000198696,-0.0043874807,0.0,-0.0018806979
12904000,-0.00021441835,-0.0044610887,0.0,-0.0019602326
12908000,-0.00023071014,-0.004535088,0.0,-0.0020388945
12912000,-0.00024763998,-0.004609344,0.0,-0.0021157209
12916000,-0.00026524288,-0.0046835616,0.0,-0.0021913396
12920000,-0.0002835409,-0.004757292,0.0,-0.002265514
12924000,-0.00030250705,-0.004826963,0.0,-0.0023387647
12928000,-0.00032204879,-0.0048960545,0.0,-0.0024104207
12932000,-0.00034202138,-0.0049648704,0.0,-0.002480997
12936000,-0.00036236944,-0.0050337827,0.0,-0.0025502413
12940000,-0.0003831638,-0.0051029664,0.0,-0.0026185482
12944000,-0.0004044415,-0.0051723365,0.0,-0.0026851608
12948000,-0.00042621407,-0.005238467,0.0,-0.0027504638
12952000,-0.00044853464,-0.0053045372,0.0,-0.0028140438
12956000,-0.00047146698,-0.0053702835,0.0,-0.002876221
12960000,-0.0004949749,-0.005435592,0.0,-0.00293654
12964000,-0.0005189429,-0.0055007217,0.0,-0.0029952086
12968000,-0.00054334215,-0.005565771,0.0,-0.0030517052
12972000,-0.0005681715,-0.005627507,0.0,-0.003106364
12976000,-0.00059345964,-0.00568897,0.0,-0.0031589537
12980000,-0.0006191387,-0.005749991,0.0,-0.0032096729
12984000,-0.0006429147,-0.0058056056,0.0,-0.00325816
12988000,-0.00066683214,-0.0058605317,0.0,-0.0033047886
12992000,-0.00069104275,-0.005914729,0.0,-0.0033494344
12996000,-0.00071561016,-0.0059656696,0.0,-0.003392387
13000000,-0.00074045087,-0.0060163364,0.0,-0.0034331896
13004000,-0.00076537684,-0.006066586,0.0,-0.003471965
13008000,-0.0007903196,-0.0061162086,0.0,-0.0035085957
13012000,-0.0008153647,-0.006165264,0.0,-0.003543096
13016000,-0.0008405575,-0.0062138406,0.0,-0.0035751818
13020000,-0.00086591014,-0.0062591815,0.0,-0.0036051641
13024000,-0.0008914208,-0.006303994,0.0,-0.0036331147
13028000,-0.00091709784,-0.0063485648,0.0,-0.0036592272
13032000,-0.0009429284,-0.0063932943,0.0,-0.0036831943
13036000,-0.0009688307,-0.006438192,0.0,-0.0037050527
13040000,-0.0009948198,-0.0064829453,0.0,-0.0037246495
13044000,-0.0010209725,-0.006524833,0.0,-0.003742047
13048000,-0.0010472685,-0.0065665226,0.0,-0.003757424
13052000,-0.0010736678,-0.0066079157,0.0,-0.0037711076
13056000,-0.0011002534,-0.0066490867,0.0,-0.0037829983
13060000,-0.0011270813,-0.00669022,0.0,-0.0037931248
13064000,-0.0011540509,-0.0067312033,0.0,-0.003801349
13068000,-0.0011810351,-0.006769177,0.0,-0.003807562
13072000,-0.0012079753,-0.006806627,0.0,-0.0038118449
13076000,-0.0012348129,-0.00684387,0.0,-0.0038144682
13080000,-0.0012614931,-0.006881201,0.0,-0.0038156016
13084000,-0.001286929,-0.0069169095,0.0,-0.003815298
13088000,-0.0013123648,-0.0069522206,0.0,-0.0038134367
13092000,-0.0013378231,-0.006984551,0.0,-0.003809723
13096000,-0.0013632235,-0.007016513,0.0,-0.003804265
13100000,-0.0013885542,-0.007048661,0.0,-0.0037972985
13104000,-0.0014138719,-0.007081269,0.0,-0.0037888328
13108000,-0.0014391465,-0.0071140956,0.0,-0.003778584
13112000,-0.0014642775,-0.0071468595,0.0,-0.003766449
13116000,-0.0014891842,-0.007177122,0.0,-0.0037525469
13120000,-0.0015138799,-0.007207327,0.0,-0.003737288
13124000,-0.001538522,-0.0072375834,0.0,-0.0037209333
13128000,-0.0015633095,-0.007267945,0.0,-0.0037034713
13132000,-0.0015882786,-0.007298763,0.0,-0.0036847095
13136000,-0.001613325,-0.0073302323,0.0,-0.0036646638
13140000,-0.0016383117,-0.0073599727,0.0,-0.0036432056
13144000,-0.0016631528,-0.007390181,0.0,-0.00362053
13148000,-0.0016878629,-0.007420705,0.0,-0.0035968341
13152000,-0.0017125043,-0.0074515445,0.0,-0.0035723534
13156000,-0.0017371512,-0.007482718,0.0,-0.003546998
13160000,-0.0017617662,-0.007514177,0.0,-0.0035207365
13164000,-0.0017862353,-0.0075439895,0.0,-0.0034933963
13168000,-0.0018105605,-0.007574491,0.0,-0.0034651682
13172000,-0.0018348461,-0.0076054386,0.0,-0.0034363049
13176000,-0.0018591549,-0.0076369084,0.0,-0.0034070737
13180000,-0.0018834359,-0.007669131,0.0,-0.003377298
13184000,-0.001907602,-0.00770215,0.0,-0.0033468008
13188000,-0.0019316329,-0.007733923,0.0,-0.0033153084
13196000,-0.001979689,-0.007799912,0.0,-0.0032500322
13200000,-0.0020038628,-0.007833052,0.0,-0.0032168932
13204000,-0.0020280348,-0.007866403,0.0,-0.0031835104
13212000,-0.0020762372,-0.007933673,0.0,-0.0031158226
13216000,-0.0021002812,-0.007967861,0.0,-0.0030817997
13220000,-0.0021241994,-0.008002775,0.0,-0.0030478744
13224000,-0.0021479547,-0.008038436,0.0,-0.0030143373
13228000,-0.0021717055,-0.008075067,0.0,-0.0029810623
13232000,-0.0021955443,-0.00811263,0.0,-0.0029478183
13236000,-0.0022193983,-0.00814869,0.0,-0.0029142485
13240000,-0.0022432595,-0.008185091,0.0,-0.002880434
13244000,-0.0022670971,-0.00822181,0.0,-0.0028467255
13248000,-0.0022908552,-0.008258827,0.0,-0.002813727
13252000,-0.0023145843,-0.00829625,0.0,-0.0027814126
13256000,-0.0023383438,-0.008334151,0.0,-0.002749592
13260000,-0.0023621821,-0.008370386,0.0,-0.0027180628
13264000,-0.0023861248,-0.0084072575,0.0,-0.002686905
13268000,-0.0024100556,-0.008444224,0.0,-0.0026570375
13272000,-0.0024338183,-0.008479714,0.0,-0.0026301723
13276000,-0.0024573172,-0.00851304,0.0,-0.0026066282
13280000,-0.0024805635,-0.0085449545,0.0,-0.0025857396
13284000,-0.0025037758,-0.008574678,0.0,-0.0025666724
13288000,-0.0025271429,-0.00860513,0.0,-0.002548754
13292000,-0.0025506106,-0.0086365435,0.0,-0.0025313813
13296000,-0.002574123,-0.008668943,0.0,-0.0025145414
13300000,-0.0025977562,-0.008702411,0.0,-0.0024985606
13304000,-0.0026214994,-0.008737057,0.0,-0.0024836143
13308000,-0.0026452572,-0.008770832,0.0,-0.002469435
13316000,-0.0026927916,-0.008841218,0.0,-0.002442932
13320000,-0.0027165536,-0.008877587,0.0,-0.0024307962
13324000,-0.0027402272,-0.008914967,0.0,-0.0024194715
13328000,-0.0027638664,-0.008953478,0.0,-0.0024087674
13332000,-0.0027875605,-0.008991162,0.0,-0.0023985642
13340000,-0.0028346821,-0.009069969,0.0,-0.002380745
13348000,-0.0028811872,-0.00915274,0.0,-0.0023675954
13356000,-0.0029275205,-0.009236767,0.0,-0.0023582825
13364000,-0.0029737998,-0.009322166,0.0,-0.0023524878
13372000,-0.003020091,-0.009411202,0.0,-0.002350643
13376000,-0.0030433156,-0.009457016,0.0,-0.0023509716
13380000,-0.0030666203,-0.009501983,0.0,-0.0023521502
13384000,-0.003089975,-0.009548234,0.0,-0.002354152
13388000,-0.0031132835,-0.009595669,0.0,-0.0023570503
13392000,-0.0031365196,-0.009644243,0.0,-0.002360807
13396000,-0.0031596692,-0.009693908,0.0,-0.0023652662
13400000,-0.0031827001,-0.009744457,0.0,-0.0023704087
13404000,-0.003205657,-0.009793711,0.0,-0.00237634
13412000,-0.0032512858,-0.00989396,0.0,-0.0023906645
13420000,-0.003296437,-0.009997357,0.0,-0.0024085017
13424000,-0.0033190094,-0.010049967,0.0,-0.0024185928
13428000,-0.0033415721,-0.0101008965,0.0,-0.0024292718
13432000,-0.003364192,-0.010152197,0.0,-0.0024404316
13436000,-0.0033868293,-0.010204202,0.0,-0.0024519875
13440000,-0.0034093247,-0.010257081,0.0,-0.0024638537
13444000,-0.003431674,-0.010310716,0.0,-0.0024760445
13448000,-0.0034539923,-0.010365112,0.0,-0.002488568
13452000,-0.0034763294,-0.0104182325,0.0,-0.002501699
13456000,-0.0034986949,-0.010471652,0.0,-0.0025156273
13460000,-0.0035211288,-0.0105253495,0.0,-0.002530206
13464000,-0.0035436456,-0.010579432,0.0,-0.0025450985
13468000,-0.0035662458,-0.010633986,0.0,-0.0025601222
13472000,-0.0035888087,-0.010689112,0.0,-0.0025754576
13476000,-0.0036112415,-0.010742717,0.0,-0.0025914595
13480000,-0.003633654,-0.010796533,0.0,-0.0026080846
13484000,-0.0036560392,-0.010850525,0.0,-0.0026250377
13488000,-0.0036783125,-0.01090466,0.0,-0.0026420597
13492000,-0.0037004878,-0.010959068,0.0,-0.002659305
13496000,-0.0037225934,-0.011014014,0.0,-0.0026770444
13500000,-0.003744658,-0.011067488,0.0,-0.0026952995
13504000,-0.0037666454,-0.011121165,0.0,-0.0027138358
13508000,-0.0037884535,-0.01117488,0.0,-0.0027323477
13512000,-0.0038100248,-0.011228545,0.0,-0.0027506403
13516000,-0.003831401,-0.011282418,0.0,-0.0027688723
13520000,-0.0038526638,-0.011336582,0.0,-0.0027872894
13524000,-0.0038738823,-0.011388856,0.0,-0.0028060141
13532000,-0.0039164545,-0.011493601,0.0,-0.0028440733
13536000,-0.0039378367,-0.011546281,0.0,-0.0028634197
13540000,-0.0039591677,-0.011599183,0.0,-0.0028827465
13544000,-0.003980379,-0.011652239,0.0,-0.0029018328
13548000,-0.0040014996,-0.0117033385,0.0,-0.0029208546
13552000,-0.004022566,-0.011754352,0.0,-0.002939838
13556000,-0.0040436215,-0.011805245,0.0,-0.0029588784
13560000,-0.0040647117,-0.011855905,0.0,-0.0029780786
13564000,-0.004085825,-0.011906432,0.0,-0.0029974133
13568000,-0.0041068755,-0.011956842,0.0,-0.0030168144
13572000,-0.00412779,-0.012005173,0.0,-0.003036057
13576000,-0.004148603,-0.012053451,0.0,-0.0030549287
13580000,-0.0041693975,-0.01210173,0.0,-0.003073463
13584000,-0.004190129,-0.012150068,0.0,-0.003091655
13588000,-0.0042107054,-0.012198475,0.0,-0.0031097336
13592000,-0.0042311503,-0.012246768,0.0,-0.0031279395
13596000,-0.0042516305,-0.0122934,0.0,-0.0031463604
13600000,-0.00427187,-0.012339695,0.0,-0.0031646152
13604000,-0.0042919866,-0.0123859,0.0,-0.003182782
13608000,-0.0043121073,-0.01243209,0.0,-0.0032006304
13612000,-0.0043323236,-0.012478398,0.0,-0.0032180212
13616000,-0.0043526334,-0.012524762,0.0,-0.0032350628
13620000,-0.0043730275,-0.012569135,0.0,-0.0032520217
13624000,-0.0043933652,-0.01261332,0.0,-0.0032691692
13628000,-0.0044135367,-0.012657429,0.0,-0.0032866572
13632000,-0.004433611,-0.012701571,0.0,-0.0033043383
13636000,-0.004453658,-0.01274566,0.0,-0.0033218802
13640000,-0.0044737435,-0.012789538,0.0,-0.0033390177
13644000,-0.0044938507,-0.012831276,0.0,-0.0033559958
13648000,-0.0045138295,-0.012872685,0.0,-0.0033731547
13652000,-0.0045336266,-0.0129138045,0.0,-0.0033904302
13656000,-0.0045533543,-0.0129550025,0.0,-0.0034075617
13660000,-0.004573121,-0.01299655,0.0,-0.0034244482
13664000,-0.0045928755,-0.013038352,0.0,-0.003441139
13668000,-0.004612536,-0.013078105,0.0,-0.003457735
13672000,-0.0046322024,-0.013117514,0.0,-0.0034744488
13676000,-0.004651984,-0.013156885,0.0,-0.0034914277
13680000,-0.0046718298,-0.0131964525,0.0,-0.0035085606
13684000,-0.0046916422,-0.013236082,0.0,-0.0035256967
13688000,-0.004711347,-0.01327556,0.0,-0.0035425716
13692000,-0.0047308733,-0.013313215,0.0,-0.0035590923
13696000,-0.0047502383,-0.013351169,0.0,-0.003575438
13700000,-0.004769528,-0.013389085,0.0,-0.0035917843
13704000,-0.004788781,-0.013426773,0.0,-0.0036083367
13708000,-0.004808012,-0.013464436,0.0,-0.0036252083
13712000,-0.004827191,-0.0135020595,0.0,-0.003642232
13716000,-0.0048462674,-0.01353764,0.0,-0.0036592684
13720000,-0.004865293,-0.013573251,0.0,-0.0036763663
13724000,-0.0048844093,-0.013609177,0.0,-0.003693603
13728000,-0.00490366,-0.013645467,0.0,-0.003711002
13732000,-0.0049229474,-0.013681832,0.0,-0.0037285746
13736000,-0.004942175,-0.013717942,0.0,-0.0037462732
13740000,-0.0049613565,-0.01375189,0.0,-0.0037640017
13744000,-0.0049805893,-0.013785719,0.0,-0.0037817832
13748000,-0.004999846,-0.013819716,0.0,-0.0037996632
13752000,-0.005019168,-0.013853546,0.0,-0.00381816
13756000,-0.0050384533,-0.013887631,0.0,-0.0038370204
13760000,-0.005057577,-0.013922162,0.0,-0.0038561167
13764000,-0.005076493,-0.013955448,0.0,-0.003875506
13772000,-0.0051142294,-0.014023904,0.0,-0.0039149597
13780000,-0.005151909,-0.014093195,0.0,-0.0039544743
13784000,-0.005170723,-0.014127668,0.0,-0.003974302
13788000,-0.0051895143,-0.014160079,0.0,-0.0039945925
13792000,-0.005208269,-0.014192848,0.0,-0.004015518
13796000,-0.005227053,-0.01422619,0.0,-0.0040371693
13804000,-0.0052649616,-0.014294103,0.0,-0.0040823705
13812000,-0.0053025377,-0.0143608255,0.0,-0.0041290373
13820000,-0.0053399107,-0.014424907,0.0,-0.004177069
13824000,-0.005358709,-0.014456913,0.0,-0.004201702
13828000,-0.005377636,-0.014489412,0.0,-0.004226699
13832000,-0.005396658,-0.014522402,0.0,-0.0042521316
13836000,-0.0054157227,-0.014553655,0.0,-0.0042780046
13844000,-0.005453869,-0.014616682,0.0,-0.0043310844
13848000,-0.0054727243,-0.014648577,0.0,-0.00435878
13852000,-0.0054914565,-0.0146808,0.0,-0.004387139
13860000,-0.0055289376,-0.014743998,0.0,-0.00444489
13864000,-0.005547594,-0.014774516,0.0,-0.004474068
13868000,-0.005566147,-0.014805146,0.0,-0.00450353
13872000,-0.005584653,-0.014836187,0.0,-0.0045334203
13876000,-0.0056031127,-0.0148678655,0.0,-0.004563962
13880000,-0.0056216046,-0.014899991,0.0,-0.0045953286
13884000,-0.00564018,-0.014930216,0.0,-0.0046273307
13892000,-0.005677281,-0.014991237,0.0,-0.004692283
13896000,-0.0056957714,-0.015022528,0.0,-0.004725419
13900000,-0.005714228,-0.015054195,0.0,-0.004759094
13904000,-0.005732803,-0.015085992,0.0,-0.004793177
13908000,-0.005751571,-0.015116012,0.0,-0.0048275576
13912000,-0.005770424,-0.015146266,0.0,-0.0048623453
13916000,-0.0057892203,-0.015176647,0.0,-0.004897803
13920000,-0.005807874,-0.015207212,0.0,-0.004934027
13924000,-0.005826414,-0.015238129,0.0,-0.0049707685
13928000,-0.0058449716,-0.015269222,0.0,-0.005007904
13932000,-0.005863473,-0.015298679,0.0,-0.005045388
13936000,-0.0058820415,-0.015328391,0.0,-0.0050833686
13940000,-0.0059006484,-0.015358476,0.0,-0.0051219487
13944000,-0.0059191813,-0.015388889,0.0,-0.005161166
13948000,-0.005937634,-0.01541944,0.0,-0.0052009234
13952000,-0.0059561096,-0.015450207,0.0,-0.005241146
13956000,-0.005974594,-0.0154793495,0.0,-0.005281805
13964000,-0.0060115075,-0.015538526,0.0,-0.0053649857
13972000,-0.006048379,-0.01559905,0.0,-0.0054508825
13980000,-0.006085101,-0.015658574,0.0,-0.005538473
13984000,-0.0061035315,-0.01568757,0.0,-0.005582907
13988000,-0.0061219237,-0.015717024,0.0,-0.005627561
13992000,-0.006140269,-0.015746938,0.0,-0.0056724246
13996000,-0.0061586066,-0.015776873,0.0,-0.005717618
14000000,-0.006176984,-0.015806539,0.0,-0.0057633156
14004000,-0.006195403,-0.01583418,0.0,-0.0058096624
14008000,-0.006213734,-0.015862234,0.0,-0.0058565936
14012000,-0.006231874,-0.015890915,0.0,-0.0059039695
14020000,-0.006267861,-0.015948894,0.0,-0.0060001817
14024000,-0.006285923,-0.015977887,0.0,-0.0060489937
14028000,-0.006304022,-0.01600514,0.0,-0.006098052
14032000,-0.006322125,-0.016032642,0.0,-0.006147318
14036000,-0.006340323,-0.016060207,0.0,-0.0061969557
14040000,-0.006358649,-0.016087784,0.0,-0.0062470576
14044000,-0.0063769766,-0.016115654,0.0,-0.006297552
14048000,-0.006395187,-0.01614415,0.0,-0.006348486
14052000,-0.006413259,-0.016171383,0.0,-0.0063998476
14056000,-0.0064312546,-0.016199224,0.0,-0.0064516407
14060000,-0.0064492733,-0.016227284,0.0,-0.0065038744
14068000,-0.0064854696,-0.016282698,0.0,-0.0066094673
14072000,-0.006503627,-0.016310442,0.0,-0.006662748
14076000,-0.0065217796,-0.016336467,0.0,-0.006716261
14080000,-0.0065398845,-0.016362607,0.0,-0.006769877
14084000,-0.006557932,-0.016388826,0.0,-0.006823613
14088000,-0.0065760324,-0.01641526,0.0,-0.006877657
14092000,-0.006594223,-0.01644213,0.0,-0.0069320993
14096000,-0.006612327,-0.016469393,0.0,-0.006986994
14100000,-0.006630221,-0.01649473,0.0,-0.007042308
14104000,-0.0066480287,-0.016520089,0.0,-0.007097957
14108000,-0.0066659385,-0.016545797,0.0,-0.007153821
14112000,-0.006683949,-0.016571948,0.0,-0.0072098575
14116000,-0.0067019896,-0.01659848,0.0,-0.0072659734
14120000,-0.0067199958,-0.016625235,0.0,-0.007322129
14124000,-0.006737881,-0.016649894,0.0,-0.00737837
14128000,-0.0067556445,-0.016674425,0.0,-0.0074348366
14132000,-0.0067733377,-0.01669919,0.0,-0.0074916435
14136000,-0.0067910207,-0.01672424,0.0,-0.0075488174
14140000,-0.006808776,-0.016749285,0.0,-0.0076063084
14144000,-0.0068266797,-0.016774196,0.0,-0.0076641487
14148000,-0.0068447036,-0.016797148,0.0,-0.0077224066
14152000,-0.0068627195,-0.016820375,0.0,-0.0077810655
14156000,-0.0068806387,-0.016843962,0.0,-0.007839732
14164000,-0.0069162785,-0.016891632,0.0,-0.007956944
14168000,-0.006934191,-0.016915284,0.0,-0.008015481
14172000,-0.0069521037,-0.016937101,0.0,-0.008073721
14176000,-0.0069699157,-0.01695942,0.0,-0.008131713
14180000,-0.006987666,-0.016982038,0.0,-0.008189613
14184000,-0.0070054256,-0.017004848,0.0,-0.008247416
14188000,-0.0070231906,-0.01702799,0.0,-0.008305115
14192000,-0.0070409374,-0.017051486,0.0,-0.00836279
14196000,-0.007058673,-0.017073302,0.0,-0.008420541
14200000,-0.0070764087,-0.017095258,0.0,-0.008478466
14204000,-0.007094054,-0.017117048,0.0,-0.008536275
14208000,-0.0071115564,-0.017138576,0.0,-0.00859371
14212000,-0.007129006,-0.0171599,0.0,-0.008650873
14216000,-0.0071464265,-0.01718109,0.0,-0.008707924
14220000,-0.0071638282,-0.017200416,0.0,-0.008764944
14224000,-0.00718122,-0.017220302,0.0,-0.008822104
14228000,-0.0071985535,-0.017241025,0.0,-0.008879474
14236000,-0.007233278,-0.017283492,0.0,-0.008994478
14240000,-0.0072507984,-0.017304087,0.0,-0.009051781
14244000,-0.0072684577,-0.01732235,0.0,-0.009108991
14248000,-0.0072861942,-0.017340615,0.0,-0.009166143
14252000,-0.0073039844,-0.017359013,0.0,-0.0092232255
14256000,-0.0073218322,-0.017377576,0.0,-0.009280375
14260000,-0.007339651,-0.017396493,0.0,-0.009337504
14264000,-0.007357392,-0.017415827,0.0,-0.009394529
14268000,-0.007375134,-0.017433465,0.0,-0.009451426
14272000,-0.007393002,-0.017451322,0.0,-0.00950829
14276000,-0.0074109705,-0.017469103,0.0,-0.009565305
14280000,-0.007428916,-0.017486565,0.0,-0.009622436
14284000,-0.007446805,-0.01750383,0.0,-0.009679472
14288000,-0.007464535,-0.01752128,0.0,-0.0097365845
14292000,-0.0074819964,-0.017537149,0.0,-0.00979395
14296000,-0.0074992767,-0.017553622,0.0,-0.009851469
14300000,-0.007516454,-0.01757068,0.0,-0.009909064
14304000,-0.007533521,-0.017588053,0.0,-0.009966783
14308000,-0.007550543,-0.01760567,0.0,-0.010024473
14312000,-0.00756759,-0.017623387,0.0,-0.010082063
14316000,-0.0075846873,-0.017638903,0.0,-0.010139627
14320000,-0.0076019503,-0.017654251,0.0,-0.010197193
14324000,-0.0076194825,-0.017669465,0.0,-0.01025463
14328000,-0.0076371804,-0.017684693,0.0,-0.010311968
14332000,-0.0076548266,-0.017700119,0.0,-0.010369211
14336000,-0.0076723155,-0.017715681,0.0,-0.010426267
14340000,-0.007689672,-0.017729463,0.0,-0.010483163
14344000,-0.0077069574,-0.017743828,0.0,-0.010540196
14348000,-0.007724259,-0.01775883,0.0,-0.01059745
14352000,-0.007741588,-0.01777452,0.0,-0.010654823
14356000,-0.0077588884,-0.017790794,0.0,-0.010712277
14359999,-0.007776187,-0.017806975,0.0,-0.010769796
14364000,-0.007793528,-0.017820634,0.0,-0.010827403
14368000,-0.007810912,-0.01783403,0.0,-0.010885225
14371999,-0.007828413,-0.01784731,0.0,-0.010943198
14376000,-0.007846031,-0.017860703,0.0,-0.011001137
14380000,-0.00786363,-0.017874418,0.0,-0.011059005
14384000,-0.00788112,-0.017888468,0.0,-0.011117035
14388000,-0.007898546,-0.01790086,0.0,-0.011175238
14391999,-0.007915993,-0.017913524,0.0,-0.011233541
14396000,-0.007933454,-0.017926363,0.0,-0.011291875
14400000,-0.007950725,-0.017938921,0.0,-0.011350351
14403999,-0.007967893,-0.017951734,0.0,-0.01140882
14408000,-0.007985096,-0.017964892,0.0,-0.011467297
14412000,-0.008002405,-0.01797622,0.0,-0.011525788
14416000,-0.00801981,-0.017987775,0.0,-0.011584475
14420000,-0.008037295,-0.01799955,0.0,-0.011643337
14423999,-0.00805494,-0.018011447,0.0,-0.011702352
14428000,-0.00807274,-0.018023567,0.0,-0.01176156
14432000,-0.008090426,-0.018036015,0.0,-0.011820901
14435999,-0.008107803,-0.018046541,0.0,-0.011880295
14440000,-0.0081249885,-0.018057086,0.0,-0.011939743
14444000,-0.008142168,-0.0180678,0.0,-0.011999091
14448000,-0.008159444,-0.01807881,0.0,-0.012058329
14452000,-0.00817679,-0.018090094,0.0,-0.012117457
14455999,-0.0081941495,-0.018101832,0.0,-0.012176468
14460000,-0.008211599,-0.01811216,0.0,-0.012235368
14464000,-0.008229186,-0.018123025,0.0,-0.012294263
14467999,-0.00824684,-0.018134097,0.0,-0.012353397
14472000,-0.008264448,-0.018145138,0.0,-0.012412969
14476000,-0.008281955,-0.018156111,0.0,-0.012472649
14480000,-0.008299401,-0.018167043,0.0,-0.01253224
14484000,-0.008316821,-0.018175846,0.0,-0.012591786
14487999,-0.0083342,-0.01818478,0.0,-0.01265144
14492000,-0.008351529,-0.01819405,0.0,-0.01271114
14496000,-0.008368883,-0.018203614,0.0,-0.012770632
14499999,-0.008386354,-0.01821339,0.0,-0.012829996
14504000,-0.008403939,-0.018223524,0.0,-0.012889574
14508000,-0.008421563,-0.018232154,0.0,-0.012949441
14512000,-0.008439188,-0.018241348,0.0,-0.013009606
14516000,-0.008456769,-0.018250719,0.0,-0.013069816
14519999,-0.00847427,-0.018259956,0.0,-0.013129919
14524000,-0.008491793,-0.018269144,0.0,-0.013189847
14528000,-0.008509417,-0.01827845,0.0,-0.01324957
14531999,-0.008527094,-0.01828573,0.0,-0.013309245
14536000,-0.008544709,-0.018292995,0.0,-0.013369
14540000,-0.00856218,-0.018300425,0.0,-0.013428815
14544000,-0.008579524,-0.018308224,0.0,-0.013488902
14548000,-0.0085968,-0.018316343,0.0,-0.013549113
14551999,-0.0086140735,-0.01832468,0.0,-0.0136092445
14556000,-0.00863131,-0.018331062,0.0,-0.013669342
14560000,-0.008648457,-0.018337557,0.0,-0.013729549
14563999,-0.00866558,-0.01834432,0.0,-0.013789934
14568000,-0.008682723,-0.01835146,0.0,-0.013850423
14572000,-0.008699883,-0.01835862,0.0,-0.013910838
14580000,-0.008734382,-0.018370684,0.0,-0.01403128
14583999,-0.00875169,-0.018376501,0.0,-0.014091237
14588000,-0.008769037,-0.01838287,0.0,-0.014151102
14592000,-0.008786394,-0.018389387,0.0,-0.014210871
14595999,-0.008803757,-0.018396175,0.0,-0.014270609
14604000,-0.008838504,-0.018409707,0.0,-0.014390342
14608000,-0.008855841,-0.018416077,0.0,-0.0144502595
14612000,-0.008873216,-0.018422415,0.0,-0.01451027
14615999,-0.008890623,-0.018428579,0.0,-0.01457042
14620000,-0.008908119,-0.01843442,0.0,-0.014630665
14624000,-0.008925709,-0.018440165,0.0,-0.014691004
14627999,-0.008943364,-0.018444246,0.0,-0.014751204
14632000,-0.008961029,-0.018448845,0.0,-0.014811011
14636000,-0.008978611,-0.018453572,0.0,-0.014870473
14640000,-0.008996133,-0.018458378,0.0,-0.0149300285
14644000,-0.009013669,-0.018463416,0.0,-0.014989843
14647999,-0.009031185,-0.018468585,0.0,-0.015049829
14652000,-0.009048604,-0.018471662,0.0,-0.015109808
14656000,-0.009065884,-0.018474981,0.0,-0.015169789
14659999,-0.009083044,-0.018478705,0.0,-0.015229912
14668000,-0.009117329,-0.018487366,0.0,-0.015350626
14672000,-0.009134631,-0.018491987,0.0,-0.0154109085
14676000,-0.009151984,-0.0184943,0.0,-0.015471037
14684000,-0.009186739,-0.01849979,0.0,-0.0155908335
14691999,-0.009221232,-0.018506708,0.0,-0.015709948
14700000,-0.009255897,-0.0185111,0.0,-0.015829226
14704000,-0.009273384,-0.018512214,0.0,-0.01588891
14708000,-0.009290809,-0.018513609,0.0,-0.015948603
14716000,-0.00932531,-0.018517168,0.0,-0.016068213
14720000,-0.009342508,-0.018519383,0.0,-0.016127925
14723999,-0.009359849,-0.018519958,0.0,-0.01618746
14732000,-0.009394751,-0.018522728,0.0,-0.016306147
14736000,-0.009411973,-0.018524416,0.0,-0.016365364
14740000,-0.009429006,-0.018526042,0.0,-0.016424622
14743999,-0.009446021,-0.018527731,0.0,-0.016484024
14748000,-0.009463158,-0.018527469,0.0,-0.016543537
14752000,-0.009480411,-0.0185275,0.0,-0.016603071
14755999,-0.009497659,-0.01852776,0.0,-0.016662538
14760000,-0.009514769,-0.018528197,0.0,-0.016721899
14764000,-0.009531753,-0.018528955,0.0,-0.016781174
14768000,-0.00954873,-0.018530013,0.0,-0.016840579
14772000,-0.009565653,-0.01852898,0.0,-0.016900036
14775999,-0.00958249,-0.018527905,0.0,-0.016959557
14780000,-0.0095993625,-0.018527003,0.0,-0.017019141
14784000,-0.00961629,-0.018526476,0.0,-0.01707867
14787999,-0.009633253,-0.018526204,0.0,-0.017138144
14792000,-0.009650278,-0.018525938,0.0,-0.017197661
14796000,-0.009667283,-0.018523445,0.0,-0.017257074
14800000,-0.009684211,-0.018521111,0.0,-0.017316436
14804000,-0.009701101,-0.01851911,0.0,-0.01737583
14807999,-0.009718051,-0.018517477,0.0,-0.017435314
14812000,-0.0097351475,-0.018516423,0.0,-0.017494831
14816000,-0.009752345,-0.018515892,0.0,-0.017554397
14820000,-0.009769584,-0.018513376,0.0,-0.01761411
14824000,-0.009786775,-0.018511027,0.0,-0.017673831
14828000,-0.009803875,-0.018509015,0.0,-0.017733196
14832000,-0.009820955,-0.018507302,0.0,-0.017792279
14836000,-0.009838028,-0.018505622,0.0,-0.017851332
14839999,-0.009855053,-0.018503845,0.0,-0.017910548
14844000,-0.009872078,-0.018500036,0.0,-0.017969957
14848000,-0.009889128,-0.018496487,0.0,-0.018029548
14852000,-0.009906214,-0.018493079,0.0,-0.018089302
14856000,-0.009923357,-0.018489702,0.0,-0.018149022
14859999,-0.00994054,-0.018486261,0.0,-0.018208528
14864000,-0.009957709,-0.018482639,0.0,-0.018268017
14868000,-0.009974829,-0.018476583,0.0,-0.01832744
14871999,-0.009991923,-0.018470617,0.0,-0.018386777
14876000,-0.010009019,-0.018465323,0.0,-0.018445982
14884000,-0.0100433,-0.018456716,0.0,-0.018564383
14892000,-0.010077389,-0.01844906,0.0,-0.018683558
14900000,-0.010111562,-0.018442562,0.0,-0.018803107
14908000,-0.0101456875,-0.01843718,0.0,-0.01892264
14916000,-0.010179935,-0.018433124,0.0,-0.019042745
14923999,-0.010214266,-0.018429412,0.0,-0.01916258
14932000,-0.010248697,-0.018424269,0.0,-0.019282311
14940000,-0.0102834115,-0.018419823,0.0,-0.019402562
14948000,-0.01031799,-0.018415172,0.0,-0.0195226
14955999,-0.010352115,-0.018410314,0.0,-0.01964319
14964000,-0.010386536,-0.018406074,0.0,-0.019764611
14972000,-0.01042109,-0.01840198,0.0,-0.019885253
14980000,-0.01045492,-0.018396374,0.0,-0.020005671
14984000,-0.01047166,-0.018393073,0.0,-0.020066101
14987999,-0.010488579,-0.018389536,0.0,-0.020126555
14996000,-0.010522909,-0.018382277,0.0,-0.020247657
15004000,-0.010557602,-0.018374471,0.0,-0.020369073
15012000,-0.010609221,-0.01836429,0.0,-0.020429967
15019999,-0.010677248,-0.0183513,-9.344902e-06,-0.020429967
15028000,-0.010743891,-0.018336965,-1.7004239e-05,-0.020429967
15036000,-0.01080845,-0.0183222,-2.1141297e-05,-0.020429967
15044000,-0.010869763,-0.01830853,-2.2981409e-05,-0.020429967
15048000,-0.010899048,-0.018301666,-2.3695655e-05,-0.020429967
15051999,-0.010927444,-0.018294794,-2.4102033e-05,-0.020429967
15056000,-0.010954923,-0.01828818,-2.4474559e-05,-0.020429967
15060000,-0.010981677,-0.018281858,-2.4908059e-05,-0.020429967
15063999,-0.011007582,-0.018275589,-2.6028187e-05,-0.020429967
15068000,-0.011032693,-0.018269131,-2.7542967e-05,-0.020429967
15072000,-0.0110570695,-0.018262193,-2.8440363e-05,-0.020429967
15076000,-0.011080806,-0.018254636,-2.8433731e-05,-0.020429967
15080000,-0.011103924,-0.018246802,-2.7776303e-05,-0.020429967
15083999,-0.011126584,-0.018238993,-2.5990814e-05,-0.020429967
15088000,-0.0111486325,-0.018231174,-2.3589822e-05,-0.020429967
15092000,-0.011170079,-0.018223274,-2.0761961e-05,-0.020429967
15095999,-0.011191045,-0.018215468,-1.7522847e-05,-0.020429967
15100000,-0.011211662,-0.018207826,-1.4245237e-05,-0.020429967
15104000,-0.011231928,-0.01820029,-1.1044298e-05,-0.020429967
15108000,-0.011251994,-0.018192815,-6.797285e-06,-0.020429967
15112000,-0.011271666,-0.018185323,-1.2515748e-06,-0.020429967
15115999,-0.0112908995,-0.018177684,5.0725857e-06,-0.020429967
15120000,-0.011309724,-0.018169869,1.155738e-05,-0.020429967
15124000,-0.011328178,-0.018161897,1.7546692e-05,-0.020429967
15128000,-0.011346333,-0.018153941,2.2945294e-05,-0.020429967
15132000,-0.011364664,-0.018146107,2.8640628e-05,-0.020429967
15140000,-0.011400614,-0.018129155,4.2814274e-05,-0.020429967
15148000,-0.011435602,-0.01811126,5.826532e-05,-0.020429967
15152000,-0.011452616,-0.018103115,6.540264e-05,-0.020429967
15156000,-0.011469591,-0.018094903,7.214654e-05,-0.020429967
15160000,-0.0114863925,-0.018086312,7.9132384e-05,-0.020429967
15164000,-0.01150293,-0.018077582,8.7167726e-05,-0.020429967
15168000,-0.0115192365,-0.01806873,9.663661e-05,-0.020429967
15172000,-0.0115354145,-0.01805949,0.00010744281,-0.020429967
15176000,-0.011551497,-0.018049916,0.000119082586,-0.020429967
15180000,-0.011567538,-0.018040512,0.0001307659,-0.020429967
15184000,-0.011583307,-0.018031541,0.0001418409,-0.020429967
15188000,-0.011598783,-0.018022789,0.00015201978,-0.020429967
15192000,-0.011614034,-0.018013926,0.00016183278,-0.020429967
15196000,-0.011629134,-0.018004866,0.00017198766,-0.020429967
15200000,-0.011644172,-0.017995868,0.00018254931,-0.020429967
15204000,-0.011659341,-0.017987039,0.00019315505,-0.020429967
15208000,-0.01167446,-0.01797818,0.0002040034,-0.020429967
15212000,-0.011689427,-0.017969254,0.00021557815,-0.020429967
15216000,-0.011704266,-0.017960267,0.0002274843,-0.020429967
15220000,-0.011719001,-0.017951248,0.00023864908,-0.020429967
15224000,-0.01173363,-0.017942412,0.00024897774,-0.020429967
15228000,-0.011748637,-0.017933633,0.00025941824,-0.020429967
15232000,-0.011763603,-0.017924517,0.000270534,-0.020429967
15236000,-0.011778505,-0.017914979,0.00028208955,-0.020429967
15240000,-0.011793296,-0.017905192,0.00029381787,-0.020429967
15244000,-0.011807944,-0.017895415,0.00030633382,-0.020429967
15248000,-0.011822466,-0.017885804,0.0003197338,-0.020429967
15252000,-0.011837035,-0.01787632,0.00033292713,-0.020429967
15256000,-0.011851652,-0.01786681,0.00034569477,-0.020429967
15260000,-0.011866354,-0.017857138,0.00035874982,-0.020429967
15264000,-0.011881083,-0.01784728,0.00037211023,-0.020429967
15268000,-0.011895661,-0.017837133,0.00038538143,-0.020429967
15272000,-0.011909994,-0.01782658,0.0003988349,-0.020429967
15276000,-0.011924249,-0.017815884,0.0004129261,-0.020429967
15280000,-0.011938437,-0.017805353,0.00042730442,-0.020429967
15284000,-0.011952603,-0.017795118,0.00044156643,-0.020429967
15288000,-0.011966787,-0.017785154,0.00045587565,-0.020429967
15292000,-0.01198095,-0.017775191,0.00047045946,-0.020429967
15296000,-0.011995051,-0.017764948,0.00048547785,-0.020429967
15300000,-0.012009184,-0.017754324,0.0005011396,-0.020429967
15304000,-0.012023344,-0.01774339,0.0005177044,-0.020429967
15308000,-0.01203756,-0.017732158,0.00053503655,-0.020429967
15312000,-0.012051808,-0.017720668,0.00055224344,-0.020429967
15316000,-0.012065993,-0.017708935,0.00056883437,-0.020429967
15320000,-0.012079982,-0.017697087,0.0005852454,-0.020429967
15324000,-0.012094123,-0.017685542,0.0006012011,-0.020429967
15328000,-0.012108112,-0.017674232,0.00061603525,-0.020429967
15332000,-0.012122031,-0.017662743,0.00063013524,-0.020429967
15336000,-0.012135938,-0.01765107,0.00064437545,-0.020429967
15340000,-0.012149933,-0.017639581,0.0006595444,-0.020429967
15344000,-0.012164091,-0.017628485,0.000675744,-0.020429967
15348000,-0.012178445,-0.01761765,0.00069260394,-0.020429967
15352000,-0.012192804,-0.017607005,0.0007095541,-0.020429967
15356000,-0.012207004,-0.017596534,0.00072601705,-0.020429967
15360000,-0.01222097,-0.017585868,0.00074180803,-0.020429967
15364000,-0.012234807,-0.017574511,0.0007568763,-0.020429967
15368000,-0.012248702,-0.017562617,0.0007713433,-0.020429967
15372000,-0.012262741,-0.01755069,0.00078555214,-0.020429967
15376000,-0.012276811,-0.017538931,0.0008003457,-0.020429967
15380000,-0.01229086,-0.01752747,0.00081603887,-0.020429967
15384000,-0.012304831,-0.017516466,0.00083242066,-0.020429967
15388000,-0.012318712,-0.017505858,0.000849667,-0.020429967
15392000,-0.012332553,-0.017495401,0.0008675209,-0.020429967
15396000,-0.012346422,-0.017484872,0.000884933,-0.020429967
15400000,-0.012360263,-0.017474296,0.0009011033,-0.020429967
15404000,-0.012374083,-0.01746378,0.0009163056,-0.020429967
15408000,-0.01238788,-0.017453138,0.00093099824,-0.020429967
15412000,-0.012401609,-0.017442185,0.000945208,-0.020429967
15416000,-0.012415264,-0.017431038,0.000959031,-0.020429967
15420000,-0.012429275,-0.01741987,0.000972535,-0.020429967
15424000,-0.012443307,-0.017408796,0.0009859612,-0.020429967
15428000,-0.01245733,-0.017397722,0.0009996194,-0.020429967
15432000,-0.012471368,-0.017386332,0.0010134655,-0.020429967
15436000,-0.012485541,-0.017374564,0.0010275312,-0.020429967
15440000,-0.01249985,-0.017362658,0.0010422011,-0.020429967
15444000,-0.012514181,-0.01735088,0.0010577661,-0.020429967
15448000,-0.01252841,-0.017339407,0.0010740996,-0.020429967
15452000,-0.012542513,-0.017328206,0.0010907538,-0.020429967
15456000,-0.012556553,-0.01731699,0.0011073054,-0.020429967
15460000,-0.012570606,-0.017305352,0.0011235,-0.020429967
15464000,-0.012584609,-0.017293282,0.001139178,-0.020429967
15468000,-0.012598465,-0.017281085,0.0011544946,-0.020429967
15472000,-0.012612215,-0.017268905,0.0011696314,-0.020429967
15476000,-0.012625938,-0.017256925,0.0011844751,-0.020429967
15480000,-0.012639661,-0.01724542,0.0011987844,-0.020429967
15484000,-0.012653516,-0.017234407,0.0012130367,-0.020429967
15488000,-0.01266752,-0.017223623,0.001228501,-0.020429967
15492000,-0.012681609,-0.017212968,0.0012455097,-0.020429967
15500000,-0.012710208,-0.017191887,0.0012794406,-0.020429967
15504000,-0.012724617,-0.017181044,0.0012949947,-0.020429967
15508000,-0.012738948,-0.017169954,0.0013097497,-0.020429967
15512000,-0.012753186,-0.01715888,0.0013242207,-0.020429967
15516000,-0.012767736,-0.017148018,0.0013380762,-0.020429967
15520000,-0.012782302,-0.017137133,0.0013512125,-0.020429967
15524000,-0.012796929,-0.017125966,0.0013643887,-0.020429967
15528000,-0.012811581,-0.017114667,0.0013778056,-0.020429967
15532000,-0.012826162,-0.017103503,0.0013916459,-0.020429967
15540000,-0.012855144,-0.01708205,0.0014217308,-0.020429967
15544000,-0.012869557,-0.01707137,0.001437437,-0.020429967
15548000,-0.012883959,-0.01706031,0.0014533027,-0.020429967
15552000,-0.012898397,-0.017048974,0.0014691866,-0.020429967
15556000,-0.012912916,-0.0170376,0.0014847979,-0.020429967
15560000,-0.0129275415,-0.017026346,0.0014997458,-0.020429967
15564000,-0.012942265,-0.01701528,0.0015142943,-0.020429967
15568000,-0.012957101,-0.0170046,0.0015291821,-0.020429967
15572000,-0.012971958,-0.016994437,0.0015448004,-0.020429967
15576000,-0.012986726,-0.016984288,0.0015613885,-0.020429967
15580000,-0.013001439,-0.016973687,0.0015783883,-0.020429967
15584000,-0.013016087,-0.016962849,0.001594826,-0.020429967
15588000,-0.013030595,-0.016951814,0.0016109507,-0.020429967
15596000,-0.013059448,-0.016929097,0.0016430141,-0.020429967
15604000,-0.013088549,-0.016906789,0.0016743464,-0.020429967
15608000,-0.013103068,-0.016895607,0.0016905626,-0.020429967
15612000,-0.013117916,-0.016884204,0.0017070207,-0.020429967
15616000,-0.013132799,-0.016872816,0.0017231837,-0.020429967
15620000,-0.013147616,-0.01686169,0.0017393576,-0.020429967
15628000,-0.013176956,-0.01684024,0.0017721138,-0.020429967
15632000,-0.013191677,-0.016829418,0.001788036,-0.020429967
15636000,-0.01320638,-0.016818324,0.0018037837,-0.020429967
15640000,-0.013221077,-0.016807355,0.0018199051,-0.020429967
15644000,-0.013235874,-0.016796857,0.0018369071,-0.020429967
15652000,-0.013265828,-0.016776774,0.0018735352,-0.020429967
15656000,-0.013280678,-0.01676665,0.0018919394,-0.020429967
15660000,-0.013295291,-0.016756186,0.0019098187,-0.020429967
15664000,-0.01330973,-0.016745416,0.0019272187,-0.020429967
15668000,-0.013324128,-0.016734613,0.0019442328,-0.020429967
15672000,-0.013338622,-0.016723964,0.0019611367,-0.020429967
15676000,-0.013353201,-0.016713377,0.0019782165,-0.020429967
15680000,-0.013367715,-0.01670278,0.0019954038,-0.020429967
15684000,-0.013382088,-0.016692182,0.0020125005,-0.020429967
15692000,-0.01341112,-0.016670046,0.002048338,-0.020429967
15696000,-0.013425832,-0.016658675,0.002067491,-0.020429967
15700000,-0.01344052,-0.01664749,0.0020869568,-0.020429967
15708000,-0.013469867,-0.016625615,0.0021239966,-0.020429967
15716000,-0.01349979,-0.01660427,0.0021580893,-0.020429967
15724000,-0.013529441,-0.01658306,0.0021898637,-0.020429967
15728000,-0.013544206,-0.01657255,0.002206611,-0.020429967
15732000,-0.013559058,-0.016562136,0.0022242295,-0.020429967
15740000,-0.013588837,-0.016540926,0.0022609043,-0.020429967
15748000,-0.013618563,-0.016520262,0.0022974464,-0.020429967
15752000,-0.013633506,-0.016509918,0.002316254,-0.020429967
15756000,-0.013648426,-0.016499324,0.0023342753,-0.020429967
15760000,-0.013663272,-0.016488517,0.002351695,-0.020429967
15764000,-0.013678069,-0.01647766,0.0023698544,-0.020429967
15768000,-0.013692874,-0.016466858,0.0023891735,-0.020429967
15772000,-0.013707659,-0.01645619,0.0024091802,-0.020429967
15776000,-0.013722349,-0.016445816,0.0024293775,-0.020429967
15780000,-0.013737237,-0.016437849,0.0024496156,-0.020429967
15784000,-0.013752141,-0.016429689,0.0024695932,-0.020429967
15788000,-0.013767186,-0.016421383,0.0024891954,-0.020429967
15796000,-0.013797462,-0.016405372,0.0025251373,-0.020429967
15800000,-0.013812441,-0.016397545,0.0025430107,-0.020429967
15804000,-0.013827139,-0.016391968,0.0025619674,-0.020429967
15812000,-0.013855035,-0.01638095,0.0025994864,-0.020429967
15816000,-0.013867981,-0.01637581,0.0026164663,-0.020429967
15820000,-0.01388029,-0.016371028,0.0026320713,-0.020429967
15824000,-0.013891943,-0.01636689,0.0026466274,-0.020429967
15828000,-0.013902791,-0.01636598,0.0026603714,-0.020429967
15832000,-0.013912948,-0.016366161,0.0026732245,-0.020429967
15836000,-0.013922481,-0.016367076,0.0026846,-0.020429967
15840000,-0.01393127,-0.016368289,0.0026939905,-0.020429967
15844000,-0.013939224,-0.016369855,0.0027020506,-0.020429967
15848000,-0.013946442,-0.016371928,0.0027094346,-0.020429967
15852000,-0.013952885,-0.016376823,0.0027164598,-0.020429967
15856000,-0.013958615,-0.016382497,0.0027226505,-0.020429967
15860000,-0.013963728,-0.016389199,0.0027274932,-0.020429967
15864000,-0.013968256,-0.016397025,0.002730333,-0.020429967
15868000,-0.013972169,-0.016405633,0.00273109,-0.020429967
15872000,-0.0139755905,-0.016414564,0.002730503,-0.020429967
15876000,-0.013978923,-0.01642583,0.0027288643,-0.020429967
15880000,-0.013981913,-0.016437091,0.0027257714,-0.020429967
15884000,-0.01398448,-0.01644847,0.0027214182,-0.020429967
15888000,-0.013986584,-0.01646026,0.0027161126,-0.020429967
15892000,-0.013988307,-0.016472537,0.0027100414,-0.020429967
15896000,-0.013989743,-0.016485186,0.0027033652,-0.020429967
15900000,-0.0139908055,-0.01650045,0.0026963407,-0.020429967
15904000,-0.013991606,-0.016516034,0.002689366,-0.020429967
15908000,-0.013992182,-0.016531829,0.002682898,-0.020429967
15912000,-0.013992508,-0.016547829,0.0026760045,-0.020429967
15916000,-0.013992556,-0.016563846,0.0026678427,-0.020429967
15920000,-0.013992308,-0.0165795,0.0026592123,-0.020429967
15924000,-0.013991692,-0.016597044,0.002650288,-0.020429967
15928000,-0.01399085,-0.016614692,0.002639892,-0.020429967
15932000,-0.013989918,-0.016632652,0.0026273946,-0.020429967
15936000,-0.01398905,-0.016650606,0.0026136402,-0.020429967
15940000,-0.013988164,-0.016668154,0.002600019,-0.020429967
15948000,-0.013985773,-0.016704341,0.002573733,-0.020429967
15952000,-0.01398434,-0.016722983,0.0025611017,-0.020429967
15956000,-0.013982865,-0.016741196,0.0025493344,-0.020429967
15960000,-0.013981398,-0.016758919,0.002538105,-0.020429967
15964000,-0.0139799025,-0.016776247,0.0025267613,-0.020429967
15968000,-0.013978256,-0.016793476,0.0025150452,-0.020429967
15972000,-0.0139767155,-0.016812807,0.0025031564,-0.020429967
15980000,-0.013973427,-0.01684958,0.0024806312,-0.020429967
15988000,-0.0139701385,-0.016883941,0.0024593284,-0.020429967
15992000,-0.013968457,-0.016900102,0.00244904,-0.020429967
15996000,-0.013966696,-0.016918033,0.0024386533,-0.020429967
16004000,-0.013963404,-0.016952967,0.002417158,-0.020429967
16012000,-0.013960299,-0.01698554,0.002397961,-0.020429967
16020000,-0.013956829,-0.01701761,0.0023841648,-0.020429967
16028000,-0.013952879,-0.017048882,0.0023720942,-0.020429967
16032000,-0.013951007,-0.017063856,0.002366703,-0.020429967
16036000,-0.013949304,-0.017078206,0.0023621006,-0.020429967
16040000,-0.013947771,-0.017091937,0.002358228,-0.020429967
16044000,-0.013946251,-0.017107295,0.0023541183,-0.020429967
16048000,-0.01394479,-0.017122045,0.0023498395,-0.020429967
16052000,-0.013943343,-0.017136225,0.0023459517,-0.020429967
16056000,-0.013941868,-0.017149592,0.002343127,-0.020429967
16060000,-0.013940421,-0.017161865,0.0023421196,-0.020429967
16064000,-0.0139390705,-0.017173292,0.0023436975,-0.020429967
16068000,-0.013938033,-0.017186558,0.0023474046,-0.020429967
16072000,-0.01393706,-0.017199218,0.002352095,-0.020429967
16076000,-0.013936097,-0.017210806,0.0023567257,-0.020429967
16080000,-0.01393507,-0.017221192,0.0023611048,-0.020429967
16084000,-0.013933992,-0.017230779,0.0023651472,-0.020429967
16088000,-0.013933004,-0.017239954,0.0023689193,-0.020429967
16092000,-0.013932035,-0.01725079,0.0023726164,-0.020429967
16096000,-0.013931212,-0.017260829,0.0023778055,-0.020429967
16100000,-0.013930555,-0.01727027,0.0023853409,-0.020429967
16104000,-0.013929967,-0.017279318,0.0023948667,-0.020429967
16108000,-0.013929399,-0.017288009,0.0024055613,-0.020429967
16112000,-0.013928871,-0.017296093,0.0024167355,-0.020429967
16116000,-0.013928256,-0.017305631,0.0024274804,-0.020429967
16120000,-0.013927679,-0.017314447,0.0024383145,-0.020429967
16124000,-0.013927169,-0.017322587,0.0024497558,-0.020429967
16128000,-0.0139267305,-0.017330078,0.0024617123,-0.020429967
16132000,-0.013926328,-0.017336935,0.0024744717,-0.020429967
16136000,-0.013925972,-0.01734311,0.002488708,-0.020429967
16140000,-0.013925578,-0.01735092,0.0025041418,-0.020429967
16144000,-0.0139253065,-0.017358163,0.00252056,-0.020429967
16148000,-0.013925235,-0.01736493,0.0025372973,-0.020429967
16152000,-0.013925323,-0.017371297,0.0025543238,-0.020429967
16156000,-0.013925447,-0.017377434,0.0025719185,-0.020429967
16160000,-0.013925528,-0.017383417,0.0025900623,-0.020429967
16164000,-0.013925466,-0.01739127,0.0026082087,-0.020429967
16168000,-0.013925533,-0.017398607,0.002626549,-0.020429967
16172000,-0.013925866,-0.017405521,0.0026449703,-0.020429967
16176000,-0.013926414,-0.017411988,0.0026640007,-0.020429967
16180000,-0.0139270965,-0.017417908,0.0026845424,-0.020429967
16184000,-0.013927821,-0.017423159,0.002706796,-0.020429967
16188000,-0.013928761,-0.01743002,0.0027296059,-0.020429967
16192000,-0.01392973,-0.017436234,0.0027524757,-0.020429967
16196000,-0.013930785,-0.01744197,0.0027751715,-0.020429967
16200000,-0.013931969,-0.017447472,0.002797804,-0.020429967
16204000,-0.013933308,-0.017452734,0.0028206245,-0.020429967
16208000,-0.013934736,-0.017457623,0.0028442785,-0.020429967
16212000,-0.013936124,-0.017464131,0.002868868,-0.020429967
16216000,-0.013937608,-0.017469857,0.002894321,-0.020429967
16220000,-0.013939159,-0.017475327,0.0029198173,-0.020429967
16224000,-0.013940694,-0.017480908,0.0029449896,-0.020429967
16228000,-0.01394213,-0.017486392,0.0029699283,-0.020429967
16232000,-0.013943494,-0.01749139,0.0029952782,-0.020429967
16236000,-0.013944774,-0.017497562,0.0030210712,-0.020429967
16240000,-0.01394615,-0.017503148,0.003047644,-0.020429967
16244000,-0.013947711,-0.017508633,0.0030748586,-0.020429967
16248000,-0.013949484,-0.017514188,0.0031022574,-0.020429967
16252000,-0.013951409,-0.017519673,0.003129194,-0.020429967
16256000,-0.013953397,-0.017524928,0.003155872,-0.020429967
16260000,-0.013955298,-0.017529372,0.0031826284,-0.020429967
16264000,-0.013957182,-0.017533282,0.0032089313,-0.020429967
16268000,-0.013959007,-0.017536523,0.0032346854,-0.020429967
16272000,-0.013960777,-0.017538996,0.0032601613,-0.020429967
16276000,-0.013962475,-0.017540904,0.0032850131,-0.020429967
16280000,-0.013964076,-0.017542832,0.0033091158,-0.020429967
16284000,-0.013965858,-0.017544655,0.0033334405,-0.020429967
16288000,-0.013967754,-0.017546548,0.0033586463,-0.020429967
16292000,-0.013969958,-0.017548366,0.0033850116,-0.020429967
16296000,-0.0139725,-0.017549971,0.0034120567,-0.020429967
16300000,-0.01397525,-0.017551187,0.0034387067,-0.020429967
16304000,-0.01397813,-0.017552044,0.0034647845,-0.020429967
16308000,-0.013981042,-0.01755226,0.0034906617,-0.020429967
16312000,-0.013984024,-0.017552303,0.00351604,-0.020429967
16316000,-0.013986948,-0.017552407,0.0035407245,-0.020429967
16320000,-0.013989849,-0.017552713,0.003565041,-0.020429967
16324000,-0.013992743,-0.017553203,0.0035892825,-0.020429967
16328000,-0.013995616,-0.017553799,0.0036130566,-0.020429967
16332000,-0.013998438,-0.01755407,0.0036361243,-0.020429967
16336000,-0.014001331,-0.017554272,0.003658795,-0.020429967
16340000,-0.014004293,-0.017554551,0.0036811712,-0.020429967
16344000,-0.014007361,-0.017555092,0.0037030675,-0.020429967
16348000,-0.014010564,-0.017555749,0.0037246852,-0.020429967
16352000,-0.014013876,-0.017556472,0.0037460106,-0.020429967
16356000,-0.014017082,-0.017556984,0.0037669893,-0.020429967
16360000,-0.014020328,-0.017557317,0.0037878093,-0.020429967
16364000,-0.014023751,-0.017557496,0.0038085703,-0.020429967
16368000,-0.014027378,-0.017557682,0.003828929,-0.020429967
16372000,-0.014031119,-0.017557945,0.003848896,-0.020429967
16376000,-0.014034817,-0.017558578,0.0038688763,-0.020429967
16380000,-0.014038611,-0.017559538,0.0038890978,-0.020429967
16384000,-0.01404235,-0.017561045,0.0039092014,-0.020429967
16388000,-0.014046192,-0.01756294,0.0039289044,-0.020429967
16392000,-0.014050155,-0.017564919,0.0039477227,-0.020429967
16396000,-0.014054131,-0.01756674,0.003965377,-0.020429967
16400000,-0.014058075,-0.017568376,0.0039818767,-0.020429967
16404000,-0.014061921,-0.017569806,0.003997581,-0.020429967
16408000,-0.014065868,-0.017571528,0.004013078,-0.020429967
16412000,-0.014069942,-0.017573705,0.004028614,-0.020429967
16416000,-0.014074118,-0.017576383,0.004043581,-0.020429967
16420000,-0.014078366,-0.017579392,0.0040577473,-0.020429967
16424000,-0.01408262,-0.01758259,0.004071765,-0.020429967
16428000,-0.014086711,-0.017585669,0.0040861215,-0.020429967
16432000,-0.014090762,-0.017588701,0.0041001495,-0.020429967
16436000,-0.014094788,-0.01759172,0.0041130004,-0.020429967
16440000,-0.014098825,-0.017594747,0.0041249557,-0.020429967
16444000,-0.01410289,-0.017597828,0.0041365335,-0.020429967
16452000,-0.014110759,-0.017604947,0.0041572945,-0.020429967
16456000,-0.014114641,-0.017609179,0.0041668196,-0.020429967
16460000,-0.014118637,-0.017613534,0.0041758786,-0.020429967
16464000,-0.014122735,-0.01761769,0.0041841,-0.020429967
16468000,-0.01412691,-0.017621666,0.0041912524,-0.020429967
16472000,-0.014131192,-0.017625721,0.004197323,-0.020429967
16476000,-0.014135499,-0.017629908,0.0042025745,-0.020429967
16480000,-0.014140004,-0.017634373,0.0042069564,-0.020429967
16484000,-0.014144663,-0.01763886,0.0042108335,-0.020429967
16488000,-0.014149329,-0.017643206,0.004214967,-0.020429967
16492000,-0.014153868,-0.01764762,0.0042193513,-0.020429967
16496000,-0.014158256,-0.017652383,0.0042236783,-0.020429967
16500000,-0.014162855,-0.017657448,0.0042282296,-0.020429967
16504000,-0.014167631,-0.01766302,0.004233087,-0.020429967
16508000,-0.014172609,-0.017668827,0.004237504,-0.020429967
16512000,-0.014177609,-0.017674394,0.004240216,-0.020429967
16516000,-0.01418243,-0.017679704,0.0042412374,-0.020429967
16520000,-0.01418708,-0.017685188,0.0042421636,-0.020429967
16524000,-0.014191593,-0.017690888,0.004244047,-0.020429967
16528000,-0.014196223,-0.017696736,0.0042466903,-0.020429967
16532000,-0.01420096,-0.01770262,0.004249721,-0.020429967
16536000,-0.014205785,-0.017708663,0.0042527867,-0.020429967
16540000,-0.014210704,-0.017714934,0.004255279,-0.020429967
16544000,-0.0142157115,-0.017721446,0.0042568175,-0.020429967
16548000,-0.01422063,-0.017728183,0.0042574923,-0.020429967
16552000,-0.014225506,-0.017735269,0.0042570764,-0.020429967
16556000,-0.014230293,-0.017742587,0.004255551,-0.020429967
16564000,-0.014239886,-0.017757086,0.004251962,-0.020429967
16568000,-0.014244788,-0.017763836,0.0042504207,-0.020429967
16572000,-0.01424959,-0.017770395,0.0042484733,-0.020429967
16576000,-0.01425445,-0.017777147,0.004245634,-0.020429967
16580000,-0.014259379,-0.017784046,0.0042424104,-0.020429967
16588000,-0.014269029,-0.017797599,0.0042346385,-0.020429967
16592000,-0.014273743,-0.017804038,0.004230813,-0.020429967
16596000,-0.014278535,-0.017810164,0.0042274394,-0.020429967
16604000,-0.014288767,-0.01782298,0.0042206584,-0.020429967
16612000,-0.014298784,-0.017837098,0.0042147175,-0.020429967
16616000,-0.014303708,-0.017844265,0.0042114775,-0.020429967
16620000,-0.014308946,-0.017851386,0.0042087114,-0.020429967
16628000,-0.014319822,-0.01786506,0.004204968,-0.020429967
16632000,-0.014325469,-0.017871797,0.0042034946,-0.020429967
16636000,-0.01433122,-0.01787872,0.004201288,-0.020429967
16644000,-0.014342414,-0.017892944,0.004194986,-0.020429967
16652000,-0.014353213,-0.01790722,0.004190993,-0.020429967
16656000,-0.014358657,-0.017914254,0.0041890875,-0.020429967
16660000,-0.014364047,-0.017921211,0.004186865,-0.020429967
16668000,-0.014374582,-0.017934812,0.0041834232,-0.020429967
16672000,-0.0143799335,-0.017941222,0.004183471,-0.020429967
16676000,-0.014385336,-0.017947527,0.004184279,-0.020429967
16684000,-0.014396094,-0.017960377,0.0041845497,-0.020429967
16692000,-0.014406753,-0.017972784,0.0041828235,-0.020429967
16700000,-0.014417504,-0.017984342,0.0041821976,-0.020429967
16704000,-0.01442304,-0.017990343,0.004182811,-0.020429967
16708000,-0.014428683,-0.017996574,0.0041841906,-0.020429967
16716000,-0.014440172,-0.01800915,0.0041883755,-0.020429967
16724000,-0.014451477,-0.018021459,0.00419311,-0.020429967
16732000,-0.014461959,-0.018033026,0.0041965772,-0.020429967
16740000,-0.01447281,-0.018044852,0.004202952,-0.020429967
16748000,-0.014484193,-0.018056918,0.004211067,-0.020429967
16756000,-0.0144957835,-0.018068057,0.0042185034,-0.020429967
16764000,-0.014507238,-0.01807849,0.0042247414,-0.020429967
16768000,-0.014512816,-0.018083388,0.0042285584,-0.020429967
16772000,-0.014518478,-0.018088276,0.004232684,-0.020429967
16780000,-0.014529872,-0.018098623,0.004241531,-0.020429967
16784000,-0.014535474,-0.01810409,0.0042462843,-0.020429967
16788000,-0.014540929,-0.018109387,0.004251702,-0.020429967
16792000,-0.014546385,-0.01811461,0.004258294,-0.020429967
16796000,-0.014551799,-0.01812,0.004265873,-0.020429967
16804000,-0.014562782,-0.018131347,0.0042821905,-0.020429967
16808000,-0.014568371,-0.018136948,0.0042900094,-0.020429967
16812000,-0.01457387,-0.018142292,0.0042979415,-0.020429967
16816000,-0.0145793995,-0.018147398,0.004306004,-0.020429967
16820000,-0.014584881,-0.018152315,0.004313848,-0.020429967
16824000,-0.014590326,-0.018157197,0.004321441,-0.020429967
16828000,-0.014595811,-0.018162146,0.0043293685,-0.020429967
