timestamp,q[0],q[1],q[2],q[3],delta_q_reset[0],delta_q_reset[1],delta_q_reset[2],delta_q_reset[3],quat_reset_counter
180000,0.70711,9.506385e-05,-9.507388e-05,0.70711,0.0,0.0,0.0,0.0,0
192000,0.70711,9.506804e-05,-9.505623e-05,0.70711,0.0,0.0,0.0,0.0,0
204000,0.70711,9.505039e-05,-9.5060415e-05,0.70711,0.0,0.0,0.0,0.0,0
216000,0.70711,9.505457e-05,-9.5042764e-05,0.70711,0.0,0.0,0.0,0.0,0
228000,0.70711,9.503692e-05,-9.504695e-05,0.70711,0.0,0.0,0.0,0.0,0
240000,0.70711,9.5041105e-05,-9.5029296e-05,0.70711,0.0,0.0,0.0,0.0,0
252000,0.70711,9.502345e-05,-9.503349e-05,0.70711,0.0,0.0,0.0,0.0,0
264000,0.70711,9.502764e-05,-9.501583e-05,0.70711,0.0,0.0,0.0,0.0,0
276000,0.70711,9.5009986e-05,-9.502002e-05,0.70711,0.0,0.0,0.0,0.0,0
288000,0.70711,9.501418e-05,-9.500236e-05,0.70711,0.0,0.0,0.0,0.0,0
300000,0.70711,9.499652e-05,-9.500655e-05,0.70711,0.0,0.0,0.0,0.0,0
312000,0.70711,9.500071e-05,-9.49889e-05,0.70711,0.0,0.0,0.0,0.0,0
324000,0.70711,9.498305e-05,-9.499308e-05,0.70711,0.0,0.0,0.0,0.0,0
336000,0.70711,9.498724e-05,-9.497543e-05,0.70711,0.0,0.0,0.0,0.0,0
348000,0.70711,9.496959e-05,-9.4979616e-05,0.70711,0.0,0.0,0.0,0.0,0
360000,0.70711,9.497377e-05,-9.4961964e-05,0.70711,0.0,0.0,0.0,0.0,0
372000,0.70711,9.495612e-05,-9.496615e-05,0.70711,0.0,0.0,0.0,0.0,0
384000,0.70711,9.4960305e-05,-9.49485e-05,0.70711,0.0,0.0,0.0,0.0,0
396000,0.70711,9.4942654e-05,-9.495269e-05,0.70711,0.0,0.0,0.0,0.0,0
408000,0.70711,9.4946845e-05,-9.493503e-05,0.70711,0.0,0.0,0.0,0.0,0
420000,0.70711,9.4929186e-05,-9.493922e-05,0.70711,0.0,0.0,0.0,0.0,0
432000,0.70711,9.493338e-05,-9.492156e-05,0.70711,0.0,0.0,0.0,0.0,0
444000,0.70711,9.491572e-05,-9.492575e-05,0.70711,0.0,0.0,0.0,0.0,0
456000,0.70711,9.491991e-05,-9.49081e-05,0.70711,0.0,0.0,0.0,0.0,0
468000,0.70711,9.490226e-05,-9.4912284e-05,0.70711,0.0,0.0,0.0,0.0,0
480000,0.70711,9.490644e-05,-9.489463e-05,0.70711,0.0,0.0,0.0,0.0,0
492000,0.70711,9.488879e-05,-9.4898816e-05,0.70711,0.0,0.0,0.0,0.0,0
504000,0.70711,9.4892974e-05,-9.4881165e-05,0.70711,0.0,0.0,0.0,0.0,0
516000,0.70711,9.487532e-05,-9.488535e-05,0.70711,0.0,0.0,0.0,0.0,0
528000,0.70711,9.4879506e-05,-9.48677e-05,0.70711,0.0,0.0,0.0,0.0,0
540000,0.70711,9.4861854e-05,-9.487189e-05,0.70711,0.0,0.0,0.0,0.0,0
552000,0.70711,9.4866045e-05,-9.485423e-05,0.70711,0.0,0.0,0.0,0.0,0
564000,0.70711,9.484839e-05,-9.485842e-05,0.70711,0.0,0.0,0.0,0.0,0
576000,0.70711,9.485258e-05,-9.484076e-05,0.70711,0.0,0.0,0.0,0.0,0
588000,0.70711,9.483492e-05,-9.484495e-05,0.70711,0.0,0.0,0.0,0.0,0
600000,0.70711,9.483911e-05,-9.48273e-05,0.70711,0.0,0.0,0.0,0.0,0
612000,0.70711,9.482146e-05,-9.4831485e-05,0.70711,0.0,0.0,0.0,0.0,0
624000,0.70711,9.482564e-05,-9.481383e-05,0.70711,0.0,0.0,0.0,0.0,0
636000,0.70711,9.480799e-05,-9.481802e-05,0.70711,0.0,0.0,0.0,0.0,0
648000,0.70711,9.4812174e-05,-9.4800365e-05,0.70711,0.0,0.0,0.0,0.0,0
660000,0.70711,9.479452e-05,-9.480455e-05,0.70711,0.0,0.0,0.0,0.0,0
672000,0.70711,9.479871e-05,-9.47869e-05,0.70711,0.0,0.0,0.0,0.0,0
684000,0.70711,9.4781055e-05,-9.479109e-05,0.70711,0.0,0.0,0.0,0.0,0
696000,0.70711,9.4785246e-05,-9.477343e-05,0.70711,0.0,0.0,0.0,0.0,0
708000,0.70711,9.476759e-05,-9.477762e-05,0.70711,0.0,0.0,0.0,0.0,0
720000,0.70711,9.477178e-05,-9.475996e-05,0.70711,0.0,0.0,0.0,0.0,0
732000,0.70711,9.475412e-05,-9.476415e-05,0.70711,0.0,0.0,0.0,0.0,0
744000,0.70711,9.475831e-05,-9.47465e-05,0.70711,0.0,0.0,0.0,0.0,0
756000,0.70711,9.474066e-05,-9.4750685e-05,0.70711,0.0,0.0,0.0,0.0,0
768000,0.70711,9.474484e-05,-9.473303e-05,0.70711,0.0,0.0,0.0,0.0,0
780000,0.70711,9.472719e-05,-9.473722e-05,0.70711,0.0,0.0,0.0,0.0,0
792000,0.70711,9.4731375e-05,-9.4719566e-05,0.70711,0.0,0.0,0.0,0.0,0
804000,0.70711,9.471372e-05,-9.472375e-05,0.70711,0.0,0.0,0.0,0.0,0
816000,0.70711,9.471791e-05,-9.47061e-05,0.70711,0.0,0.0,0.0,0.0,0
828000,0.70711,9.4700255e-05,-9.471029e-05,0.70711,0.0,0.0,0.0,0.0,0
840000,0.70711,9.470445e-05,-9.469263e-05,0.70711,0.0,0.0,0.0,0.0,0
852000,0.70711,9.468679e-05,-9.469682e-05,0.70711,0.0,0.0,0.0,0.0,0
864000,0.70711,9.469098e-05,-9.467916e-05,0.70711,0.0,0.0,0.0,0.0,0
876000,0.70711,9.467333e-05,-9.468335e-05,0.70711,0.0,0.0,0.0,0.0,0
888000,0.70711,9.467751e-05,-9.46657e-05,0.70711,0.0,0.0,0.0,0.0,0
900000,0.70711,9.465986e-05,-9.4669886e-05,0.70711,0.0,0.0,0.0,0.0,0
912000,0.70711,9.466404e-05,-9.4652234e-05,0.70711,0.0,0.0,0.0,0.0,0
924000,0.70711,9.464639e-05,-9.465642e-05,0.70711,0.0,0.0,0.0,0.0,0
936000,0.70711,9.4650575e-05,-9.4638766e-05,0.70711,0.0,0.0,0.0,0.0,0
948000,0.70711,9.4632924e-05,-9.464295e-05,0.70711,0.0,0.0,0.0,0.0,0
960000,0.70711,9.4637115e-05,-9.46253e-05,0.70711,0.0,0.0,0.0,0.0,0
972000,0.70711,9.4619456e-05,-9.462949e-05,0.70711,0.0,0.0,0.0,0.0,0
984000,0.70711,9.462365e-05,-9.461183e-05,0.70711,0.0,0.0,0.0,0.0,0
996000,0.70711,9.460599e-05,-9.461602e-05,0.70711,0.0,0.0,0.0,0.0,0
1008000,0.70711,9.461018e-05,-9.459836e-05,0.70711,0.0,0.0,0.0,0.0,0
1020000,0.70711,9.459253e-05,-9.4602554e-05,0.70711,0.0,0.0,0.0,0.0,0
1032000,0.70711,9.459671e-05,-9.45849e-05,0.70711,0.0,0.0,0.0,0.0,0
1044000,0.70711,9.457906e-05,-9.4589086e-05,0.70711,0.0,0.0,0.0,0.0,0
1056000,0.70711,9.458324e-05,-9.4571435e-05,0.70711,0.0,0.0,0.0,0.0,0
1068000,0.70711,9.456559e-05,-9.457562e-05,0.70711,0.0,0.0,0.0,0.0,0
1080000,0.70711,9.4569776e-05,-9.455797e-05,0.70711,0.0,0.0,0.0,0.0,0
1092000,0.70711,9.4552124e-05,-9.456215e-05,0.70711,0.0,0.0,0.0,0.0,0
1104000,0.70711,9.4556315e-05,-9.45445e-05,0.70711,0.0,0.0,0.0,0.0,0
1116000,0.70711,9.453866e-05,-9.454869e-05,0.70711,0.0,0.0,0.0,0.0,0
1128000,0.70711,9.454285e-05,-9.453103e-05,0.70711,0.0,0.0,0.0,0.0,0
1140000,0.70711,9.452519e-05,-9.453522e-05,0.70711,0.0,0.0,0.0,0.0,0
1152000,0.70711,9.452938e-05,-9.451757e-05,0.70711,0.0,0.0,0.0,0.0,0
1164000,0.70711,9.451173e-05,-9.4521754e-05,0.70711,0.0,0.0,0.0,0.0,0
1176000,0.70711,9.451591e-05,-9.45041e-05,0.70711,0.0,0.0,0.0,0.0,0
1188000,0.70711,9.449826e-05,-9.450829e-05,0.70711,0.0,0.0,0.0,0.0,0
1200000,0.70711,9.4502444e-05,-9.4490635e-05,0.70711,0.0,0.0,0.0,0.0,0
1212000,0.70711,9.448479e-05,-9.449482e-05,0.70711,0.0,0.0,0.0,0.0,0
1224000,0.70711,9.4488976e-05,-9.447717e-05,0.70711,0.0,0.0,0.0,0.0,0
1236000,0.70711,9.4471325e-05,-9.448136e-05,0.70711,0.0,0.0,0.0,0.0,0
1248000,0.70711,9.4475516e-05,-9.44637e-05,0.70711,0.0,0.0,0.0,0.0,0
1260000,0.70711,9.445786e-05,-9.446789e-05,0.70711,0.0,0.0,0.0,0.0,0
1272000,0.70711,9.446205e-05,-9.445023e-05,0.70711,0.0,0.0,0.0,0.0,0
1284000,0.70711,9.444439e-05,-9.445442e-05,0.70711,0.0,0.0,0.0,0.0,0
1296000,0.70711,9.444858e-05,-9.443677e-05,0.70711,0.0,0.0,0.0,0.0,0
1308000,0.70711,9.443093e-05,-9.4440955e-05,0.70711,0.0,0.0,0.0,0.0,0
1320000,0.70711,9.443511e-05,-9.44233e-05,0.70711,0.0,0.0,0.0,0.0,0
1332000,0.70711,9.441746e-05,-9.442749e-05,0.70711,0.0,0.0,0.0,0.0,0
1344000,0.70711,9.4421644e-05,-9.4409836e-05,0.70711,0.0,0.0,0.0,0.0,0
1356000,0.70711,9.440399e-05,-9.441402e-05,0.70711,0.0,0.0,0.0,0.0,0
1368000,0.70711,9.440818e-05,-9.439637e-05,0.70711,0.0,0.0,0.0,0.0,0
1380000,0.70711,9.4390525e-05,-9.440056e-05,0.70711,0.0,0.0,0.0,0.0,0
1392000,0.70711,9.4394716e-05,-9.43829e-05,0.70711,0.0,0.0,0.0,0.0,0
1404000,0.70711,9.437706e-05,-9.438709e-05,0.70711,0.0,0.0,0.0,0.0,0
1416000,0.70711,9.438125e-05,-9.436943e-05,0.70711,0.0,0.0,0.0,0.0,0
1428000,0.70711,9.43636e-05,-9.437362e-05,0.70711,0.0,0.0,0.0,0.0,0
1440000,0.70711,9.436778e-05,-9.435597e-05,0.70711,0.0,0.0,0.0,0.0,0
1452000,0.70711,9.435013e-05,-9.4360155e-05,0.70711,0.0,0.0,0.0,0.0,0
1464000,0.70711,9.435431e-05,-9.4342504e-05,0.70711,0.0,0.0,0.0,0.0,0
1476000,0.70711,9.433666e-05,-9.434669e-05,0.70711,0.0,0.0,0.0,0.0,0
1488000,0.70711,9.4340845e-05,-9.4329036e-05,0.70711,0.0,0.0,0.0,0.0,0
1500000,0.70711,9.432319e-05,-9.433322e-05,0.70711,0.0,0.0,0.0,0.0,0
1512000,0.70711,9.4327384e-05,-9.431557e-05,0.70711,0.0,0.0,0.0,0.0,0
1524000,0.70711,9.4309726e-05,-9.431976e-05,0.70711,0.0,0.0,0.0,0.0,0
1536000,0.70711,9.431392e-05,-9.43021e-05,0.70711,0.0,0.0,0.0,0.0,0
1544000,0.70711,9.430943e-05,-9.429761e-05,0.70711,0.0,0.0,0.0,0.0,0
1560000,0.70711,9.430045e-05,-9.428863e-05,0.70711,0.0,0.0,0.0,0.0,0
1572000,0.70711,9.42828e-05,-9.429282e-05,0.70711,0.0,0.0,0.0,0.0,0
1584000,0.70711,9.428698e-05,-9.427517e-05,0.70711,0.0,0.0,0.0,0.0,0
1596000,0.70711,9.426933e-05,-9.4279356e-05,0.70711,0.0,0.0,0.0,0.0,0
1608000,0.70711,9.427351e-05,-9.4261704e-05,0.70711,0.0,0.0,0.0,0.0,0
1616000,0.70711,9.4269024e-05,-9.4257215e-05,0.70711,0.0,0.0,0.0,0.0,0
1628000,0.70711,9.425137e-05,-9.42614e-05,0.70711,0.0,0.0,0.0,0.0,0
1644000,0.70711,9.4242394e-05,-9.425242e-05,0.70711,0.0,0.0,0.0,0.0,0
1656000,0.70711,9.4246585e-05,-9.423477e-05,0.70711,0.0,0.0,0.0,0.0,0
1668000,0.70711,9.4228926e-05,-9.423896e-05,0.70711,0.0,0.0,0.0,0.0,0
1680000,0.70711,9.423312e-05,-9.42213e-05,0.70711,0.0,0.0,0.0,0.0,0
1692000,0.70711,9.421546e-05,-9.422549e-05,0.70711,0.0,0.0,0.0,0.0,0
1704000,0.70711,9.421965e-05,-9.420784e-05,0.70711,0.0,0.0,0.0,0.0,0
1716000,0.70711,9.4202e-05,-9.4212024e-05,0.70711,0.0,0.0,0.0,0.0,0
1728000,0.70711,9.420618e-05,-9.419437e-05,0.70711,0.0,0.0,0.0,0.0,0
1740000,0.70711,9.418853e-05,-9.4198556e-05,0.70711,0.0,0.0,0.0,0.0,0
1752000,0.70711,9.4192714e-05,-9.4180905e-05,0.70711,0.0,0.0,0.0,0.0,0
1764000,0.70711,9.417506e-05,-9.418509e-05,0.70711,0.0,0.0,0.0,0.0,0
1776000,0.70711,9.4179246e-05,-9.416744e-05,0.70711,0.0,0.0,0.0,0.0,0
1788000,0.70711,9.4161594e-05,-9.417163e-05,0.70711,0.0,0.0,0.0,0.0,0
1800000,0.70711,9.4165785e-05,-9.415397e-05,0.70711,0.0,0.0,0.0,0.0,0
1812000,0.70711,9.414813e-05,-9.415816e-05,0.70711,0.0,0.0,0.0,0.0,0
1820000,0.70711,9.414364e-05,-9.415367e-05,0.70711,0.0,0.0,0.0,0.0,0
1836000,0.70711,9.413466e-05,-9.414469e-05,0.70711,0.0,0.0,0.0,0.0,0
1848000,0.70711,9.413885e-05,-9.412704e-05,0.70711,0.0,0.0,0.0,0.0,0
1860000,0.70711,9.41212e-05,-9.4131225e-05,0.70711,0.0,0.0,0.0,0.0,0
1872000,0.70711,9.412538e-05,-9.411357e-05,0.70711,0.0,0.0,0.0,0.0,0
1884000,0.70711,9.410773e-05,-9.411776e-05,0.70711,0.0,0.0,0.0,0.0,0
1896000,0.70711,9.4111914e-05,-9.4100105e-05,0.70711,0.0,0.0,0.0,0.0,0
1908000,0.70711,9.409426e-05,-9.410429e-05,0.70711,0.0,0.0,0.0,0.0,0
1920000,0.70711,9.409845e-05,-9.408664e-05,0.70711,0.0,0.0,0.0,0.0,0
1932000,0.70711,9.4080795e-05,-9.409083e-05,0.70711,0.0,0.0,0.0,0.0,0
1944000,0.70711,9.4084986e-05,-9.407317e-05,0.70711,0.0,0.0,0.0,0.0,0
1956000,0.70711,9.406733e-05,-9.407736e-05,0.70711,0.0,0.0,0.0,0.0,0
1968000,0.70711,9.407152e-05,-9.40597e-05,0.70711,0.0,0.0,0.0,0.0,0
1980000,0.70711,9.405387e-05,-9.406389e-05,0.70711,0.0,0.0,0.0,0.0,0
1992000,0.70711,9.405805e-05,-9.404624e-05,0.70711,0.0,0.0,0.0,0.0,0
2000000,0.70711,9.405356e-05,-9.404175e-05,0.70711,0.0,0.0,0.0,0.0,0
2016000,0.70711,9.404458e-05,-9.403277e-05,0.70711,0.0,0.0,0.0,0.0,0
2028000,0.70711,9.402693e-05,-9.403696e-05,0.70711,0.0,0.0,0.0,0.0,0
2040000,0.70711,9.4031115e-05,-9.4019306e-05,0.70711,0.0,0.0,0.0,0.0,0
2052000,0.70711,9.401346e-05,-9.402349e-05,0.70711,0.0,0.0,0.0,0.0,0
2060000,0.70711,9.4008974e-05,-9.4019e-05,0.70711,0.0,0.0,0.0,0.0,0
2072000,0.70711,9.4013165e-05,-9.400135e-05,0.70711,0.0,0.0,0.0,0.0,0
2084000,0.70711,9.3995506e-05,-9.400554e-05,0.70711,0.0,0.0,0.0,0.0,0
2100000,0.70711,9.398653e-05,-9.399656e-05,0.70711,0.0,0.0,0.0,0.0,0
2108000,0.70711,9.398204e-05,-9.399207e-05,0.70711,0.0,0.0,0.0,0.0,0
2124000,0.70711,9.397307e-05,-9.398309e-05,0.70711,0.0,0.0,0.0,0.0,0
2136000,0.70711,9.397725e-05,-9.396544e-05,0.70711,0.0,0.0,0.0,0.0,0
2148000,0.70711,9.39596e-05,-9.3969626e-05,0.70711,0.0,0.0,0.0,0.0,0
2160000,0.70711,9.396378e-05,-9.3951974e-05,0.70711,0.0,0.0,0.0,0.0,0
2172000,0.70711,9.394613e-05,-9.395616e-05,0.70711,0.0,0.0,0.0,0.0,0
2180000,0.70711,9.394164e-05,-9.395167e-05,0.70711,0.0,0.0,0.0,0.0,0
2192000,0.70711,9.3945826e-05,-9.393402e-05,0.70711,0.0,0.0,0.0,0.0,0
2208000,0.70711,9.3936855e-05,-9.392504e-05,0.70711,0.0,0.0,0.0,0.0,0
2220000,0.70711,9.3919196e-05,-9.392923e-05,0.70711,0.0,0.0,0.0,0.0,0
2232000,0.70711,9.392339e-05,-9.391157e-05,0.70711,0.0,0.0,0.0,0.0,0
2240000,0.70711,9.39189e-05,-9.390708e-05,0.70711,0.0,0.0,0.0,0.0,0
2252000,0.70711,9.3901246e-05,-9.391127e-05,0.70711,0.0,0.0,0.0,0.0,0
2264000,0.70711,9.390543e-05,-9.389362e-05,0.70711,0.0,0.0,0.0,0.0,0
2276000,0.70711,9.388778e-05,-9.3897805e-05,0.70711,0.0,0.0,0.0,0.0,0
2292000,0.70711,9.38788e-05,-9.3888826e-05,0.70711,0.0,0.0,0.0,0.0,0
2304000,0.70711,9.388298e-05,-9.3871175e-05,0.70711,0.0,0.0,0.0,0.0,0
2316000,0.70711,9.386533e-05,-9.387536e-05,0.70711,0.0,0.0,0.0,0.0,0
2328000,0.70711,9.3869516e-05,-9.385771e-05,0.70711,0.0,0.0,0.0,0.0,0
2340000,0.70711,9.3851864e-05,-9.38619e-05,0.70711,0.0,0.0,0.0,0.0,0
2352000,0.70711,9.3856055e-05,-9.384424e-05,0.70711,0.0,0.0,0.0,0.0,0
2363999,0.70711,9.38384e-05,-9.384843e-05,0.70711,0.0,0.0,0.0,0.0,0
2376000,0.70711,9.384259e-05,-9.383077e-05,0.70711,0.0,0.0,0.0,0.0,0
2387999,0.70711,9.3824936e-05,-9.383496e-05,0.70711,0.0,0.0,0.0,0.0,0
2400000,0.70711,9.382912e-05,-9.381731e-05,0.70711,0.0,0.0,0.0,0.0,0
2408000,0.70711,9.382463e-05,-9.381282e-05,0.70711,0.0,0.0,0.0,0.0,0
2424000,0.70711,9.381565e-05,-9.380384e-05,0.70711,0.0,0.0,0.0,0.0,0
2435999,0.70711,9.3798e-05,-9.380803e-05,0.70711,0.0,0.0,0.0,0.0,0
2448000,0.70711,9.3802184e-05,-9.3790375e-05,0.70711,0.0,0.0,0.0,0.0,0
2456000,0.70711,9.3797695e-05,-9.3785886e-05,0.70711,0.0,0.0,0.0,0.0,0
2472000,0.70711,9.378872e-05,-9.377691e-05,0.70711,0.0,0.0,0.0,0.0,0
2483999,0.70711,9.3771065e-05,-9.37811e-05,0.70711,0.0,0.0,0.0,0.0,0
2496000,0.70711,9.3775256e-05,-9.376344e-05,0.70711,0.0,0.0,0.0,0.0,0
2507999,0.70711,9.37576e-05,-9.376763e-05,0.70711,0.0,0.0,0.0,0.0,0
2515999,0.70711,9.375311e-05,-9.376314e-05,0.70711,0.0,0.0,0.0,0.0,0
2528000,0.70711,9.37573e-05,-9.374549e-05,0.70711,0.0,0.0,0.0,0.0,0
2544000,0.70711,9.374832e-05,-9.373651e-05,0.70711,0.0,0.0,0.0,0.0,0
2556000,0.70711,9.373067e-05,-9.3740695e-05,0.70711,0.0,0.0,0.0,0.0,0
2568000,0.70711,9.373485e-05,-9.372304e-05,0.70711,0.0,0.0,0.0,0.0,0
2580000,0.70711,9.37172e-05,-9.372723e-05,0.70711,0.0,0.0,0.0,0.0,0
2592000,0.70711,9.3721384e-05,-9.3709576e-05,0.70711,0.0,0.0,0.0,0.0,0
2600000,0.70711,9.3716895e-05,-9.3705086e-05,0.70711,0.0,0.0,0.0,0.0,0
2616000,0.70711,9.3707924e-05,-9.369611e-05,0.70711,0.0,0.0,0.0,0.0,0
2628000,0.70711,9.3690265e-05,-9.37003e-05,0.70711,0.0,0.0,0.0,0.0,0
2640000,0.70711,9.3694456e-05,-9.368264e-05,0.70711,0.0,0.0,0.0,0.0,0
2652000,0.70711,9.36768e-05,-9.368683e-05,0.70711,0.0,0.0,0.0,0.0,0
2664000,0.70711,9.368099e-05,-9.366918e-05,0.70711,0.0,0.0,0.0,0.0,0
2676000,0.70711,9.366334e-05,-9.367336e-05,0.70711,0.0,0.0,0.0,0.0,0
2688000,0.70711,9.366752e-05,-9.365571e-05,0.70711,0.0,0.0,0.0,0.0,0
2696000,0.70711,9.366303e-05,-9.365122e-05,0.70711,0.0,0.0,0.0,0.0,0
2712000,0.70711,9.365405e-05,-9.3642244e-05,0.70711,0.0,0.0,0.0,0.0,0
2724000,0.70711,9.36364e-05,-9.364643e-05,0.70711,0.0,0.0,0.0,0.0,0
2732000,0.70711,9.363191e-05,-9.364194e-05,0.70711,0.0,0.0,0.0,0.0,0
2748000,0.70711,9.362293e-05,-9.363297e-05,0.70711,0.0,0.0,0.0,0.0,0
2760000,0.70711,9.3627124e-05,-9.361531e-05,0.70711,0.0,0.0,0.0,0.0,0
2772000,0.70711,9.3609466e-05,-9.36195e-05,0.70711,0.0,0.0,0.0,0.0,0
2780000,0.70711,9.360498e-05,-9.361501e-05,0.70711,0.0,0.0,0.0,0.0,0
2796000,0.70711,9.3596005e-05,-9.360603e-05,0.70711,0.0,0.0,0.0,0.0,0
2808000,0.70711,9.360019e-05,-9.358838e-05,0.70711,0.0,0.0,0.0,0.0,0
2820000,0.70711,9.358254e-05,-9.3592564e-05,0.70711,0.0,0.0,0.0,0.0,0
2832000,0.70711,9.358672e-05,-9.357491e-05,0.70711,0.0,0.0,0.0,0.0,0
2844000,0.70711,9.356907e-05,-9.3579096e-05,0.70711,0.0,0.0,0.0,0.0,0
2856000,0.70711,9.357325e-05,-9.3561444e-05,0.70711,0.0,0.0,0.0,0.0,0
2868000,0.70711,9.35556e-05,-9.356563e-05,0.70711,0.0,0.0,0.0,0.0,0
2880000,0.70711,9.355979e-05,-9.354798e-05,0.70711,0.0,0.0,0.0,0.0,0
2888000,0.70711,9.35553e-05,-9.354349e-05,0.70711,0.0,0.0,0.0,0.0,0
2904000,0.70711,9.3546325e-05,-9.353451e-05,0.70711,0.0,0.0,0.0,0.0,0
2916000,0.70711,9.3528666e-05,-9.35387e-05,0.70711,0.0,0.0,0.0,0.0,0
2928000,0.70711,9.353286e-05,-9.352104e-05,0.70711,0.0,0.0,0.0,0.0,0
2940000,0.70711,9.3515206e-05,-9.352523e-05,0.70711,0.0,0.0,0.0,0.0,0
2952000,0.70711,9.351939e-05,-9.350758e-05,0.70711,0.0,0.0,0.0,0.0,0
2964000,0.70711,9.350174e-05,-9.3511764e-05,0.70711,0.0,0.0,0.0,0.0,0
2976000,0.70711,9.350592e-05,-9.349411e-05,0.70711,0.0,0.0,0.0,0.0,0
2988000,0.70711,9.348827e-05,-9.3498296e-05,0.70711,0.0,0.0,0.0,0.0,0
2996000,0.70711,9.348378e-05,-9.349381e-05,0.70711,0.0,0.0,0.0,0.0,0
3012000,0.70711,9.34748e-05,-9.3484836e-05,0.70711,0.0,0.0,0.0,0.0,0
3024000,0.70711,9.347899e-05,-9.346718e-05,0.70711,0.0,0.0,0.0,0.0,0
3036000,0.70711,9.3461334e-05,-9.347137e-05,0.70711,0.0,0.0,0.0,0.0,0
3048000,0.70711,9.3465525e-05,-9.345371e-05,0.70711,0.0,0.0,0.0,0.0,0
3060000,0.70711,9.344787e-05,-9.34579e-05,0.70711,0.0,0.0,0.0,0.0,0
3072000,0.70711,9.345206e-05,-9.344025e-05,0.70711,0.0,0.0,0.0,0.0,0
3084000,0.70711,9.3434406e-05,-9.344443e-05,0.70711,0.0,0.0,0.0,0.0,0
3096000,0.70711,9.343859e-05,-9.342678e-05,0.70711,0.0,0.0,0.0,0.0,0
3108000,0.70711,9.342094e-05,-9.3430965e-05,0.70711,0.0,0.0,0.0,0.0,0
3120000,0.70711,9.342512e-05,-9.341331e-05,0.70711,0.0,0.0,0.0,0.0,0
3132000,0.70711,9.340747e-05,-9.34175e-05,0.70711,0.0,0.0,0.0,0.0,0
3144000,0.70711,9.3411654e-05,-9.3399845e-05,0.70711,0.0,0.0,0.0,0.0,0
3156000,0.70711,9.3394e-05,-9.3404036e-05,0.70711,0.0,0.0,0.0,0.0,0
3168000,0.70711,9.3398194e-05,-9.338638e-05,0.70711,0.0,0.0,0.0,0.0,0
3180000,0.70711,9.3380535e-05,-9.339057e-05,0.70711,0.0,0.0,0.0,0.0,0
3192000,0.70711,9.3384726e-05,-9.337291e-05,0.70711,0.0,0.0,0.0,0.0,0
3204000,0.70711,9.3367074e-05,-9.33771e-05,0.70711,0.0,0.0,0.0,0.0,0
3216000,0.70711,9.337126e-05,-9.335945e-05,0.70711,0.0,0.0,0.0,0.0,0
3228000,0.70711,9.335361e-05,-9.336363e-05,0.70711,0.0,0.0,0.0,0.0,0
3240000,0.70711,9.335779e-05,-9.334598e-05,0.70711,0.0,0.0,0.0,0.0,0
3252000,0.70711,9.334014e-05,-9.3350165e-05,0.70711,0.0,0.0,0.0,0.0,0
3264000,0.70711,9.334432e-05,-9.3332514e-05,0.70711,0.0,0.0,0.0,0.0,0
3276000,0.70711,9.332667e-05,-9.33367e-05,0.70711,0.0,0.0,0.0,0.0,0
3288000,0.70711,9.333086e-05,-9.3319046e-05,0.70711,0.0,0.0,0.0,0.0,0
3300000,0.70711,9.33132e-05,-9.332324e-05,0.70711,0.0,0.0,0.0,0.0,0
3312000,0.70711,9.3317394e-05,-9.330558e-05,0.70711,0.0,0.0,0.0,0.0,0
3324000,0.70711,9.3299735e-05,-9.330977e-05,0.70711,0.0,0.0,0.0,0.0,0
3336000,0.70711,9.330393e-05,-9.329212e-05,0.70711,0.0,0.0,0.0,0.0,0
3348000,0.70711,9.3286275e-05,-9.32963e-05,0.70711,0.0,0.0,0.0,0.0,0
3360000,0.70711,9.329046e-05,-9.327865e-05,0.70711,0.0,0.0,0.0,0.0,0
3372000,0.70711,9.327281e-05,-9.328283e-05,0.70711,0.0,0.0,0.0,0.0,0
3384000,0.70711,9.327699e-05,-9.326518e-05,0.70711,0.0,0.0,0.0,0.0,0
3396000,0.70711,9.325934e-05,-9.3269366e-05,0.70711,0.0,0.0,0.0,0.0,0
3408000,0.70711,9.326352e-05,-9.3251714e-05,0.70711,0.0,0.0,0.0,0.0,0
3420000,0.70711,9.324587e-05,-9.3255905e-05,0.70711,0.0,0.0,0.0,0.0,0
3432000,0.70711,9.325006e-05,-9.3238246e-05,0.70711,0.0,0.0,0.0,0.0,0
3444000,0.70711,9.3232404e-05,-9.324244e-05,0.70711,0.0,0.0,0.0,0.0,0
3452000,0.70711,9.3227914e-05,-9.323795e-05,0.70711,0.0,0.0,0.0,0.0,0
3468000,0.70711,9.321894e-05,-9.322897e-05,0.70711,0.0,0.0,0.0,0.0,0
3480000,0.70711,9.322313e-05,-9.321132e-05,0.70711,0.0,0.0,0.0,0.0,0
3492000,0.70711,9.3205475e-05,-9.32155e-05,0.70711,0.0,0.0,0.0,0.0,0
3504000,0.70711,9.320966e-05,-9.319785e-05,0.70711,0.0,0.0,0.0,0.0,0
3516000,0.70711,9.319201e-05,-9.3202034e-05,0.70711,0.0,0.0,0.0,0.0,0
3524000,0.70711,9.318752e-05,-9.3197545e-05,0.70711,0.0,0.0,0.0,0.0,0
3536000,0.70711,9.31917e-05,-9.317989e-05,0.70711,0.0,0.0,0.0,0.0,0
3552000,0.70711,9.318273e-05,-9.3170915e-05,0.70711,0.0,0.0,0.0,0.0,0
3564000,0.70711,9.316507e-05,-9.3175106e-05,0.70711,0.0,0.0,0.0,0.0,0
3576000,0.70711,9.316926e-05,-9.315745e-05,0.70711,0.0,0.0,0.0,0.0,0
3584000,0.70711,9.3164774e-05,-9.315296e-05,0.70711,0.0,0.0,0.0,0.0,0
3600000,0.70711,9.3155795e-05,-9.314398e-05,0.70711,0.0,0.0,0.0,0.0,0
3612000,0.70711,9.3138144e-05,-9.314817e-05,0.70711,0.0,0.0,0.0,0.0,0
3620000,0.70711,9.3133654e-05,-9.314368e-05,0.70711,0.0,0.0,0.0,0.0,0
3632000,0.70711,9.313784e-05,-9.312603e-05,0.70711,0.0,0.0,0.0,0.0,0
3648000,0.70711,9.312886e-05,-9.311705e-05,0.70711,0.0,0.0,0.0,0.0,0
3660000,0.70711,9.311121e-05,-9.3121234e-05,0.70711,0.0,0.0,0.0,0.0,0
3668000,0.70711,9.310672e-05,-9.3116745e-05,0.70711,0.0,0.0,0.0,0.0,0
3684000,0.70711,9.309774e-05,-9.310777e-05,0.70711,0.0,0.0,0.0,0.0,0
3696000,0.70711,9.310193e-05,-9.3090115e-05,0.70711,0.0,0.0,0.0,0.0,0
3708000,0.70711,9.308427e-05,-9.3094306e-05,0.70711,0.0,0.0,0.0,0.0,0
3720000,0.70711,9.308846e-05,-9.307665e-05,0.70711,0.0,0.0,0.0,0.0,0
3732000,0.70711,9.3070805e-05,-9.308084e-05,0.70711,0.0,0.0,0.0,0.0,0
3744000,0.70711,9.3074996e-05,-9.306319e-05,0.70711,0.0,0.0,0.0,0.0,0
3756000,0.70711,9.3057344e-05,-9.306737e-05,0.70711,0.0,0.0,0.0,0.0,0
3768000,0.70711,9.306153e-05,-9.304972e-05,0.70711,0.0,0.0,0.0,0.0,0
3780000,0.70711,9.304388e-05,-9.30539e-05,0.70711,0.0,0.0,0.0,0.0,0
3792000,0.70711,9.304806e-05,-9.303625e-05,0.70711,0.0,0.0,0.0,0.0,0
3804000,0.70711,9.303041e-05,-9.3040435e-05,0.70711,0.0,0.0,0.0,0.0,0
3816000,0.70711,9.303459e-05,-9.302278e-05,0.70711,0.0,0.0,0.0,0.0,0
3828000,0.70711,9.301694e-05,-9.3026974e-05,0.70711,0.0,0.0,0.0,0.0,0
3840000,0.70711,9.302113e-05,-9.3009316e-05,0.70711,0.0,0.0,0.0,0.0,0
3852000,0.70711,9.300347e-05,-9.301351e-05,0.70711,0.0,0.0,0.0,0.0,0
3864000,0.70711,9.3007664e-05,-9.299585e-05,0.70711,0.0,0.0,0.0,0.0,0
3876000,0.70711,9.299001e-05,-9.300004e-05,0.70711,0.0,0.0,0.0,0.0,0
3888000,0.70711,9.2994196e-05,-9.298239e-05,0.70711,0.0,0.0,0.0,0.0,0
3900000,0.70711,9.2976545e-05,-9.298657e-05,0.70711,0.0,0.0,0.0,0.0,0
3912000,0.70711,9.298073e-05,-9.296892e-05,0.70711,0.0,0.0,0.0,0.0,0
3924000,0.70711,9.296308e-05,-9.29731e-05,0.70711,0.0,0.0,0.0,0.0,0
3936000,0.70711,9.296726e-05,-9.295545e-05,0.70711,0.0,0.0,0.0,0.0,0
3944000,0.70711,9.296277e-05,-9.295096e-05,0.70711,0.0,0.0,0.0,0.0,0
3960000,0.70711,9.29538e-05,-9.2941984e-05,0.70711,0.0,0.0,0.0,0.0,0
3972000,0.70711,9.293614e-05,-9.2946175e-05,0.70711,0.0,0.0,0.0,0.0,0
3984000,0.70711,9.294033e-05,-9.2928516e-05,0.70711,0.0,0.0,0.0,0.0,0
3996000,0.70711,9.292267e-05,-9.293271e-05,0.70711,0.0,0.0,0.0,0.0,0
4008000,0.70711,9.2926864e-05,-9.2915056e-05,0.70711,0.0,0.0,0.0,0.0,0
4020000,0.70711,9.290921e-05,-9.291924e-05,0.70711,0.0,0.0,0.0,0.0,0
4032000,0.70711,9.29134e-05,-9.290159e-05,0.70711,0.0,0.0,0.0,0.0,0
4044000,0.70711,9.2895745e-05,-9.290577e-05,0.70711,0.0,0.0,0.0,0.0,0
4056000,0.70711,9.289993e-05,-9.288812e-05,0.70711,0.0,0.0,0.0,0.0,0
4064000,0.70711,9.289544e-05,-9.288363e-05,0.70711,0.0,0.0,0.0,0.0,0
4080000,0.70711,9.288646e-05,-9.287465e-05,0.70711,0.0,0.0,0.0,0.0,0
4092000,0.70711,9.286881e-05,-9.287884e-05,0.70711,0.0,0.0,0.0,0.0,0
4104000,0.70711,9.2873e-05,-9.2861184e-05,0.70711,0.0,0.0,0.0,0.0,0
4116000,0.70711,9.285534e-05,-9.2865375e-05,0.70711,0.0,0.0,0.0,0.0,0
4128000,0.70711,9.285953e-05,-9.284772e-05,0.70711,0.0,0.0,0.0,0.0,0
4140000,0.70711,9.284188e-05,-9.285191e-05,0.70711,0.0,0.0,0.0,0.0,0
4152000,0.70711,9.2846065e-05,-9.2834256e-05,0.70711,0.0,0.0,0.0,0.0,0
4164000,0.70711,9.282841e-05,-9.283844e-05,0.70711,0.0,0.0,0.0,0.0,0
4176000,0.70711,9.28326e-05,-9.282079e-05,0.70711,0.0,0.0,0.0,0.0,0
4188000,0.70711,9.2814946e-05,-9.282497e-05,0.70711,0.0,0.0,0.0,0.0,0
4200000,0.70711,9.281913e-05,-9.280732e-05,0.70711,0.0,0.0,0.0,0.0,0
4212000,0.70711,9.280148e-05,-9.2811504e-05,0.70711,0.0,0.0,0.0,0.0,0
4224000,0.70711,9.280567e-05,-9.279385e-05,0.70711,0.0,0.0,0.0,0.0,0
4236000,0.70711,9.278801e-05,-9.279804e-05,0.70711,0.0,0.0,0.0,0.0,0
4248000,0.70711,9.27922e-05,-9.2780385e-05,0.70711,0.0,0.0,0.0,0.0,0
4260000,0.70711,9.277454e-05,-9.2784576e-05,0.70711,0.0,0.0,0.0,0.0,0
4272000,0.70711,9.277873e-05,-9.2766924e-05,0.70711,0.0,0.0,0.0,0.0,0
4284000,0.70711,9.276108e-05,-9.277111e-05,0.70711,0.0,0.0,0.0,0.0,0
4296000,0.70711,9.2765265e-05,-9.275346e-05,0.70711,0.0,0.0,0.0,0.0,0
4308000,0.70711,9.2747614e-05,-9.275764e-05,0.70711,0.0,0.0,0.0,0.0,0
4320000,0.70711,9.27518e-05,-9.273999e-05,0.70711,0.0,0.0,0.0,0.0,0
4332000,0.70711,9.2734146e-05,-9.274417e-05,0.70711,0.0,0.0,0.0,0.0,0
4344000,0.70711,9.273833e-05,-9.272652e-05,0.70711,0.0,0.0,0.0,0.0,0
4356000,0.70711,9.272068e-05,-9.273071e-05,0.70711,0.0,0.0,0.0,0.0,0
4368000,0.70711,9.272487e-05,-9.271305e-05,0.70711,0.0,0.0,0.0,0.0,0
4380000,0.70711,9.270721e-05,-9.2717244e-05,0.70711,0.0,0.0,0.0,0.0,0
4392000,0.70711,9.27114e-05,-9.2699585e-05,0.70711,0.0,0.0,0.0,0.0,0
4404000,0.70711,9.269375e-05,-9.2703776e-05,0.70711,0.0,0.0,0.0,0.0,0
4416000,0.70711,9.2697934e-05,-9.2686125e-05,0.70711,0.0,0.0,0.0,0.0,0
4428000,0.70711,9.268028e-05,-9.269031e-05,0.70711,0.0,0.0,0.0,0.0,0
4440000,0.70711,9.2684466e-05,-9.267266e-05,0.70711,0.0,0.0,0.0,0.0,0
4452000,0.70711,9.2666814e-05,-9.267684e-05,0.70711,0.0,0.0,0.0,0.0,0
4464000,0.70711,9.2671e-05,-9.265919e-05,0.70711,0.0,0.0,0.0,0.0,0
4476000,0.70711,9.265335e-05,-9.266337e-05,0.70711,0.0,0.0,0.0,0.0,0
4488000,0.70711,9.265754e-05,-9.264572e-05,0.70711,0.0,0.0,0.0,0.0,0
4500000,0.70711,9.263988e-05,-9.264991e-05,0.70711,0.0,0.0,0.0,0.0,0
4512000,0.70711,9.264407e-05,-9.2632254e-05,0.70711,0.0,0.0,0.0,0.0,0
4520000,0.70711,9.263958e-05,-9.2627764e-05,0.70711,0.0,0.0,0.0,0.0,0
4536000,0.70711,9.26306e-05,-9.261879e-05,0.70711,0.0,0.0,0.0,0.0,0
4548000,0.70711,9.261295e-05,-9.262298e-05,0.70711,0.0,0.0,0.0,0.0,0
4560000,0.70711,9.2617134e-05,-9.2605325e-05,0.70711,0.0,0.0,0.0,0.0,0
4572000,0.70711,9.259948e-05,-9.260951e-05,0.70711,0.0,0.0,0.0,0.0,0
4584000,0.70711,9.260367e-05,-9.259186e-05,0.70711,0.0,0.0,0.0,0.0,0
4596000,0.70711,9.2586015e-05,-9.259604e-05,0.70711,0.0,0.0,0.0,0.0,0
4608000,0.70711,9.25902e-05,-9.257839e-05,0.70711,0.0,0.0,0.0,0.0,0
4620000,0.70711,9.257255e-05,-9.258258e-05,0.70711,0.0,0.0,0.0,0.0,0
4632000,0.70711,9.257674e-05,-9.256492e-05,0.70711,0.0,0.0,0.0,0.0,0
4640000,0.70711,9.257225e-05,-9.256043e-05,0.70711,0.0,0.0,0.0,0.0,0
4656000,0.70711,9.256327e-05,-9.2551454e-05,0.70711,0.0,0.0,0.0,0.0,0
4668000,0.70711,9.254562e-05,-9.2555645e-05,0.70711,0.0,0.0,0.0,0.0,0
4680000,0.70711,9.25498e-05,-9.253799e-05,0.70711,0.0,0.0,0.0,0.0,0
4692000,0.70711,9.253215e-05,-9.254218e-05,0.70711,0.0,0.0,0.0,0.0,0
4704000,0.70711,9.2536335e-05,-9.2524526e-05,0.70711,0.0,0.0,0.0,0.0,0
4716000,0.70711,9.251868e-05,-9.252871e-05,0.70711,0.0,0.0,0.0,0.0,0
4728000,0.70711,9.252287e-05,-9.251106e-05,0.70711,0.0,0.0,0.0,0.0,0
4740000,0.70711,9.2505215e-05,-9.251524e-05,0.70711,0.0,0.0,0.0,0.0,0
4752000,0.70711,9.250941e-05,-9.249759e-05,0.70711,0.0,0.0,0.0,0.0,0
4764000,0.70711,9.249175e-05,-9.250178e-05,0.70711,0.0,0.0,0.0,0.0,0
4776000,0.70711,9.249594e-05,-9.248412e-05,0.70711,0.0,0.0,0.0,0.0,0
4788000,0.70711,9.247828e-05,-9.248831e-05,0.70711,0.0,0.0,0.0,0.0,0
4800000,0.70711,9.248247e-05,-9.247066e-05,0.70711,0.0,0.0,0.0,0.0,0
4812000,0.70711,9.246482e-05,-9.2474846e-05,0.70711,0.0,0.0,0.0,0.0,0
4824000,0.70711,9.2469e-05,-9.2457194e-05,0.70711,0.0,0.0,0.0,0.0,0
4836000,0.70711,9.245135e-05,-9.246138e-05,0.70711,0.0,0.0,0.0,0.0,0
4848000,0.70711,9.2455535e-05,-9.2443726e-05,0.70711,0.0,0.0,0.0,0.0,0
4860000,0.70711,9.2437884e-05,-9.244791e-05,0.70711,0.0,0.0,0.0,0.0,0
4872000,0.70711,9.244207e-05,-9.243026e-05,0.70711,0.0,0.0,0.0,0.0,0
4884000,0.70711,9.2424416e-05,-9.243445e-05,0.70711,0.0,0.0,0.0,0.0,0
4896000,0.70711,9.242861e-05,-9.241679e-05,0.70711,0.0,0.0,0.0,0.0,0
4908000,0.70711,9.241095e-05,-9.242098e-05,0.70711,0.0,0.0,0.0,0.0,0
4920000,0.70711,9.241514e-05,-9.240332e-05,0.70711,0.0,0.0,0.0,0.0,0
4932000,0.70711,9.239749e-05,-9.2407514e-05,0.70711,0.0,0.0,0.0,0.0,0
4944000,0.70711,9.240167e-05,-9.238986e-05,0.70711,0.0,0.0,0.0,0.0,0
4956000,0.70711,9.238402e-05,-9.2394046e-05,0.70711,0.0,0.0,0.0,0.0,0
4968000,0.70711,9.23882e-05,-9.2376395e-05,0.70711,0.0,0.0,0.0,0.0,0
4980000,0.70711,9.237055e-05,-9.238058e-05,0.70711,0.0,0.0,0.0,0.0,0
4992000,0.70711,9.2374736e-05,-9.236293e-05,0.70711,0.0,0.0,0.0,0.0,0
5004000,0.70711,9.2357084e-05,-9.236711e-05,0.70711,0.0,0.0,0.0,0.0,0
5016000,0.70711,9.2361275e-05,-9.234946e-05,0.70711,0.0,0.0,0.0,0.0,0
5028000,0.70711,9.234362e-05,-9.235365e-05,0.70711,0.0,0.0,0.0,0.0,0
5040000,0.70711,9.234781e-05,-9.233599e-05,0.70711,0.0,0.0,0.0,0.0,0
5052000,0.70711,9.233015e-05,-9.234018e-05,0.70711,0.0,0.0,0.0,0.0,0
5064000,0.70711,9.233434e-05,-9.232253e-05,0.70711,0.0,0.0,0.0,0.0,0
5076000,0.70711,9.231669e-05,-9.2326714e-05,0.70711,0.0,0.0,0.0,0.0,0
5088000,0.70711,9.232087e-05,-9.230906e-05,0.70711,0.0,0.0,0.0,0.0,0
5100000,0.70711,9.230322e-05,-9.231325e-05,0.70711,0.0,0.0,0.0,0.0,0
5112000,0.70711,9.2307404e-05,-9.2295595e-05,0.70711,0.0,0.0,0.0,0.0,0
5124000,0.70711,9.228975e-05,-9.229978e-05,0.70711,0.0,0.0,0.0,0.0,0
5136000,0.70711,9.2293936e-05,-9.228213e-05,0.70711,0.0,0.0,0.0,0.0,0
5148000,0.70711,9.2276285e-05,-9.228632e-05,0.70711,0.0,0.0,0.0,0.0,0
5160000,0.70711,9.2280476e-05,-9.226866e-05,0.70711,0.0,0.0,0.0,0.0,0
5172000,0.70711,9.226282e-05,-9.227285e-05,0.70711,0.0,0.0,0.0,0.0,0
5184000,0.70711,9.226701e-05,-9.225519e-05,0.70711,0.0,0.0,0.0,0.0,0
5196000,0.70711,9.224936e-05,-9.225938e-05,0.70711,0.0,0.0,0.0,0.0,0
5208000,0.70711,9.225354e-05,-9.224173e-05,0.70711,0.0,0.0,0.0,0.0,0
5220000,0.70711,9.223589e-05,-9.2245915e-05,0.70711,0.0,0.0,0.0,0.0,0
5232000,0.70711,9.224007e-05,-9.222826e-05,0.70711,0.0,0.0,0.0,0.0,0
5244000,0.70711,9.222242e-05,-9.223245e-05,0.70711,0.0,0.0,0.0,0.0,0
5256000,0.70711,9.2226604e-05,-9.2214796e-05,0.70711,0.0,0.0,0.0,0.0,0
5268000,0.70711,9.220895e-05,-9.221898e-05,0.70711,0.0,0.0,0.0,0.0,0
5280000,0.70711,9.2213144e-05,-9.220133e-05,0.70711,0.0,0.0,0.0,0.0,0
5292000,0.70711,9.2195485e-05,-9.220552e-05,0.70711,0.0,0.0,0.0,0.0,0
5304000,0.70711,9.2199676e-05,-9.218786e-05,0.70711,0.0,0.0,0.0,0.0,0
5316000,0.70711,9.218202e-05,-9.219205e-05,0.70711,0.0,0.0,0.0,0.0,0
5328000,0.70711,9.218621e-05,-9.21744e-05,0.70711,0.0,0.0,0.0,0.0,0
5340000,0.70711,9.216856e-05,-9.217858e-05,0.70711,0.0,0.0,0.0,0.0,0
5352000,0.70711,9.217274e-05,-9.216093e-05,0.70711,0.0,0.0,0.0,0.0,0
5364000,0.70711,9.215509e-05,-9.2165115e-05,0.70711,0.0,0.0,0.0,0.0,0
5372000,0.70711,9.21506e-05,-9.2160626e-05,0.70711,0.0,0.0,0.0,0.0,0
5388000,0.70711,9.214162e-05,-9.215165e-05,0.70711,0.0,0.0,0.0,0.0,0
5400000,0.70711,9.2145805e-05,-9.2133996e-05,0.70711,0.0,0.0,0.0,0.0,0
5412000,0.70711,9.212815e-05,-9.213819e-05,0.70711,0.0,0.0,0.0,0.0,0
5424000,0.70711,9.2132344e-05,-9.212053e-05,0.70711,0.0,0.0,0.0,0.0,0
5436000,0.70711,9.2114686e-05,-9.212472e-05,0.70711,0.0,0.0,0.0,0.0,0
5448000,0.70711,9.211888e-05,-9.210706e-05,0.70711,0.0,0.0,0.0,0.0,0
5460000,0.70711,9.2101225e-05,-9.211125e-05,0.70711,0.0,0.0,0.0,0.0,0
5472000,0.70711,9.210541e-05,-9.20936e-05,0.70711,0.0,0.0,0.0,0.0,0
5484000,0.70711,9.208776e-05,-9.209778e-05,0.70711,0.0,0.0,0.0,0.0,0
5496000,0.70711,9.209194e-05,-9.208013e-05,0.70711,0.0,0.0,0.0,0.0,0
5508000,0.70711,9.207429e-05,-9.2084316e-05,0.70711,0.0,0.0,0.0,0.0,0
5520000,0.70711,9.207847e-05,-9.2066664e-05,0.70711,0.0,0.0,0.0,0.0,0
5532000,0.70711,9.206082e-05,-9.207085e-05,0.70711,0.0,0.0,0.0,0.0,0
5544000,0.70711,9.206501e-05,-9.20532e-05,0.70711,0.0,0.0,0.0,0.0,0
5556000,0.70711,9.2047354e-05,-9.205739e-05,0.70711,0.0,0.0,0.0,0.0,0
5568000,0.70711,9.2051545e-05,-9.203973e-05,0.70711,0.0,0.0,0.0,0.0,0
5580000,0.70711,9.2033886e-05,-9.204392e-05,0.70711,0.0,0.0,0.0,0.0,0
5592000,0.70711,9.203808e-05,-9.202627e-05,0.70711,0.0,0.0,0.0,0.0,0
5604000,0.70711,9.2020426e-05,-9.203045e-05,0.70711,0.0,0.0,0.0,0.0,0
5616000,0.70711,9.202461e-05,-9.20128e-05,0.70711,0.0,0.0,0.0,0.0,0
5628000,0.70711,9.200696e-05,-9.2016984e-05,0.70711,0.0,0.0,0.0,0.0,0
5640000,0.70711,9.201114e-05,-9.199933e-05,0.70711,0.0,0.0,0.0,0.0,0
5652000,0.70711,9.199349e-05,-9.2003516e-05,0.70711,0.0,0.0,0.0,0.0,0
5660000,0.70711,9.1989e-05,-9.199903e-05,0.70711,0.0,0.0,0.0,0.0,0
5676000,0.70711,9.198002e-05,-9.1990056e-05,0.70711,0.0,0.0,0.0,0.0,0
5688000,0.70711,9.198421e-05,-9.19724e-05,0.70711,0.0,0.0,0.0,0.0,0
5700000,0.70711,9.1966554e-05,-9.197659e-05,0.70711,0.0,0.0,0.0,0.0,0
5712000,0.70711,9.1970745e-05,-9.195893e-05,0.70711,0.0,0.0,0.0,0.0,0
5724000,0.70711,9.1953094e-05,-9.196312e-05,0.70711,0.0,0.0,0.0,0.0,0
5736000,0.70711,9.195728e-05,-9.194547e-05,0.70711,0.0,0.0,0.0,0.0,0
5748000,0.70711,9.1939626e-05,-9.194965e-05,0.70711,0.0,0.0,0.0,0.0,0
5760000,0.70711,9.194381e-05,-9.1932e-05,0.70711,0.0,0.0,0.0,0.0,0
5772000,0.70711,9.192616e-05,-9.1936185e-05,0.70711,0.0,0.0,0.0,0.0,0
5784000,0.70711,9.193034e-05,-9.191853e-05,0.70711,0.0,0.0,0.0,0.0,0
5796000,0.70711,9.191269e-05,-9.192272e-05,0.70711,0.0,0.0,0.0,0.0,0
5808000,0.70711,9.191688e-05,-9.1905065e-05,0.70711,0.0,0.0,0.0,0.0,0
5820000,0.70711,9.189922e-05,-9.1909256e-05,0.70711,0.0,0.0,0.0,0.0,0
5832000,0.70711,9.1903414e-05,-9.18916e-05,0.70711,0.0,0.0,0.0,0.0,0
5844000,0.70711,9.1885755e-05,-9.189579e-05,0.70711,0.0,0.0,0.0,0.0,0
5856000,0.70711,9.1889946e-05,-9.187814e-05,0.70711,0.0,0.0,0.0,0.0,0
5868000,0.70711,9.1872294e-05,-9.188232e-05,0.70711,0.0,0.0,0.0,0.0,0
5880000,0.70711,9.187648e-05,-9.186467e-05,0.70711,0.0,0.0,0.0,0.0,0
5892000,0.70711,9.185883e-05,-9.186885e-05,0.70711,0.0,0.0,0.0,0.0,0
5904000,0.70711,9.186301e-05,-9.18512e-05,0.70711,0.0,0.0,0.0,0.0,0
5916000,0.70711,9.184536e-05,-9.1855385e-05,0.70711,0.0,0.0,0.0,0.0,0
5928000,0.70711,9.184954e-05,-9.183773e-05,0.70711,0.0,0.0,0.0,0.0,0
5940000,0.70711,9.183189e-05,-9.1841925e-05,0.70711,0.0,0.0,0.0,0.0,0
5952000,0.70711,9.183608e-05,-9.1824266e-05,0.70711,0.0,0.0,0.0,0.0,0
5964000,0.70711,9.181842e-05,-9.182846e-05,0.70711,0.0,0.0,0.0,0.0,0
5976000,0.70711,9.1822614e-05,-9.18108e-05,0.70711,0.0,0.0,0.0,0.0,0
5988000,0.70711,9.180496e-05,-9.181499e-05,0.70711,0.0,0.0,0.0,0.0,0
6000000,0.70711,9.180915e-05,-9.179734e-05,0.70711,0.0,0.0,0.0,0.0,0
6012000,0.70711,9.1791495e-05,-9.180152e-05,0.70711,0.0,0.0,0.0,0.0,0
6024000,0.70711,9.179568e-05,-9.178387e-05,0.70711,0.0,0.0,0.0,0.0,0
6036000,0.70711,9.177803e-05,-9.178805e-05,0.70711,0.0,0.0,0.0,0.0,0
6048000,0.70711,9.178221e-05,-9.17704e-05,0.70711,0.0,0.0,0.0,0.0,0
6056000,0.70711,9.177772e-05,-9.176591e-05,0.70711,0.0,0.0,0.0,0.0,0
6072000,0.70711,9.176875e-05,-9.1756934e-05,0.70711,0.0,0.0,0.0,0.0,0
6084000,0.70711,9.175109e-05,-9.1761125e-05,0.70711,0.0,0.0,0.0,0.0,0
6096000,0.70711,9.175528e-05,-9.1743466e-05,0.70711,0.0,0.0,0.0,0.0,0
6108000,0.70711,9.1737624e-05,-9.174766e-05,0.70711,0.0,0.0,0.0,0.0,0
6120000,0.70711,9.1741815e-05,-9.1730006e-05,0.70711,0.0,0.0,0.0,0.0,0
6132000,0.70711,9.172416e-05,-9.173419e-05,0.70711,0.0,0.0,0.0,0.0,0
6144000,0.70711,9.172835e-05,-9.171654e-05,0.70711,0.0,0.0,0.0,0.0,0
6156000,0.70711,9.1710695e-05,-9.172072e-05,0.70711,0.0,0.0,0.0,0.0,0
6168000,0.70711,9.171488e-05,-9.170307e-05,0.70711,0.0,0.0,0.0,0.0,0
6180000,0.70711,9.169723e-05,-9.1707254e-05,0.70711,0.0,0.0,0.0,0.0,0
6192000,0.70711,9.170142e-05,-9.16896e-05,0.70711,0.0,0.0,0.0,0.0,0
6204000,0.70711,9.168376e-05,-9.169379e-05,0.70711,0.0,0.0,0.0,0.0,0
6216000,0.70711,9.168795e-05,-9.1676135e-05,0.70711,0.0,0.0,0.0,0.0,0
6228000,0.70711,9.167029e-05,-9.1680326e-05,0.70711,0.0,0.0,0.0,0.0,0
6240000,0.70711,9.167448e-05,-9.1662674e-05,0.70711,0.0,0.0,0.0,0.0,0
6252000,0.70711,9.165683e-05,-9.166686e-05,0.70711,0.0,0.0,0.0,0.0,0
6264000,0.70711,9.1661015e-05,-9.1649206e-05,0.70711,0.0,0.0,0.0,0.0,0
6276000,0.70711,9.1643364e-05,-9.165339e-05,0.70711,0.0,0.0,0.0,0.0,0
6288000,0.70711,9.164755e-05,-9.163574e-05,0.70711,0.0,0.0,0.0,0.0,0
6300000,0.70711,9.1629896e-05,-9.163992e-05,0.70711,0.0,0.0,0.0,0.0,0
6312000,0.70711,9.163408e-05,-9.162227e-05,0.70711,0.0,0.0,0.0,0.0,0
6324000,0.70711,9.161643e-05,-9.162646e-05,0.70711,0.0,0.0,0.0,0.0,0
6336000,0.70711,9.162062e-05,-9.16088e-05,0.70711,0.0,0.0,0.0,0.0,0
6348000,0.70711,9.160296e-05,-9.1612994e-05,0.70711,0.0,0.0,0.0,0.0,0
6360000,0.70711,9.160715e-05,-9.1595335e-05,0.70711,0.0,0.0,0.0,0.0,0
6372000,0.70711,9.15895e-05,-9.1599526e-05,0.70711,0.0,0.0,0.0,0.0,0
6383999,0.70711,9.159368e-05,-9.1581875e-05,0.70711,0.0,0.0,0.0,0.0,0
6396000,0.70711,9.157603e-05,-9.158606e-05,0.70711,0.0,0.0,0.0,0.0,0
6408000,0.70711,9.1580216e-05,-9.156841e-05,0.70711,0.0,0.0,0.0,0.0,0
6420000,0.70711,9.1562564e-05,-9.157259e-05,0.70711,0.0,0.0,0.0,0.0,0
6431999,0.70711,9.156675e-05,-9.155494e-05,0.70711,0.0,0.0,0.0,0.0,0
6444000,0.70711,9.15491e-05,-9.155912e-05,0.70711,0.0,0.0,0.0,0.0,0
6456000,0.70711,9.155329e-05,-9.154147e-05,0.70711,0.0,0.0,0.0,0.0,0
6468000,0.70711,9.153563e-05,-9.154566e-05,0.70711,0.0,0.0,0.0,0.0,0
6479999,0.70711,9.153982e-05,-9.1528e-05,0.70711,0.0,0.0,0.0,0.0,0
6492000,0.70711,9.152216e-05,-9.1532194e-05,0.70711,0.0,0.0,0.0,0.0,0
6504000,0.70711,9.152635e-05,-9.151454e-05,0.70711,0.0,0.0,0.0,0.0,0
6516000,0.70711,9.15087e-05,-9.151873e-05,0.70711,0.0,0.0,0.0,0.0,0
6527999,0.70711,9.1512884e-05,-9.1501075e-05,0.70711,0.0,0.0,0.0,0.0,0
6540000,0.70711,9.149523e-05,-9.150526e-05,0.70711,0.0,0.0,0.0,0.0,0
6552000,0.70711,9.1499416e-05,-9.148761e-05,0.70711,0.0,0.0,0.0,0.0,0
6564000,0.70711,9.1481765e-05,-9.149179e-05,0.70711,0.0,0.0,0.0,0.0,0
6575999,0.70711,9.1485956e-05,-9.147414e-05,0.70711,0.0,0.0,0.0,0.0,0
6588000,0.70711,9.14683e-05,-9.147833e-05,0.70711,0.0,0.0,0.0,0.0,0
6600000,0.70711,9.147249e-05,-9.146067e-05,0.70711,0.0,0.0,0.0,0.0,0
6612000,0.70711,9.145483e-05,-9.146486e-05,0.70711,0.0,0.0,0.0,0.0,0
6623999,0.70711,9.145902e-05,-9.1447204e-05,0.70711,0.0,0.0,0.0,0.0,0
6636000,0.70711,9.144137e-05,-9.1451395e-05,0.70711,0.0,0.0,0.0,0.0,0
6648000,0.70711,9.144555e-05,-9.143374e-05,0.70711,0.0,0.0,0.0,0.0,0
6660000,0.70711,9.14279e-05,-9.143793e-05,0.70711,0.0,0.0,0.0,0.0,0
6671999,0.70711,9.1432084e-05,-9.1420276e-05,0.70711,0.0,0.0,0.0,0.0,0
6684000,0.70711,9.141443e-05,-9.142446e-05,0.70711,0.0,0.0,0.0,0.0,0
6696000,0.70711,9.141862e-05,-9.140681e-05,0.70711,0.0,0.0,0.0,0.0,0
6708000,0.70711,9.1400965e-05,-9.1411e-05,0.70711,0.0,0.0,0.0,0.0,0
6719999,0.70711,9.1405156e-05,-9.139334e-05,0.70711,0.0,0.0,0.0,0.0,0
6732000,0.70711,9.13875e-05,-9.139753e-05,0.70711,0.0,0.0,0.0,0.0,0
6744000,0.70711,9.139169e-05,-9.137987e-05,0.70711,0.0,0.0,0.0,0.0,0
6756000,0.70711,9.137404e-05,-9.138406e-05,0.70711,0.0,0.0,0.0,0.0,0
6768000,0.70711,9.137822e-05,-9.136641e-05,0.70711,0.0,0.0,0.0,0.0,0
6780000,0.70711,9.136057e-05,-9.1370595e-05,0.70711,0.0,0.0,0.0,0.0,0
6792000,0.70711,9.136475e-05,-9.1352944e-05,0.70711,0.0,0.0,0.0,0.0,0
6804000,0.70711,9.13471e-05,-9.135713e-05,0.70711,0.0,0.0,0.0,0.0,0
6816000,0.70711,9.1351285e-05,-9.1339476e-05,0.70711,0.0,0.0,0.0,0.0,0
6828000,0.70711,9.133363e-05,-9.134366e-05,0.70711,0.0,0.0,0.0,0.0,0
6840000,0.70711,9.1337824e-05,-9.132601e-05,0.70711,0.0,0.0,0.0,0.0,0
6852000,0.70711,9.1320166e-05,-9.13302e-05,0.70711,0.0,0.0,0.0,0.0,0
6864000,0.70711,9.132436e-05,-9.131254e-05,0.70711,0.0,0.0,0.0,0.0,0
6876000,0.70711,9.13067e-05,-9.131673e-05,0.70711,0.0,0.0,0.0,0.0,0
6888000,0.70711,9.131089e-05,-9.129908e-05,0.70711,0.0,0.0,0.0,0.0,0
6900000,0.70711,9.129324e-05,-9.130326e-05,0.70711,0.0,0.0,0.0,0.0,0
6912000,0.70711,9.129742e-05,-9.128561e-05,0.70711,0.0,0.0,0.0,0.0,0
6924000,0.70711,9.127977e-05,-9.1289796e-05,0.70711,0.0,0.0,0.0,0.0,0
6936000,0.70711,9.128395e-05,-9.1272144e-05,0.70711,0.0,0.0,0.0,0.0,0
6948000,0.70711,9.12663e-05,-9.127633e-05,0.70711,0.0,0.0,0.0,0.0,0
6960000,0.70711,9.1270485e-05,-9.125868e-05,0.70711,0.0,0.0,0.0,0.0,0
6972000,0.70711,9.1252834e-05,-9.126287e-05,0.70711,0.0,0.0,0.0,0.0,0
6984000,0.70711,9.1257025e-05,-9.124521e-05,0.70711,0.0,0.0,0.0,0.0,0
6996000,0.70711,9.1239366e-05,-9.12494e-05,0.70711,0.0,0.0,0.0,0.0,0
7008000,0.70711,9.124356e-05,-9.123174e-05,0.70711,0.0,0.0,0.0,0.0,0
7020000,0.70711,9.1225906e-05,-9.123593e-05,0.70711,0.0,0.0,0.0,0.0,0
7032000,0.70711,9.123009e-05,-9.121828e-05,0.70711,0.0,0.0,0.0,0.0,0
7044000,0.70711,9.121244e-05,-9.1222464e-05,0.70711,0.0,0.0,0.0,0.0,0
7056000,0.70711,9.121662e-05,-9.120481e-05,0.70711,0.0,0.0,0.0,0.0,0
7064000,0.70711,9.121213e-05,-9.120032e-05,0.70711,0.0,0.0,0.0,0.0,0
7080000,0.70711,9.1203154e-05,-9.1191345e-05,0.70711,0.0,0.0,0.0,0.0,0
7092000,0.70711,9.11855e-05,-9.1195536e-05,0.70711,0.0,0.0,0.0,0.0,0
7104000,0.70711,9.118969e-05,-9.117788e-05,0.70711,0.0,0.0,0.0,0.0,0
7116000,0.70711,9.1172034e-05,-9.118207e-05,0.70711,0.0,0.0,0.0,0.0,0
7128000,0.70711,9.1176225e-05,-9.116441e-05,0.70711,0.0,0.0,0.0,0.0,0
7140000,0.70711,9.1158574e-05,-9.11686e-05,0.70711,0.0,0.0,0.0,0.0,0
7152000,0.70711,9.116276e-05,-9.115095e-05,0.70711,0.0,0.0,0.0,0.0,0
7164000,0.70711,9.1145106e-05,-9.115513e-05,0.70711,0.0,0.0,0.0,0.0,0
7176000,0.70711,9.114929e-05,-9.113748e-05,0.70711,0.0,0.0,0.0,0.0,0
7188000,0.70711,9.113164e-05,-9.1141665e-05,0.70711,0.0,0.0,0.0,0.0,0
7200000,0.70711,9.113582e-05,-9.112401e-05,0.70711,0.0,0.0,0.0,0.0,0
7212000,0.70711,9.111817e-05,-9.11282e-05,0.70711,0.0,0.0,0.0,0.0,0
7224000,0.70711,9.112236e-05,-9.1110545e-05,0.70711,0.0,0.0,0.0,0.0,0
7232000,0.70711,9.111787e-05,-9.1106056e-05,0.70711,0.0,0.0,0.0,0.0,0
7248000,0.70711,9.1108894e-05,-9.109708e-05,0.70711,0.0,0.0,0.0,0.0,0
7260000,0.70711,9.1091235e-05,-9.110127e-05,0.70711,0.0,0.0,0.0,0.0,0
7272000,0.70711,9.1095426e-05,-9.108362e-05,0.70711,0.0,0.0,0.0,0.0,0
7284000,0.70711,9.1077774e-05,-9.10878e-05,0.70711,0.0,0.0,0.0,0.0,0
7296000,0.70711,9.108196e-05,-9.107015e-05,0.70711,0.0,0.0,0.0,0.0,0
7308000,0.70711,9.106431e-05,-9.107433e-05,0.70711,0.0,0.0,0.0,0.0,0
7320000,0.70711,9.106849e-05,-9.105668e-05,0.70711,0.0,0.0,0.0,0.0,0
7332000,0.70711,9.105084e-05,-9.1060865e-05,0.70711,0.0,0.0,0.0,0.0,0
7344000,0.70711,9.105502e-05,-9.104321e-05,0.70711,0.0,0.0,0.0,0.0,0
7356000,0.70711,9.103737e-05,-9.1047405e-05,0.70711,0.0,0.0,0.0,0.0,0
7368000,0.70711,9.104156e-05,-9.1029746e-05,0.70711,0.0,0.0,0.0,0.0,0
7380000,0.70711,9.10239e-05,-9.103394e-05,0.70711,0.0,0.0,0.0,0.0,0
7392000,0.70711,9.1028094e-05,-9.101628e-05,0.70711,0.0,0.0,0.0,0.0,0
7404000,0.70711,9.101044e-05,-9.102047e-05,0.70711,0.0,0.0,0.0,0.0,0
7416000,0.70711,9.101463e-05,-9.100282e-05,0.70711,0.0,0.0,0.0,0.0,0
7428000,0.70711,9.0996975e-05,-9.1007e-05,0.70711,0.0,0.0,0.0,0.0,0
7440000,0.70711,9.100116e-05,-9.098935e-05,0.70711,0.0,0.0,0.0,0.0,0
7452000,0.70711,9.098351e-05,-9.099353e-05,0.70711,0.0,0.0,0.0,0.0,0
7464000,0.70711,9.098769e-05,-9.097588e-05,0.70711,0.0,0.0,0.0,0.0,0
7476000,0.70711,9.097004e-05,-9.098007e-05,0.70711,0.0,0.0,0.0,0.0,0
7488000,0.70711,9.097423e-05,-9.0962414e-05,0.70711,0.0,0.0,0.0,0.0,0
7500000,0.70711,9.095657e-05,-9.0966605e-05,0.70711,0.0,0.0,0.0,0.0,0
7512000,0.70711,9.096076e-05,-9.0948946e-05,0.70711,0.0,0.0,0.0,0.0,0
7524000,0.70711,9.094311e-05,-9.095314e-05,0.70711,0.0,0.0,0.0,0.0,0
7536000,0.70711,9.0947295e-05,-9.0935486e-05,0.70711,0.0,0.0,0.0,0.0,0
7548000,0.70711,9.092964e-05,-9.093967e-05,0.70711,0.0,0.0,0.0,0.0,0
7560000,0.70711,9.093383e-05,-9.092202e-05,0.70711,0.0,0.0,0.0,0.0,0
7572000,0.70711,9.0916175e-05,-9.09262e-05,0.70711,0.0,0.0,0.0,0.0,0
7584000,0.70711,9.092036e-05,-9.090855e-05,0.70711,0.0,0.0,0.0,0.0,0
7596000,0.70711,9.090271e-05,-9.0912734e-05,0.70711,0.0,0.0,0.0,0.0,0
7608000,0.70711,9.09069e-05,-9.089508e-05,0.70711,0.0,0.0,0.0,0.0,0
7620000,0.70711,9.088924e-05,-9.089927e-05,0.70711,0.0,0.0,0.0,0.0,0
7632000,0.70711,9.089343e-05,-9.0881615e-05,0.70711,0.0,0.0,0.0,0.0,0
7644000,0.70711,9.087577e-05,-9.0885806e-05,0.70711,0.0,0.0,0.0,0.0,0
7656000,0.70711,9.087996e-05,-9.0868154e-05,0.70711,0.0,0.0,0.0,0.0,0
7668000,0.70711,9.086231e-05,-9.087234e-05,0.70711,0.0,0.0,0.0,0.0,0
7680000,0.70711,9.0866495e-05,-9.0854686e-05,0.70711,0.0,0.0,0.0,0.0,0
7692000,0.70711,9.0848844e-05,-9.085887e-05,0.70711,0.0,0.0,0.0,0.0,0
7704000,0.70711,9.085303e-05,-9.084122e-05,0.70711,0.0,0.0,0.0,0.0,0
7716000,0.70711,9.0835376e-05,-9.08454e-05,0.70711,0.0,0.0,0.0,0.0,0
7728000,0.70711,9.083956e-05,-9.082775e-05,0.70711,0.0,0.0,0.0,0.0,0
7740000,0.70711,9.082191e-05,-9.083194e-05,0.70711,0.0,0.0,0.0,0.0,0
7752000,0.70711,9.08261e-05,-9.081428e-05,0.70711,0.0,0.0,0.0,0.0,0
7764000,0.70711,9.080844e-05,-9.0818474e-05,0.70711,0.0,0.0,0.0,0.0,0
7776000,0.70711,9.081263e-05,-9.0800815e-05,0.70711,0.0,0.0,0.0,0.0,0
7788000,0.70711,9.079498e-05,-9.0805006e-05,0.70711,0.0,0.0,0.0,0.0,0
7796000,0.70711,9.079049e-05,-9.080052e-05,0.70711,0.0,0.0,0.0,0.0,0
7812000,0.70711,9.078151e-05,-9.079154e-05,0.70711,0.0,0.0,0.0,0.0,0
7824000,0.70711,9.0785696e-05,-9.077389e-05,0.70711,0.0,0.0,0.0,0.0,0
7836000,0.70711,9.0768044e-05,-9.077807e-05,0.70711,0.0,0.0,0.0,0.0,0
7848000,0.70711,9.077223e-05,-9.076042e-05,0.70711,0.0,0.0,0.0,0.0,0
7860000,0.70711,9.075458e-05,-9.076461e-05,0.70711,0.0,0.0,0.0,0.0,0
7872000,0.70711,9.075877e-05,-9.074695e-05,0.70711,0.0,0.0,0.0,0.0,0
7884000,0.70711,9.074111e-05,-9.075114e-05,0.70711,0.0,0.0,0.0,0.0,0
7896000,0.70711,9.07453e-05,-9.073348e-05,0.70711,0.0,0.0,0.0,0.0,0
7908000,0.70711,9.072765e-05,-9.0737674e-05,0.70711,0.0,0.0,0.0,0.0,0
7920000,0.70711,9.073183e-05,-9.072002e-05,0.70711,0.0,0.0,0.0,0.0,0
7932000,0.70711,9.071418e-05,-9.072421e-05,0.70711,0.0,0.0,0.0,0.0,0
7944000,0.70711,9.0718364e-05,-9.0706555e-05,0.70711,0.0,0.0,0.0,0.0,0
7956000,0.70711,9.070071e-05,-9.071074e-05,0.70711,0.0,0.0,0.0,0.0,0
7968000,0.70711,9.0704896e-05,-9.069309e-05,0.70711,0.0,0.0,0.0,0.0,0
7980000,0.70711,9.0687245e-05,-9.069727e-05,0.70711,0.0,0.0,0.0,0.0,0
7992000,0.70711,9.0691436e-05,-9.067962e-05,0.70711,0.0,0.0,0.0,0.0,0
8004000,0.70711,9.067378e-05,-9.068381e-05,0.70711,0.0,0.0,0.0,0.0,0
8016000,0.70711,9.067797e-05,-9.066615e-05,0.70711,0.0,0.0,0.0,0.0,0
8028000,0.70711,9.066031e-05,-9.067034e-05,0.70711,0.0,0.0,0.0,0.0,0
8040000,0.70711,9.06645e-05,-9.065269e-05,0.70711,0.0,0.0,0.0,0.0,0
8052000,0.70711,9.064685e-05,-9.0656875e-05,0.70711,0.0,0.0,0.0,0.0,0
8064000,0.70711,9.065103e-05,-9.063922e-05,0.70711,0.0,0.0,0.0,0.0,0
8076000,0.70711,9.063338e-05,-9.064341e-05,0.70711,0.0,0.0,0.0,0.0,0
8088000,0.70711,9.0637564e-05,-9.0625756e-05,0.70711,0.0,0.0,0.0,0.0,0
8100000,0.70711,9.061991e-05,-9.062994e-05,0.70711,0.0,0.0,0.0,0.0,0
8112000,0.70711,9.0624104e-05,-9.061229e-05,0.70711,0.0,0.0,0.0,0.0,0
8124000,0.70711,9.0606445e-05,-9.061648e-05,0.70711,0.0,0.0,0.0,0.0,0
8136000,0.70711,9.0610636e-05,-9.059882e-05,0.70711,0.0,0.0,0.0,0.0,0
8148000,0.70711,9.059298e-05,-9.060301e-05,0.70711,0.0,0.0,0.0,0.0,0
8160000,0.70711,9.059717e-05,-9.058536e-05,0.70711,0.0,0.0,0.0,0.0,0
8172000,0.70711,9.057952e-05,-9.058954e-05,0.70711,0.0,0.0,0.0,0.0,0
8184000,0.70711,9.05837e-05,-9.057189e-05,0.70711,0.0,0.0,0.0,0.0,0
8196000,0.70711,9.056605e-05,-9.0576075e-05,0.70711,0.0,0.0,0.0,0.0,0
8208000,0.70711,9.057023e-05,-9.0558424e-05,0.70711,0.0,0.0,0.0,0.0,0
8220000,0.70711,9.055258e-05,-9.056261e-05,0.70711,0.0,0.0,0.0,0.0,0
8232000,0.70711,9.0556765e-05,-9.0544956e-05,0.70711,0.0,0.0,0.0,0.0,0
8244000,0.70711,9.053911e-05,-9.054915e-05,0.70711,0.0,0.0,0.0,0.0,0
8256000,0.70711,9.0543304e-05,-9.053149e-05,0.70711,0.0,0.0,0.0,0.0,0
8268000,0.70711,9.0525646e-05,-9.053568e-05,0.70711,0.0,0.0,0.0,0.0,0
8280000,0.70711,9.052984e-05,-9.051802e-05,0.70711,0.0,0.0,0.0,0.0,0
8292000,0.70711,9.0512185e-05,-9.052221e-05,0.70711,0.0,0.0,0.0,0.0,0
8304000,0.70711,9.051637e-05,-9.050456e-05,0.70711,0.0,0.0,0.0,0.0,0
8316000,0.70711,9.049872e-05,-9.050874e-05,0.70711,0.0,0.0,0.0,0.0,0
8328000,0.70711,9.05029e-05,-9.049109e-05,0.70711,0.0,0.0,0.0,0.0,0
8340000,0.70711,9.048525e-05,-9.0495276e-05,0.70711,0.0,0.0,0.0,0.0,0
8352000,0.70711,9.048943e-05,-9.0477624e-05,0.70711,0.0,0.0,0.0,0.0,0
8364000,0.70711,9.047178e-05,-9.0481815e-05,0.70711,0.0,0.0,0.0,0.0,0
8376000,0.70711,9.047597e-05,-9.046416e-05,0.70711,0.0,0.0,0.0,0.0,0
8388000,0.70711,9.0458314e-05,-9.046835e-05,0.70711,0.0,0.0,0.0,0.0,0
8400000,0.70711,9.0462505e-05,-9.045069e-05,0.70711,0.0,0.0,0.0,0.0,0
8412000,0.70711,9.044485e-05,-9.045488e-05,0.70711,0.0,0.0,0.0,0.0,0
8424000,0.70711,9.044904e-05,-9.043723e-05,0.70711,0.0,0.0,0.0,0.0,0
8436000,0.70711,9.0431386e-05,-9.044141e-05,0.70711,0.0,0.0,0.0,0.0,0
8448000,0.70711,9.043557e-05,-9.042376e-05,0.70711,0.0,0.0,0.0,0.0,0
8460000,0.70711,9.041792e-05,-9.0427944e-05,0.70711,0.0,0.0,0.0,0.0,0
8472000,0.70711,9.04221e-05,-9.041029e-05,0.70711,0.0,0.0,0.0,0.0,0
8484000,0.70711,9.040445e-05,-9.0414476e-05,0.70711,0.0,0.0,0.0,0.0,0
8496000,0.70711,9.040864e-05,-9.0396825e-05,0.70711,0.0,0.0,0.0,0.0,0
8508000,0.70711,9.039098e-05,-9.0401016e-05,0.70711,0.0,0.0,0.0,0.0,0
8520000,0.70711,9.039517e-05,-9.038336e-05,0.70711,0.0,0.0,0.0,0.0,0
8532000,0.70711,9.0377514e-05,-9.038755e-05,0.70711,0.0,0.0,0.0,0.0,0
8544000,0.70711,9.0381705e-05,-9.03699e-05,0.70711,0.0,0.0,0.0,0.0,0
8556000,0.70711,9.0364054e-05,-9.037408e-05,0.70711,0.0,0.0,0.0,0.0,0
8568000,0.70711,9.036824e-05,-9.035643e-05,0.70711,0.0,0.0,0.0,0.0,0
8580000,0.70711,9.0350586e-05,-9.036061e-05,0.70711,0.0,0.0,0.0,0.0,0
8592000,0.70711,9.035477e-05,-9.034296e-05,0.70711,0.0,0.0,0.0,0.0,0
8604000,0.70711,9.033712e-05,-9.0347145e-05,0.70711,0.0,0.0,0.0,0.0,0
8616000,0.70711,9.034131e-05,-9.032949e-05,0.70711,0.0,0.0,0.0,0.0,0
8628000,0.70711,9.032365e-05,-9.0333684e-05,0.70711,0.0,0.0,0.0,0.0,0
8640000,0.70711,9.032784e-05,-9.0316025e-05,0.70711,0.0,0.0,0.0,0.0,0
8652000,0.70711,9.031018e-05,-9.0320216e-05,0.70711,0.0,0.0,0.0,0.0,0
8664000,0.70711,9.0314374e-05,-9.0302565e-05,0.70711,0.0,0.0,0.0,0.0,0
8676000,0.70711,9.029672e-05,-9.030675e-05,0.70711,0.0,0.0,0.0,0.0,0
8688000,0.70711,9.0300906e-05,-9.02891e-05,0.70711,0.0,0.0,0.0,0.0,0
8700000,0.70711,9.0283254e-05,-9.029328e-05,0.70711,0.0,0.0,0.0,0.0,0
8712000,0.70711,9.028744e-05,-9.027563e-05,0.70711,0.0,0.0,0.0,0.0,0
8724000,0.70711,9.026979e-05,-9.027981e-05,0.70711,0.0,0.0,0.0,0.0,0
8736000,0.70711,9.027397e-05,-9.026216e-05,0.70711,0.0,0.0,0.0,0.0,0
8748000,0.70711,9.025632e-05,-9.026635e-05,0.70711,0.0,0.0,0.0,0.0,0
8760000,0.70711,9.026051e-05,-9.024869e-05,0.70711,0.0,0.0,0.0,0.0,0
8772000,0.70711,9.024285e-05,-9.0252885e-05,0.70711,0.0,0.0,0.0,0.0,0
8784000,0.70711,9.024704e-05,-9.0235226e-05,0.70711,0.0,0.0,0.0,0.0,0
8796000,0.70711,9.022939e-05,-9.023942e-05,0.70711,0.0,0.0,0.0,0.0,0
8808000,0.70711,9.0233574e-05,-9.0221765e-05,0.70711,0.0,0.0,0.0,0.0,0
8820000,0.70711,9.021592e-05,-9.022595e-05,0.70711,0.0,0.0,0.0,0.0,0
8832000,0.70711,9.0220106e-05,-9.02083e-05,0.70711,0.0,0.0,0.0,0.0,0
8844000,0.70711,9.0202455e-05,-9.021248e-05,0.70711,0.0,0.0,0.0,0.0,0
8856000,0.70711,9.020664e-05,-9.019483e-05,0.70711,0.0,0.0,0.0,0.0,0
8868000,0.70711,9.018899e-05,-9.019902e-05,0.70711,0.0,0.0,0.0,0.0,0
8880000,0.70711,9.019318e-05,-9.018136e-05,0.70711,0.0,0.0,0.0,0.0,0
8892000,0.70711,9.017552e-05,-9.018555e-05,0.70711,0.0,0.0,0.0,0.0,0
8904000,0.70711,9.017971e-05,-9.0167894e-05,0.70711,0.0,0.0,0.0,0.0,0
8916000,0.70711,9.016206e-05,-9.0172085e-05,0.70711,0.0,0.0,0.0,0.0,0
8928000,0.70711,9.016624e-05,-9.015443e-05,0.70711,0.0,0.0,0.0,0.0,0
8940000,0.70711,9.014859e-05,-9.015862e-05,0.70711,0.0,0.0,0.0,0.0,0
8952000,0.70711,9.0152775e-05,-9.0140966e-05,0.70711,0.0,0.0,0.0,0.0,0
8964000,0.70711,9.013512e-05,-9.014515e-05,0.70711,0.0,0.0,0.0,0.0,0
8976000,0.70711,9.013931e-05,-9.01275e-05,0.70711,0.0,0.0,0.0,0.0,0
8988000,0.70711,9.0121655e-05,-9.013168e-05,0.70711,0.0,0.0,0.0,0.0,0
9000000,0.70711,9.0125846e-05,-9.011403e-05,0.70711,0.0,0.0,0.0,0.0,0
9012000,0.70711,9.010819e-05,-9.011822e-05,0.70711,0.0,0.0,0.0,0.0,0
9024000,0.70711,9.011238e-05,-9.010056e-05,0.70711,0.0,0.0,0.0,0.0,0
9036000,0.70711,9.009472e-05,-9.010475e-05,0.70711,0.0,0.0,0.0,0.0,0
9048000,0.70711,9.009891e-05,-9.00871e-05,0.70711,0.0,0.0,0.0,0.0,0
9060000,0.70711,9.008126e-05,-9.0091286e-05,0.70711,0.0,0.0,0.0,0.0,0
9072000,0.70711,9.008544e-05,-9.0073634e-05,0.70711,0.0,0.0,0.0,0.0,0
9084000,0.70711,9.006779e-05,-9.007782e-05,0.70711,0.0,0.0,0.0,0.0,0
9096000,0.70711,9.0071975e-05,-9.0060166e-05,0.70711,0.0,0.0,0.0,0.0,0
9108000,0.70711,9.0054324e-05,-9.006435e-05,0.70711,0.0,0.0,0.0,0.0,0
9120000,0.70711,9.0058515e-05,-9.00467e-05,0.70711,0.0,0.0,0.0,0.0,0
9132000,0.70711,9.0040856e-05,-9.005089e-05,0.70711,0.0,0.0,0.0,0.0,0
9144000,0.70711,9.004505e-05,-9.003323e-05,0.70711,0.0,0.0,0.0,0.0,0
9156000,0.70711,9.002739e-05,-9.003742e-05,0.70711,0.0,0.0,0.0,0.0,0
9168000,0.70711,9.003158e-05,-9.001977e-05,0.70711,0.0,0.0,0.0,0.0,0
9180000,0.70711,9.001393e-05,-9.0023954e-05,0.70711,0.0,0.0,0.0,0.0,0
9192000,0.70711,9.001811e-05,-9.00063e-05,0.70711,0.0,0.0,0.0,0.0,0
9204000,0.70711,9.000046e-05,-9.0010486e-05,0.70711,0.0,0.0,0.0,0.0,0
9216000,0.70711,9.000464e-05,-8.9992835e-05,0.70711,0.0,0.0,0.0,0.0,0
9228000,0.70711,8.998699e-05,-8.999702e-05,0.70711,0.0,0.0,0.0,0.0,0
9240000,0.70711,8.9991176e-05,-8.997937e-05,0.70711,0.0,0.0,0.0,0.0,0
9252000,0.70711,8.9973524e-05,-8.998356e-05,0.70711,0.0,0.0,0.0,0.0,0
9264000,0.70711,8.9977715e-05,-8.99659e-05,0.70711,0.0,0.0,0.0,0.0,0
9276000,0.70711,8.9960056e-05,-8.997009e-05,0.70711,0.0,0.0,0.0,0.0,0
9288000,0.70711,8.996425e-05,-8.995243e-05,0.70711,0.0,0.0,0.0,0.0,0
9300000,0.70711,8.9946596e-05,-8.995662e-05,0.70711,0.0,0.0,0.0,0.0,0
9312000,0.70711,8.995078e-05,-8.993897e-05,0.70711,0.0,0.0,0.0,0.0,0
9324000,0.70711,8.993313e-05,-8.9943154e-05,0.70711,0.0,0.0,0.0,0.0,0
9336000,0.70711,8.993731e-05,-8.99255e-05,0.70711,0.0,0.0,0.0,0.0,0
9348000,0.70711,8.991966e-05,-8.992969e-05,0.70711,0.0,0.0,0.0,0.0,0
9360000,0.70711,8.9923844e-05,-8.9912035e-05,0.70711,0.0,0.0,0.0,0.0,0
9372000,0.70711,8.990619e-05,-8.9916226e-05,0.70711,0.0,0.0,0.0,0.0,0
9384000,0.70711,8.991038e-05,-8.989857e-05,0.70711,0.0,0.0,0.0,0.0,0
9396000,0.70711,8.9892725e-05,-8.990276e-05,0.70711,0.0,0.0,0.0,0.0,0
9408000,0.70711,8.9896916e-05,-8.98851e-05,0.70711,0.0,0.0,0.0,0.0,0
9420000,0.70711,8.9879264e-05,-8.988929e-05,0.70711,0.0,0.0,0.0,0.0,0
9432000,0.70711,8.988345e-05,-8.987164e-05,0.70711,0.0,0.0,0.0,0.0,0
9444000,0.70711,8.9865796e-05,-8.987582e-05,0.70711,0.0,0.0,0.0,0.0,0
9456000,0.70711,8.986998e-05,-8.985817e-05,0.70711,0.0,0.0,0.0,0.0,0
9468000,0.70711,8.985233e-05,-8.9862355e-05,0.70711,0.0,0.0,0.0,0.0,0
9480000,0.70711,8.985651e-05,-8.98447e-05,0.70711,0.0,0.0,0.0,0.0,0
9492000,0.70711,8.983886e-05,-8.9848894e-05,0.70711,0.0,0.0,0.0,0.0,0
9504000,0.70711,8.984305e-05,-8.9831236e-05,0.70711,0.0,0.0,0.0,0.0,0
9516000,0.70711,8.982539e-05,-8.983543e-05,0.70711,0.0,0.0,0.0,0.0,0
9528000,0.70711,8.9829584e-05,-8.981777e-05,0.70711,0.0,0.0,0.0,0.0,0
9540000,0.70711,8.981193e-05,-8.982196e-05,0.70711,0.0,0.0,0.0,0.0,0
9552000,0.70711,8.9816116e-05,-8.980431e-05,0.70711,0.0,0.0,0.0,0.0,0
9564000,0.70711,8.9798465e-05,-8.980849e-05,0.70711,0.0,0.0,0.0,0.0,0
9576000,0.70711,8.980265e-05,-8.979084e-05,0.70711,0.0,0.0,0.0,0.0,0
9588000,0.70711,8.9785e-05,-8.979502e-05,0.70711,0.0,0.0,0.0,0.0,0
9600000,0.70711,8.978918e-05,-8.977737e-05,0.70711,0.0,0.0,0.0,0.0,0
9612000,0.70711,8.977153e-05,-8.9781555e-05,0.70711,0.0,0.0,0.0,0.0,0
9624000,0.70711,8.977572e-05,-8.9763904e-05,0.70711,0.0,0.0,0.0,0.0,0
9636000,0.70711,8.975806e-05,-8.9768095e-05,0.70711,0.0,0.0,0.0,0.0,0
9648000,0.70711,8.976225e-05,-8.9750436e-05,0.70711,0.0,0.0,0.0,0.0,0
9660000,0.70711,8.974459e-05,-8.975463e-05,0.70711,0.0,0.0,0.0,0.0,0
9672000,0.70711,8.9748784e-05,-8.9736975e-05,0.70711,0.0,0.0,0.0,0.0,0
9684000,0.70711,8.973113e-05,-8.974116e-05,0.70711,0.0,0.0,0.0,0.0,0
9696000,0.70711,8.973532e-05,-8.972351e-05,0.70711,0.0,0.0,0.0,0.0,0
9708000,0.70711,8.9717665e-05,-8.972769e-05,0.70711,0.0,0.0,0.0,0.0,0
9720000,0.70711,8.972185e-05,-8.971004e-05,0.70711,0.0,0.0,0.0,0.0,0
9732000,0.70711,8.97042e-05,-8.971422e-05,0.70711,0.0,0.0,0.0,0.0,0
9744000,0.70711,8.970839e-05,-8.969657e-05,0.70711,0.0,0.0,0.0,0.0,0
9756000,0.70711,8.969073e-05,-8.970076e-05,0.70711,0.0,0.0,0.0,0.0,0
9768000,0.70711,8.969492e-05,-8.9683104e-05,0.70711,0.0,0.0,0.0,0.0,0
9780000,0.70711,8.967726e-05,-8.9687295e-05,0.70711,0.0,0.0,0.0,0.0,0
9792000,0.70711,8.968145e-05,-8.9669644e-05,0.70711,0.0,0.0,0.0,0.0,0
9804000,0.70711,8.96638e-05,-8.967383e-05,0.70711,0.0,0.0,0.0,0.0,0
9816000,0.70711,8.9667985e-05,-8.9656176e-05,0.70711,0.0,0.0,0.0,0.0,0
9828000,0.70711,8.965033e-05,-8.966036e-05,0.70711,0.0,0.0,0.0,0.0,0
9840000,0.70711,8.965452e-05,-8.964271e-05,0.70711,0.0,0.0,0.0,0.0,0
9852000,0.70711,8.9636866e-05,-8.964689e-05,0.70711,0.0,0.0,0.0,0.0,0
9864000,0.70711,8.964106e-05,-8.962924e-05,0.70711,0.0,0.0,0.0,0.0,0
9876000,0.70711,8.96234e-05,-8.963343e-05,0.70711,0.0,0.0,0.0,0.0,0
9888000,0.70711,8.962759e-05,-8.961577e-05,0.70711,0.0,0.0,0.0,0.0,0
9900000,0.70711,8.960993e-05,-8.961996e-05,0.70711,0.0,0.0,0.0,0.0,0
9912000,0.70711,8.961412e-05,-8.960231e-05,0.70711,0.0,0.0,0.0,0.0,0
9924000,0.70711,8.959647e-05,-8.9606496e-05,0.70711,0.0,0.0,0.0,0.0,0
9936000,0.70711,8.960065e-05,-8.9588844e-05,0.70711,0.0,0.0,0.0,0.0,0
9948000,0.70711,8.9583e-05,-8.959303e-05,0.70711,0.0,0.0,0.0,0.0,0
9960000,0.70711,8.9587185e-05,-8.957538e-05,0.70711,0.0,0.0,0.0,0.0,0
9972000,0.70711,8.9569534e-05,-8.957956e-05,0.70711,0.0,0.0,0.0,0.0,0
9984000,0.70711,8.957372e-05,-8.956191e-05,0.70711,0.0,0.0,0.0,0.0,0
9996000,0.70711,8.9556066e-05,-8.95661e-05,0.70711,0.0,0.0,0.0,0.0,0
10008000,0.70711,8.956026e-05,-8.954844e-05,0.70711,0.0,0.0,0.0,0.0,0
10020000,0.70711,8.95426e-05,-8.955263e-05,0.70711,0.0,0.0,0.0,0.0,0
10032000,0.70711,8.954679e-05,-8.953497e-05,0.70711,0.0,0.0,0.0,0.0,0
10044000,0.70711,8.952914e-05,-8.9539164e-05,0.70711,0.0,0.0,0.0,0.0,0
10056000,0.70711,8.953332e-05,-8.952151e-05,0.70711,0.0,0.0,0.0,0.0,0
10068000,0.70711,8.951567e-05,-8.9525696e-05,0.70711,0.0,0.0,0.0,0.0,0
10080000,0.70711,8.9519854e-05,-8.9508045e-05,0.70711,0.0,0.0,0.0,0.0,0
10092000,0.70711,8.95022e-05,-8.951223e-05,0.70711,0.0,0.0,0.0,0.0,0
10104000,0.70711,8.9506386e-05,-8.949458e-05,0.70711,0.0,0.0,0.0,0.0,0
10116000,0.70711,8.9488734e-05,-8.949877e-05,0.70711,0.0,0.0,0.0,0.0,0
10128000,0.70711,8.9492925e-05,-8.948111e-05,0.70711,0.0,0.0,0.0,0.0,0
10140000,0.70711,8.947527e-05,-8.94853e-05,0.70711,0.0,0.0,0.0,0.0,0
10152000,0.70711,8.947946e-05,-8.946764e-05,0.70711,0.0,0.0,0.0,0.0,0
10164000,0.70711,8.9461806e-05,-8.947183e-05,0.70711,0.0,0.0,0.0,0.0,0
10176000,0.70711,8.946599e-05,-8.945418e-05,0.70711,0.0,0.0,0.0,0.0,0
10188000,0.70711,8.944834e-05,-8.9458365e-05,0.70711,0.0,0.0,0.0,0.0,0
10200000,0.70711,8.945252e-05,-8.944071e-05,0.70711,0.0,0.0,0.0,0.0,0
10212000,0.70711,8.943487e-05,-8.94449e-05,0.70711,0.0,0.0,0.0,0.0,0
10224000,0.70711,8.9439054e-05,-8.9427245e-05,0.70711,0.0,0.0,0.0,0.0,0
10236000,0.70711,8.94214e-05,-8.9431436e-05,0.70711,0.0,0.0,0.0,0.0,0
10248000,0.70711,8.942559e-05,-8.941378e-05,0.70711,0.0,0.0,0.0,0.0,0
10260000,0.70711,8.9407935e-05,-8.941797e-05,0.70711,0.0,0.0,0.0,0.0,0
10272000,0.70711,8.9412126e-05,-8.940031e-05,0.70711,0.0,0.0,0.0,0.0,0
10284000,0.70711,8.9394474e-05,-8.94045e-05,0.70711,0.0,0.0,0.0,0.0,0
10296000,0.70711,8.939866e-05,-8.938685e-05,0.70711,0.0,0.0,0.0,0.0,0
10308000,0.70711,8.938101e-05,-8.939103e-05,0.70711,0.0,0.0,0.0,0.0,0
10320000,0.70711,8.938519e-05,-8.937338e-05,0.70711,0.0,0.0,0.0,0.0,0
10332000,0.70711,8.936754e-05,-8.9377565e-05,0.70711,0.0,0.0,0.0,0.0,0
10344000,0.70711,8.937172e-05,-8.935991e-05,0.70711,0.0,0.0,0.0,0.0,0
10356000,0.70711,8.935407e-05,-8.93641e-05,0.70711,0.0,0.0,0.0,0.0,0
10368000,0.70711,8.935826e-05,-8.9346446e-05,0.70711,0.0,0.0,0.0,0.0,0
10380000,0.70711,8.93406e-05,-8.935064e-05,0.70711,0.0,0.0,0.0,0.0,0
10392000,0.70711,8.9344794e-05,-8.933298e-05,0.70711,0.0,0.0,0.0,0.0,0
10404000,0.70711,8.932714e-05,-8.933717e-05,0.70711,0.0,0.0,0.0,0.0,0
10416000,0.70711,8.9331326e-05,-8.931952e-05,0.70711,0.0,0.0,0.0,0.0,0
10428000,0.70711,8.9313675e-05,-8.93237e-05,0.70711,0.0,0.0,0.0,0.0,0
10440000,0.70711,8.931786e-05,-8.930605e-05,0.70711,0.0,0.0,0.0,0.0,0
10452000,0.70711,8.930021e-05,-8.931023e-05,0.70711,0.0,0.0,0.0,0.0,0
10464000,0.70711,8.930439e-05,-8.929258e-05,0.70711,0.0,0.0,0.0,0.0,0
10476000,0.70711,8.928674e-05,-8.9296766e-05,0.70711,0.0,0.0,0.0,0.0,0
10488000,0.70711,8.929093e-05,-8.9279114e-05,0.70711,0.0,0.0,0.0,0.0,0
10500000,0.70711,8.927327e-05,-8.9283305e-05,0.70711,0.0,0.0,0.0,0.0,0
10512000,0.70711,8.927746e-05,-8.9265646e-05,0.70711,0.0,0.0,0.0,0.0,0
10524000,0.70711,8.9259804e-05,-8.926984e-05,0.70711,0.0,0.0,0.0,0.0,0
