timestamp,ref_timestamp,ref_lat,ref_lon,x,y,z,delta_xy[0],delta_xy[1],delta_z,vx,vy,vz,z_deriv,delta_vxy[0],delta_vxy[1],delta_vz,ax,ay,az,yaw,ref_alt,dist_bottom,eph,epv,evh,evv,vxy_max,vz_max,hagl_min,hagl_max,xy_valid,z_valid,v_xy_valid,v_z_valid,xy_reset_counter,z_reset_counter,vxy_reset_counter,vz_reset_counter,xy_global,z_global,dist_bottom_valid
636000,0,0.0,0.0,-4.3980403e-06,1.3511751e-06,-6.8826387e-07,-2.0489163e-06,7.104236e-07,0.0,-0.00071166415,0.00015987457,-0.00031068167,-0.00031313713,-0.00051222905,0.00017760589,0.0,-0.055759735,-0.003107183,-0.07160659,1.615852,0.0,0.1,0.70622146,2.0000088,7.071068,0.7500069,inf,inf,inf,inf,1,1,1,1,1,0,1,1,0,0,1
732000,0,0.0,0.0,0.00012522233,9.864751e-05,-0.011847372,-2.0489163e-06,7.104236e-07,0.0,0.0047997106,0.0027834242,-0.014264229,-0.025217358,-0.00051222905,0.00017760589,0.0,0.037456844,0.03856819,-0.16994959,1.6164415,0.0,0.1,0.3029146,0.57834935,5.009932,0.74978685,inf,inf,inf,inf,1,1,1,1,1,0,1,1,0,0,1
836000,792000,47.3977419,8.545594,0.0009200961,0.00039974102,-0.014585433,-2.0489163e-06,7.104236e-07,0.0,0.010089948,0.0038584312,-0.035089325,-0.045853563,-0.00051222905,0.00017760589,0.0,0.06142178,0.060083065,-0.14105904,1.6212643,488.1152,0.1,0.26254493,0.40644574,2.296556,0.74675846,inf,inf,inf,inf,1,1,1,1,1,0,1,1,1,1,1
932000,792000,47.3977419,8.545594,0.002092839,0.00096589193,-0.02028825,-2.0489163e-06,7.104236e-07,0.0,0.014152408,0.008187947,-0.05501365,-0.066063404,-0.00051222905,0.00017760589,0.0,0.05631204,0.050380807,-0.14517735,1.6215103,488.1152,0.108182184,0.22438966,0.3456023,1.331561,0.7385223,inf,inf,inf,inf,1,1,1,1,1,0,1,1,1,1,1
1036000,792000,47.3977419,8.545594,0.0035924818,0.0020268639,-0.021242373,-2.0489163e-06,7.104236e-07,0.0,0.01799524,0.013223037,-0.06955807,-0.07337609,-0.00051222905,0.00017760589,0.0,0.026554959,0.028932668,-0.17762277,1.6211652,488.1152,0.11933623,0.19576788,0.31608817,0.8601084,0.7213346,inf,inf,inf,inf,1,1,1,1,1,0,1,1,1,1,1
1132000,792000,47.3977419,8.545594,0.0050006537,0.0032822064,-0.02637113,-2.0489163e-06,7.104236e-07,0.0,0.020221703,0.015110389,-0.08259681,-0.08351011,-0.00051222905,0.00017760589,0.0,0.04319909,-0.008261762,-0.19675305,1.6199824,488.1152,0.114951134,0.17691362,0.30525863,0.62887245,0.6970151,inf,inf,inf,inf,1,1,1,1,1,0,1,1,1,1,1
1236000,792000,47.3977419,8.545594,0.006590433,0.0047502574,-0.03592165,-2.0489163e-06,7.104236e-07,0.0,0.022916026,0.019293917,-0.10105663,-0.10148377,-0.00051222905,0.00017760589,0.0,-0.0029160436,0.047894396,-0.13096629,1.6185539,488.1152,0.11712338,0.16159046,0.30197698,0.4795954,0.6623595,inf,inf,inf,inf,1,1,1,1,1,0,1,1,1,1,1
1332000,792000,47.3977419,8.545594,0.007849082,0.006294203,-0.045430012,-2.0489163e-06,7.104236e-07,0.0,0.023465453,0.0230553,-0.11610546,-0.11507875,-0.00051222905,0.00017760589,0.0,0.042761892,0.0204464,-0.10331719,1.617925,488.1152,0.12009404,0.15061721,0.30190006,0.39260045,0.62477654,inf,inf,inf,inf,1,1,1,1,1,0,1,1,1,1,1
1436000,792000,47.3977419,8.545594,0.0092399,0.00824654,-0.057176787,-2.0489163e-06,7.104236e-07,0.0,0.027565258,0.02969032,-0.1293506,-0.12687625,-0.00051222905,0.00017760589,0.0,0.018235354,0.055979367,-0.13648158,1.6176575,488.1152,0.124861255,0.14118983,0.30207488,0.33139804,0.5809963,inf,inf,inf,inf,1,1,1,1,1,0,1,1,1,1,1
1532000,792000,47.3977419,8.545594,0.010466148,0.010273458,-0.06756151,-2.0489163e-06,7.104236e-07,0.0,0.028268425,0.03436154,-0.13802491,-0.13287869,-0.00051222905,0.00017760589,0.0,0.0399118,0.04038229,-0.1174882,1.6179186,488.1152,0.13295992,0.13424231,0.30130935,0.29509413,0.5403305,inf,inf,inf,inf,1,1,1,1,1,0,1,1,1,1,1
1636000,792000,47.3977419,8.545594,0.011816647,0.012646045,-0.07481942,-2.0489163e-06,7.104236e-07,0.0,0.030753277,0.03938692,-0.14304179,-0.13089041,-0.00051222905,0.00017760589,0.0,0.08579291,0.03263756,-0.22860895,1.6186332,488.1152,0.14432788,0.1282676,0.29914737,0.270853,0.49822637,inf,inf,inf,inf,1,1,1,1,1,0,1,1,1,1,1
1732000,792000,47.3977419,8.545594,0.013057006,0.015012793,-0.07891064,-2.0489163e-06,7.104236e-07,0.0,0.033238627,0.043492533,-0.14577715,-0.1255579,-0.00051222905,0.00017760589,0.0,-0.009196752,0.0801941,-0.11919345,1.6193353,488.1152,0.14366183,0.12398682,0.29605448,0.25833756,0.4624603,inf,inf,inf,inf,1,1,1,1,1,0,1,1,1,1,1
1836000,792000,47.3977419,8.545594,0.014382707,0.017651225,-0.08280511,-2.0489163e-06,7.104236e-07,0.0,0.035590876,0.048707906,-0.14608392,-0.118087985,-0.00051222905,0.00017760589,0.0,0.059175216,0.062597275,-0.14453007,1.6199058,488.1152,0.14680383,0.12053264,0.29183292,0.25214803,0.42783272,inf,inf,inf,inf,1,1,1,1,1,0,1,1,1,1,1
1932000,792000,47.3977419,8.545594,0.015606152,0.020182747,-0.08713386,-2.0489163e-06,7.104236e-07,0.0,0.03652937,0.05344747,-0.1475793,-0.11433053,-0.00051222905,0.00017760589,0.0,0.07151303,0.07595664,-0.03439467,1.6205443,488.1152,0.1494235,0.11831924,0.28743222,0.25085783,0.39990535,inf,inf,inf,inf,1,1,1,1,1,0,1,1,1,1,1
2036000,792000,47.3977419,8.545594,0.016977957,0.023024028,-0.088636525,-2.0489163e-06,7.104236e-07,0.0,0.040101666,0.05934887,-0.14876997,-0.1074829,-0.00051222905,0.00017760589,0.0,0.082056575,0.1296139,-0.16620195,1.6213996,488.1152,0.15335602,0.116838045,0.2824052,0.25216812,0.3739625,inf,inf,inf,inf,1,1,1,1,1,0,1,1,1,1,1
2132000,792000,47.3977419,8.545594,0.018192254,0.025674235,-0.08782283,-2.0489163e-06,7.104236e-07,0.0,0.040348414,0.062236506,-0.14759153,-0.09766533,-0.00051222905,0.00017760589,0.0,0.035557296,0.09794624,-0.14381017,1.6220711,488.1152,0.15871307,0.11616964,0.277726,0.25444272,0.3537687,inf,inf,inf,inf,1,1,1,1,1,0,1,1,1,1,1
2236000,792000,47.3977419,8.545594,0.0193066,0.028281374,-0.08677105,-2.0489163e-06,7.104236e-07,0.0,0.041843943,0.064648956,-0.14599356,-0.08814615,-0.00051222905,0.00017760589,0.0,0.07470986,0.14688048,-0.19079353,1.6224296,488.1152,0.15547982,0.116013706,0.27277952,0.25690737,0.33560646,inf,inf,inf,inf,1,1,1,1,1,0,1,1,1,1,1
2332000,792000,47.3977419,8.545594,0.020093154,0.030468106,-0.086170785,-2.0489163e-06,7.104236e-07,0.0,0.04010225,0.067877114,-0.14596725,-0.08222007,-0.00051222905,0.00017760589,0.0,0.05820316,0.094874844,-0.06876233,1.6229922,488.1152,0.15026018,0.11621344,0.26843172,0.25840953,0.32191044,inf,inf,inf,inf,1,1,1,1,1,0,1,1,1,1,1
2432000,792000,47.3977419,8.545594,0.020759799,0.032837193,-0.08874687,-2.0489163e-06,7.104236e-07,0.0,0.040483132,0.0726371,-0.14870016,-0.082286835,-0.00051222905,0.00017760589,0.0,0.06431773,0.10232095,-0.1205901,1.6232948,488.1152,0.14312273,0.11657557,0.2643627,0.25880417,0.31080407,inf,inf,inf,inf,1,1,1,1,1,0,1,1,1,1,1
2536000,792000,47.3977419,8.545594,0.02098566,0.03478948,-0.09297239,-2.0489163e-06,7.104236e-07,0.0,0.03989009,0.075632446,-0.15396218,-0.08639892,-0.00051222905,0.00017760589,0.0,0.07730293,0.09775393,-0.1493077,1.6235464,488.1152,0.14310618,0.11774482,0.26123118,0.25816393,0.3012564,inf,inf,inf,inf,1,1,1,1,1,0,1,1,1,1,1
2632000,792000,47.3977419,8.545594,0.020886702,0.036340702,-0.095271766,-2.0489163e-06,7.104236e-07,0.0,0.038513403,0.07637473,-0.15638885,-0.08570279,-0.00051222905,0.00017760589,0.0,-0.0023341707,0.045057993,-0.18290709,1.6240294,488.1152,0.1452496,0.11778628,0.25764918,0.25550765,0.294278,inf,inf,inf,inf,1,1,1,1,1,0,1,1,1,1,1
2736000,792000,47.3977419,8.545594,0.020576192,0.037591167,-0.098311976,-2.0489163e-06,7.104236e-07,0.0,0.03877604,0.0785812,-0.15862085,-0.08505761,-0.00051222905,0.00017760589,0.0,0.07341035,0.1559605,-0.15419255,1.6249292,488.1152,0.14511009,0.11773879,0.25422603,0.2516242,0.28855175,inf,inf,inf,inf,1,1,1,1,1,0,1,1,1,1,1
2832000,792000,47.3977419,8.545594,0.020201227,0.038423076,-0.1004105,-2.0489163e-06,7.104236e-07,0.0,0.038705893,0.07823522,-0.15955928,-0.08259265,-0.00051222905,0.00017760589,0.0,0.0305204,0.1334841,-0.0050403173,1.6255876,488.1152,0.14620313,0.11757039,0.25148067,0.24734522,0.2846326,inf,inf,inf,inf,1,1,1,1,1,0,1,1,1,1,1
2936000,792000,47.3977419,8.545594,0.019685546,0.038909048,-0.103264496,-2.0489163e-06,7.104236e-07,0.0,0.036756966,0.077561714,-0.15982004,-0.08004625,-0.00051222905,0.00017760589,0.0,0.064901724,0.09223181,-0.19138305,1.6262707,488.1152,0.14644158,0.117241204,0.24893832,0.2421966,0.28153974,inf,inf,inf,inf,1,1,1,1,1,0,1,1,1,1,1
3032000,792000,47.3977419,8.545594,0.018931704,0.03892698,-0.106190845,-2.0489163e-06,7.104236e-07,0.0,0.034125082,0.07569182,-0.1629617,-0.08096057,-0.00051222905,0.00017760589,0.0,0.009753173,0.0036614654,-0.14102179,1.626878,488.1152,0.1405823,0.11681124,0.24696769,0.23718424,0.27948615,inf,inf,inf,inf,1,1,1,1,1,0,1,1,1,1,1
3136000,792000,47.3977419,8.545594,0.017818328,0.03877203,-0.11160397,-2.0489163e-06,7.104236e-07,0.0,0.029863236,0.07725725,-0.16580005,-0.0834474,-0.00051222905,0.00017760589,0.0,-0.05751714,0.10881305,-0.07872655,1.6276724,488.1152,0.14040104,0.116231166,0.24520887,0.23175502,0.2778724,inf,inf,inf,inf,1,1,1,1,1,0,1,1,1,1,1
3232000,792000,47.3977419,8.545594,0.016626013,0.038567476,-0.11571014,-2.0489163e-06,7.104236e-07,0.0,0.028250167,0.076850474,-0.16892609,-0.08491329,-0.00051222905,0.00017760589,0.0,0.014219068,0.12158174,-0.02033822,1.6282078,488.1152,0.14250085,0.11561844,0.24389905,0.2268754,0.2767472,inf,inf,inf,inf,1,1,1,1,1,0,1,1,1,1,1
3336000,792000,47.3977419,8.545594,0.015270044,0.038213752,-0.11973105,-2.0489163e-06,7.104236e-07,0.0,0.025458563,0.07526212,-0.1696686,-0.08329221,-0.00051222905,0.00017760589,0.0,-0.017719967,0.083510846,-0.0034114344,1.6289667,488.1152,0.14443597,0.11490013,0.2427782,0.22183962,0.27573356,inf,inf,inf,inf,1,1,1,1,1,0,1,1,1,1,1
3432000,792000,47.3977419,8.545594,0.013691646,0.037739225,-0.12385408,-2.0489163e-06,7.104236e-07,0.0,0.020540345,0.07374536,-0.17131776,-0.08343138,-0.00051222905,0.00017760589,0.0,0.051700506,0.06684457,-0.118338495,1.6296574,488.1152,0.14150219,0.114213675,0.24197847,0.21758427,0.27484635,inf,inf,inf,inf,1,1,1,1,1,0,1,1,1,1,1
3536000,792000,47.3977419,8.545594,0.011763848,0.037101313,-0.12803382,-2.0489163e-06,7.104236e-07,0.0,0.015675258,0.07161121,-0.17143765,-0.08155492,-0.00051222905,0.00017760589,0.0,0.00270523,0.1464721,-0.13575795,1.630385,488.1152,0.14506298,0.11346838,0.24132009,0.21335013,0.27380988,inf,inf,inf,inf,1,1,1,1,1,0,1,1,1,1,1
3632000,792000,47.3977419,8.545594,0.009966587,0.036451723,-0.13092671,-2.0489163e-06,7.104236e-07,0.0,0.013844927,0.073010646,-0.17286052,-0.08026083,-0.00051222905,0.00017760589,0.0,0.00302463,0.09269622,-0.099748366,1.6310086,488.1152,0.14662656,0.11279646,0.24086252,0.20991006,0.27269536,inf,inf,inf,inf,1,1,1,1,1,0,1,1,1,1,1
3736000,792000,47.3977419,8.545594,0.008085711,0.03590539,-0.13368268,-2.0489163e-06,7.104236e-07,0.0,0.011531184,0.07261016,-0.17017001,-0.07478229,-0.00051222905,0.00017760589,0.0,-0.036426585,0.1818441,-0.11068023,1.6314853,488.1152,0.1437813,0.11210292,0.24048425,0.20663522,0.2712433,inf,inf,inf,inf,1,1,1,1,1,0,1,1,1,1,1
3832000,792000,47.3977419,8.545594,0.0064713955,0.035413913,-0.13524328,-2.0489163e-06,7.104236e-07,0.0,0.010151063,0.071673356,-0.16759819,-0.06914635,-0.00051222905,0.00017760589,0.0,0.012158444,0.0026675696,-0.109056935,1.63175,488.1152,0.1484604,0.11150625,0.24020544,0.20397821,0.26963297,inf,inf,inf,inf,1,1,1,1,1,0,1,1,1,1,1
3936000,792000,47.3977419,8.545594,0.0049330858,0.034936752,-0.13498604,-2.0489163e-06,7.104236e-07,0.0,0.008395234,0.07156001,-0.16368236,-0.060741268,-0.00051222905,0.00017760589,0.0,-0.02437827,0.08772598,-0.07351953,1.6322281,488.1152,0.14667979,0.1109106,0.23994115,0.20142944,0.26756525,inf,inf,inf,inf,1,1,1,1,1,0,1,1,1,1,1
4032000,792000,47.3977419,8.545594,0.0037567879,0.03454463,-0.13349992,-2.0489163e-06,7.104236e-07,0.0,0.008506783,0.0710823,-0.15912424,-0.051753774,-0.00051222905,0.00017760589,0.0,0.0017405981,0.004000088,-0.11947378,1.6325668,488.1152,0.15077011,0.11041187,0.23970178,0.19945234,0.26534748,inf,inf,inf,inf,1,1,1,1,1,0,1,1,1,1,1
4136000,792000,47.3977419,8.545594,0.0025795056,0.03421652,-0.13221489,-2.0489163e-06,7.104236e-07,0.0,0.0055983,0.07046345,-0.15439436,-0.043818608,-0.00051222905,0.00017760589,0.0,0.018120902,0.07789669,-0.099373974,1.6329994,488.1152,0.14462945,0.1099276,0.23941895,0.1975482,0.2626122,inf,inf,inf,inf,1,1,1,1,1,0,1,1,1,1,1
4232000,792000,47.3977419,8.545594,0.0016340658,0.033824816,-0.13065778,-2.0489163e-06,7.104236e-07,0.0,0.0061863656,0.06891821,-0.14969571,-0.036515366,-0.00051222905,0.00017760589,0.0,0.032819457,0.048842803,-0.04201475,1.6332612,488.1152,0.14229633,0.1095298,0.23911555,0.19597773,0.25979254,inf,inf,inf,inf,1,1,1,1,1,0,1,1,1,1,1
4336000,792000,47.3977419,8.545594,0.0008383321,0.033334363,-0.12800793,-2.0489163e-06,7.104236e-07,0.0,0.005351505,0.066738605,-0.14180946,-0.025867645,-0.00051222905,0.00017760589,0.0,-0.06390275,0.033985008,-0.097627744,1.6331209,488.1152,0.14344564,0.1091469,0.23872334,0.19443065,0.25644118,inf,inf,inf,inf,1,1,1,1,1,0,1,1,1,1,1
4432000,792000,47.3977419,8.545594,0.00013696411,0.032488834,-0.12455308,-2.0489163e-06,7.104236e-07,0.0,0.0027205804,0.061226644,-0.13632227,-0.017650342,-0.00051222905,0.00017760589,0.0,0.0175069,0.021937156,-0.10539218,1.6334026,488.1152,0.14176178,0.10883163,0.23829132,0.19302891,0.25309986,inf,inf,inf,inf,1,1,1,1,1,0,1,1,1,1,1
4536000,792000,47.3977419,8.545594,-0.0004946447,0.03118688,-0.12141261,-2.0489163e-06,7.104236e-07,0.0,0.0033753905,0.058051407,-0.12880524,-0.008868639,-0.00051222905,0.00017760589,0.0,0.020850055,0.02339779,-0.102791,1.633614,488.1152,0.1379574,0.108520456,0.23773937,0.19159597,0.24924389,inf,inf,inf,inf,1,1,1,1,1,0,1,1,1,1,1
4632000,792000,47.3977419,8.545594,-0.0010188554,0.029822173,-0.1175894,-2.0489163e-06,7.104236e-07,0.0,0.0010995058,0.055808388,-0.12157828,-0.00030399044,-0.00051222905,0.00017760589,0.0,0.017960627,0.0154940635,-0.006092712,1.633655,488.1152,0.1380848,0.10825763,0.23714861,0.19026023,0.24549855,inf,inf,inf,inf,1,1,1,1,1,0,1,1,1,1,1
4736000,792000,47.3977419,8.545594,-0.0015374535,0.028237242,-0.113011755,-2.0489163e-06,7.104236e-07,0.0,0.00017252445,0.053894382,-0.11547793,0.00686623,-0.00051222905,0.00017760589,0.0,-0.021720363,0.06319015,-0.087671906,1.6337639,488.1152,0.13300416,0.107987545,0.23641972,0.18872556,0.24127564,inf,inf,inf,inf,1,1,1,1,1,0,1,1,1,1,1
4832000,792000,47.3977419,8.545594,-0.0021447665,0.026632193,-0.10775943,-2.0489163e-06,7.104236e-07,0.0,-0.0030283693,0.049893938,-0.10819534,0.015578639,-0.00051222905,0.00017760589,0.0,-0.047201607,-0.027025029,0.0007664784,1.6338866,488.1152,0.13337186,0.10774436,0.23566641,0.18728177,0.23725587,inf,inf,inf,inf,1,1,1,1,1,0,1,1,1,1,1
4936000,792000,47.3977419,8.545594,-0.00293981,0.024834434,-0.10147851,-2.0489163e-06,7.104236e-07,0.0,-0.0048469533,0.048328336,-0.09677345,0.027909875,-0.00051222905,0.00017760589,0.0,-0.09315651,0.016901758,0.023873521,1.6338792,488.1152,0.12526876,0.10748276,0.23476689,0.18566297,0.23280287,inf,inf,inf,inf,1,1,1,1,1,0,1,1,1,1,1
5040000,792000,47.3977419,8.545594,0.0,0.0,-0.09611906,-2.0489163e-06,7.104236e-07,0.0,-0.009267301,0.0443683,-0.091602065,0.032175373,-0.00051222905,0.00017760589,0.0,-0.041350093,0.035262637,-0.09477324,1.6338128,488.1152,0.12359071,0.10721568,0.23378621,0.18382943,0.2282797,inf,inf,inf,inf,0,1,0,1,1,0,1,1,1,1,1
5136000,792000,47.3977419,8.545594,0.0,0.0,-0.09083107,-2.0489163e-06,7.104236e-07,0.0,-0.011849009,0.042739373,-0.08423797,0.038758453,-0.00051222905,0.00017760589,0.0,-0.0022172024,0.09066902,0.016449949,1.6336232,488.1152,0.121330515,0.10695462,0.23281474,0.18205933,0.22406861,inf,inf,inf,inf,0,1,0,1,1,0,1,1,1,1,1
5232000,792000,47.3977419,8.545594,0.0,0.0,-0.08649279,-2.0489163e-06,7.104236e-07,0.0,-0.015621739,0.040669516,-0.07823399,0.042543795,-0.00051222905,0.00017760589,0.0,-0.014930409,-0.031388596,-0.0072354446,1.6333203,488.1152,0.11443919,0.1066801,0.2317857,0.180267,0.21984476,inf,inf,inf,inf,0,1,0,1,1,0,1,1,1,1,1
5336000,792000,47.3977419,8.545594,0.004031809,0.014033887,-0.08095263,0.011807763,-0.003991564,0.0,0.00015854614,-0.000967756,-0.03938131,0.04650411,0.018587714,-0.039994493,0.0343713,-0.029161192,0.10327208,-0.029566696,1.6329007,488.1152,0.11932922,1.0,0.23061298,0.31622776,0.23717082,inf,inf,inf,inf,1,1,1,1,2,0,2,2,1,1,1
5432000,792000,47.3977419,8.545594,0.004626306,0.008842784,-0.07052432,0.011807763,-0.003991564,0.0,-0.0020711008,-0.0026064336,-0.034371424,0.06322351,0.018587714,-0.039994493,0.0343713,-0.031125773,0.049570397,-0.02412591,1.6325129,488.1152,0.114219666,1.0004613,0.21541792,0.31695107,0.23740359,inf,inf,inf,inf,1,1,1,1,2,0,2,2,1,1,1
5536000,792000,47.3977419,8.545594,0.005632894,0.0034726316,-0.059437606,0.011807763,-0.003991564,0.0,-0.002889569,-0.0014154981,-0.028034948,0.0767655,0.018587714,-0.039994493,0.0343713,-0.052212603,0.013235257,0.046044584,1.6324105,488.1152,0.11012803,0.81740445,0.20433128,0.29044223,0.2262931,inf,inf,inf,inf,1,1,1,1,2,0,2,2,1,1,1
5632000,792000,47.3977419,8.545594,0.0065936004,-0.00058032316,-0.05034479,0.011807763,-0.003991564,0.0,-0.0020593202,-0.00011344586,-0.02470454,0.08329662,0.018587714,-0.039994493,0.0343713,0.01857661,0.020757899,0.062431205,1.6321194,488.1152,0.10342762,0.8191927,0.19828138,0.29306024,0.2257723,inf,inf,inf,inf,1,1,1,1,2,0,2,2,1,1,1
5736000,792000,47.3977419,8.545594,0.0075038807,-0.0031666078,-0.042208586,0.011807763,-0.003991564,0.0,-0.003045017,0.0019355316,-0.021512942,0.08676362,0.018587714,-0.039994493,0.0343713,0.0129541,0.065558806,-0.06404518,1.6314403,488.1152,0.1,0.8222255,0.19496642,0.2971999,0.22438906,inf,inf,inf,inf,1,1,1,1,2,0,2,2,1,1,1
5832000,792000,47.3977419,8.545594,0.007944541,-0.004605292,-0.036396954,0.011807763,-0.003991564,0.0,-0.0035750049,0.0047163605,-0.019737918,0.08662249,0.018587714,-0.039994493,0.0343713,-0.06464112,-0.02480077,-0.00693649,1.6312128,488.1152,0.1,0.7131463,0.19213271,0.27833262,0.21315284,inf,inf,inf,inf,1,1,1,1,2,0,2,2,1,1,1
5936000,792000,47.3977419,8.545594,0.0082527315,-0.0048569473,-0.030646766,0.011807763,-0.003991564,0.0,-0.0063599413,0.007333775,-0.018478632,0.08501333,0.018587714,-0.039994493,0.0343713,-0.045598146,-0.04746622,0.019297002,1.6312051,488.1152,0.1,0.7174618,0.19239931,0.28514153,0.21030615,inf,inf,inf,inf,1,1,1,1,2,0,2,2,1,1,1
6040000,792000,47.3977419,8.545594,0.006751933,-0.0046551507,-0.026258593,0.011807763,-0.003991564,0.0,-0.008491012,0.011796192,-0.01699725,0.08229681,0.018587714,-0.039994493,0.0343713,0.055524822,0.053363092,-0.0037141142,1.6311623,488.1152,0.1,0.6431661,0.1911296,0.2716676,0.19922368,inf,inf,inf,inf,1,1,1,1,2,0,2,2,1,1,1
6136000,792000,47.3977419,8.545594,0.0055707805,-0.0034385761,-0.023819832,0.011807763,-0.003991564,0.0,-0.009060751,0.01371615,-0.016491737,0.07749171,0.018587714,-0.039994493,0.0343713,-0.026394203,0.0481953,-0.0103805205,1.6310453,488.1152,0.1,0.64834124,0.19273685,0.28061754,0.19554181,inf,inf,inf,inf,1,1,1,1,2,0,2,2,1,1,1
6232000,792000,47.3977419,8.545594,0.0036574868,-0.0023311637,-0.020808177,0.011807763,-0.003991564,0.0,-0.010947462,0.01635856,-0.015806155,0.073945984,0.018587714,-0.039994493,0.0343713,-0.030326247,0.028406734,-0.005128793,1.6308243,488.1152,0.1,0.5927606,0.1916804,0.2694618,0.1854331,inf,inf,inf,inf,1,1,1,1,2,0,2,2,1,1,1
6336000,792000,47.3977419,8.545594,0.0014428069,-0.0004369603,-0.018076716,0.011807763,-0.003991564,0.0,-0.016303064,0.017758684,-0.017264947,0.067737274,0.018587714,-0.039994493,0.0343713,-0.058506932,0.10067746,0.018900258,1.6306379,488.1152,0.1,0.5995658,0.19367398,0.2818173,0.1808734,inf,inf,inf,inf,1,1,1,1,2,0,2,2,1,1,1
6431999,792000,47.3977419,8.545594,-0.00060405314,0.0010351213,-0.016338399,0.011807763,-0.003991564,0.0,-0.018053476,0.022686608,-0.014352835,0.06577439,0.018587714,-0.039994493,0.0343713,-0.06546337,0.07242161,-0.05883518,1.6304954,488.1152,0.1,0.5558557,0.1924942,0.27248767,0.17172724,inf,inf,inf,inf,1,1,1,1,2,0,2,2,1,1,1
6536000,792000,47.3977419,8.545594,-0.0026377833,0.003527048,-0.014924123,0.011807763,-0.003991564,0.0,-0.018564405,0.02629329,-0.011730258,0.06289283,0.018587714,-0.039994493,0.0343713,-0.11994577,0.0061380267,0.035756264,1.6303663,488.1152,0.1,0.5639827,0.19419678,0.28736085,0.16708463,inf,inf,inf,inf,1,1,1,1,2,0,2,2,1,1,1
6639999,792000,47.3977419,8.545594,-0.004326166,0.0058454224,-0.014248053,0.011807763,-0.003991564,0.0,-0.019721951,0.029071953,-0.010423839,0.058347072,0.018587714,-0.039994493,0.0343713,-0.009518852,0.05598561,-0.034001775,1.6303029,488.1152,0.1,0.5286348,0.19286276,0.27954838,0.15874946,inf,inf,inf,inf,1,1,1,1,2,0,2,2,1,1,1
6736000,792000,47.3977419,8.545594,-0.0060448195,0.008641807,-0.013921497,0.011807763,-0.003991564,0.0,-0.023678796,0.03321679,-0.010693309,0.052938815,0.018587714,-0.039994493,0.0343713,-0.051811118,0.0725149,-0.009230337,1.630449,488.1152,0.1,0.537468,0.19397154,0.29513964,0.15478761,inf,inf,inf,inf,1,1,1,1,2,0,2,2,1,1,1
6840000,792000,47.3977419,8.545594,-0.007588036,0.010822925,-0.013373063,0.011807763,-0.003991564,0.0,-0.025612839,0.03511134,-0.009606771,0.049342506,0.018587714,-0.039994493,0.0343713,0.013299839,0.019735627,0.062478703,1.6304457,488.1152,0.1,0.50752234,0.192368,0.2870013,0.14774975,inf,inf,inf,inf,1,1,1,1,2,0,2,2,1,1,1
6936000,792000,47.3977419,8.545594,-0.009230448,0.013470258,-0.013692453,0.011807763,-0.003991564,0.0,-0.028703198,0.039903734,-0.009940706,0.04421721,0.018587714,-0.039994493,0.0343713,-0.09315776,0.022239808,-0.03428198,1.6303885,488.1152,0.1,0.5176823,0.19302204,0.30406326,0.14440796,inf,inf,inf,inf,1,1,1,1,2,0,2,2,1,1,1
7040000,792000,47.3977419,8.545594,-0.01078762,0.015564439,-0.014573584,0.011807763,-0.003991564,0.0,-0.031197114,0.04114904,-0.011503504,0.03768315,0.018587714,-0.039994493,0.0343713,-0.061453126,0.060778253,-0.108204775,1.6302795,488.1152,0.1,0.4913254,0.19122341,0.29442567,0.13870263,inf,inf,inf,inf,1,1,1,1,2,0,2,2,1,1,1
7136000,792000,47.3977419,8.545594,-0.012380367,0.018022262,-0.015021709,0.011807763,-0.003991564,0.0,-0.033013508,0.04526341,-0.009681142,0.035805333,0.018587714,-0.039994493,0.0343713,0.017238736,0.043793928,-0.07950793,1.6302928,488.1152,0.1,0.50279135,0.19150428,0.31244105,0.13616216,inf,inf,inf,inf,1,1,1,1,2,0,2,2,1,1,1
7240000,792000,47.3977419,8.545594,-0.013491912,0.020057444,-0.015642978,0.011807763,-0.003991564,0.0,-0.033271644,0.046857323,-0.010191797,0.03153872,0.018587714,-0.039994493,0.0343713,-0.038988028,0.06299393,-0.056753863,1.6301297,488.1152,0.1,0.47899324,0.18960895,0.30119786,0.13176538,inf,inf,inf,inf,1,1,1,1,2,0,2,2,1,1,1
7336000,792000,47.3977419,8.545594,-0.014832742,0.022515357,-0.016080605,0.011807763,-0.003991564,0.0,-0.03584402,0.048887774,-0.013431675,0.025526874,0.018587714,-0.039994493,0.0343713,-0.041816033,0.13150944,-0.051460225,1.6298167,488.1152,0.1,0.4917225,0.18962722,0.31965604,0.13010475,inf,inf,inf,inf,1,1,1,1,2,0,2,2,1,1,1
7440000,792000,47.3977419,8.545594,-0.015700376,0.023276377,-0.0151568735,0.011807763,-0.003991564,0.0,-0.035365663,0.04827038,-0.0123999305,0.025338043,0.018587714,-0.039994493,0.0343713,-0.06536633,0.025508545,0.031067988,1.6295394,488.1152,0.1,0.4694712,0.18771723,0.3063006,0.12691063,inf,inf,inf,inf,1,1,1,1,2,0,2,2,1,1,1
7536000,792000,47.3977419,8.545594,-0.016733276,0.02391649,-0.01492455,0.011807763,-0.003991564,0.0,-0.037526526,0.047828835,-0.012328761,0.023716232,0.018587714,-0.039994493,0.0343713,-0.054266315,0.116245694,-0.024458392,1.6293597,488.1152,0.1,0.48333943,0.18758519,0.32496548,0.12612118,inf,inf,inf,inf,1,1,1,1,2,0,2,2,1,1,1
7640000,792000,47.3977419,8.545594,-0.017289018,0.023994869,-0.016339034,0.011807763,-0.003991564,0.0,-0.036672473,0.047276273,-0.011887409,0.020851374,0.018587714,-0.039994493,0.0343713,-0.09896047,0.07533899,-0.0072522084,1.6291691,488.1152,0.1,0.46222553,0.18573736,0.30989653,0.12398567,inf,inf,inf,inf,1,1,1,1,2,0,2,2,1,1,1
7736000,792000,47.3977419,8.545594,-0.017937422,0.024628174,-0.017817596,0.011807763,-0.003991564,0.0,-0.037007004,0.047304317,-0.012588031,0.017329557,0.018587714,-0.039994493,0.0343713,0.0016258272,0.0799862,0.06131548,1.6288319,488.1152,0.1,0.47710758,0.18555677,0.32838973,0.12399032,inf,inf,inf,inf,1,1,1,1,2,0,2,2,1,1,1
7840000,792000,47.3977419,8.545594,-0.018068707,0.023927154,-0.018876988,0.011807763,-0.003991564,0.0,-0.038360436,0.045728788,-0.012922377,0.014909739,0.018587714,-0.039994493,0.0343713,0.011369905,0.056723915,0.056545246,1.6285408,488.1152,0.1,0.45652962,0.18382365,0.311497,0.12271317,inf,inf,inf,inf,1,1,1,1,2,0,2,2,1,1,1
7936000,792000,47.3977419,8.545594,-0.018144632,0.023182759,-0.019357704,0.011807763,-0.003991564,0.0,-0.03750441,0.04563076,-0.012368312,0.014089123,0.018587714,-0.039994493,0.0343713,-0.113271914,0.05200962,-0.018677672,1.6281853,488.1152,0.1,0.47224277,0.18367979,0.32962045,0.12338667,inf,inf,inf,inf,1,1,1,1,2,0,2,2,1,1,1
8040000,792000,47.3977419,8.545594,-0.017514223,0.022233821,-0.020380214,0.011807763,-0.003991564,0.0,-0.03556828,0.04012875,-0.014042341,0.010724123,0.018587714,-0.039994493,0.0343713,-0.032752953,0.055050373,0.055473294,1.6278971,488.1152,0.1,0.45215932,0.18210614,0.31165951,0.122765414,inf,inf,inf,inf,1,1,1,1,2,0,2,2,1,1,1
8144000,792000,47.3977419,8.545594,-0.016988443,0.021705026,-0.020627359,0.011807763,-0.003991564,0.0,-0.03566447,0.038399026,-0.012950272,0.011088702,0.018587714,-0.039994493,0.0343713,-0.0016641569,0.038917813,0.09924638,1.6276692,488.1152,0.1,0.47002172,0.18206474,0.33083344,0.12406392,inf,inf,inf,inf,1,1,1,1,2,0,2,2,1,1,1
8240000,792000,47.3977419,8.545594,-0.016233062,0.021786332,-0.020008784,0.011807763,-0.003991564,0.0,-0.034252528,0.03855397,-0.0111789685,0.01292811,0.018587714,-0.039994493,0.0343713,0.0014419201,0.058672022,0.04460476,1.6272476,488.1152,0.1,0.44859686,0.18067187,0.31037053,0.123769246,inf,inf,inf,inf,1,1,1,1,2,0,2,2,1,1,1
8336000,792000,47.3977419,8.545594,-0.015385934,0.022538934,-0.019669438,0.011807763,-0.003991564,0.0,-0.03236072,0.03739289,-0.01229339,0.011526175,0.018587714,-0.039994493,0.0343713,-0.05301919,0.053686813,-0.04354212,1.6267601,488.1152,0.1,0.46551254,0.18078277,0.3273997,0.12532558,inf,inf,inf,inf,1,1,1,1,2,0,2,2,1,1,1
8440000,792000,47.3977419,8.545594,-0.01443665,0.022782728,-0.018746337,0.011807763,-0.003991564,0.0,-0.02993912,0.037521385,-0.014204945,0.009951413,0.018587714,-0.039994493,0.0343713,0.00619507,0.113140464,-0.116436735,1.6262077,488.1152,0.1,0.44582364,0.17958125,0.30815193,0.12538882,inf,inf,inf,inf,1,1,1,1,2,0,2,2,1,1,1
8536000,792000,47.3977419,8.545594,-0.013727045,0.022969032,-0.018765045,0.011807763,-0.003991564,0.0,-0.02953161,0.036133382,-0.01357393,0.010044893,0.018587714,-0.039994493,0.0343713,-0.072180055,0.028272958,-0.020618549,1.6257656,488.1152,0.1,0.46313715,0.17987111,0.32459322,0.127163,inf,inf,inf,inf,1,1,1,1,2,0,2,2,1,1,1
8640000,792000,47.3977419,8.545594,-0.012861317,0.022991166,-0.018834963,0.011807763,-0.003991564,0.0,-0.02881551,0.03420939,-0.011156965,0.011674156,0.018587714,-0.039994493,0.0343713,-0.024917796,-0.001537759,-0.0028833745,1.6254323,488.1152,0.1,0.44344732,0.17885058,0.3050294,0.12729725,inf,inf,inf,inf,1,1,1,1,2,0,2,2,1,1,1
8744000,792000,47.3977419,8.545594,-0.011892433,0.022990493,-0.018154295,0.011807763,-0.003991564,0.0,-0.028388105,0.033602573,-0.010999827,0.011816804,0.018587714,-0.039994493,0.0343713,-0.07466785,0.023685133,0.02562627,1.6249532,488.1152,0.1,0.4625752,0.17937152,0.32203248,0.12931415,inf,inf,inf,inf,1,1,1,1,2,0,2,2,1,1,1
8840000,792000,47.3977419,8.545594,-0.010832881,0.022770196,-0.018158229,0.011807763,-0.003991564,0.0,-0.024724482,0.035046924,-0.01035293,0.011727792,0.018587714,-0.039994493,0.0343713,-0.10062004,0.06817007,-0.05004089,1.624362,488.1152,0.1,0.4415662,0.17847371,0.3013533,0.12924218,inf,inf,inf,inf,1,1,1,1,2,0,2,2,1,1,1
8936000,792000,47.3977419,8.545594,-0.009470881,0.022450931,-0.019031737,0.011807763,-0.003991564,0.0,-0.022210594,0.034771834,-0.009732005,0.010680842,0.018587714,-0.039994493,0.0343713,-0.04548841,0.050226267,-0.013211741,1.623842,488.1152,0.1,0.45932174,0.17913088,0.31644675,0.13108711,inf,inf,inf,inf,1,1,1,1,2,0,2,2,1,1,1
9040000,792000,47.3977419,8.545594,-0.007861608,0.021884436,-0.019420959,0.011807763,-0.003991564,0.0,-0.019408673,0.03257094,-0.008980109,0.010304508,0.018587714,-0.039994493,0.0343713,0.013539654,-0.01824065,-0.012475996,1.6231766,488.1152,0.1,0.43986028,0.17840622,0.29713216,0.13100117,inf,inf,inf,inf,1,1,1,1,2,0,2,2,1,1,1
9136000,792000,47.3977419,8.545594,-0.005732169,0.02039082,-0.01951002,0.011807763,-0.003991564,0.0,-0.016374972,0.02968391,-0.008111358,0.010429645,0.018587714,-0.039994493,0.0343713,-0.06519851,0.022856386,0.01286622,1.6224453,488.1152,0.1,0.45769623,0.17922053,0.3115313,0.1327411,inf,inf,inf,inf,1,1,1,1,2,0,2,2,1,1,1
9240000,792000,47.3977419,8.545594,-0.0038308306,0.01882066,-0.019883353,0.011807763,-0.003991564,0.0,-0.013160296,0.026511028,-0.00752595,0.009902155,0.018587714,-0.039994493,0.0343713,-0.07981142,0.105547115,0.01689419,1.6219856,488.1152,0.1,0.4384821,0.17859444,0.2927768,0.13243201,inf,inf,inf,inf,1,1,1,1,2,0,2,2,1,1,1
9336000,792000,47.3977419,8.545594,-0.0022688343,0.017217383,-0.02050112,0.011807763,-0.003991564,0.0,-0.010764394,0.023342825,-0.006446423,0.009765298,0.018587714,-0.039994493,0.0343713,-0.0018110876,0.01403666,0.05496945,1.6213111,488.1152,0.1,0.45635107,0.17953339,0.30656877,0.13400249,inf,inf,inf,inf,1,1,1,1,2,0,2,2,1,1,1
9440000,792000,47.3977419,8.545594,-0.0008713368,0.015627386,-0.02059527,0.011807763,-0.003991564,0.0,-0.008111945,0.02180041,-0.006230933,0.00931505,0.018587714,-0.039994493,0.0343713,0.07084413,0.03811315,0.006875954,1.6208485,488.1152,0.1,0.43715912,0.17895947,0.288118,0.13341841,inf,inf,inf,inf,1,1,1,1,2,0,2,2,1,1,1
9536000,792000,47.3977419,8.545594,0.00049867225,0.013405615,-0.020017533,0.011807763,-0.003991564,0.0,-0.0056891744,0.020313356,-0.003996494,0.011570544,0.018587714,-0.039994493,0.0343713,0.040547427,0.040914774,-0.0020582227,1.6205891,488.1152,0.1,0.45499256,0.1799845,0.3013386,0.13477744,inf,inf,inf,inf,1,1,1,1,2,0,2,2,1,1,1
9640000,792000,47.3977419,8.545594,0.0015982576,0.011712755,-0.018757282,0.011807763,-0.003991564,0.0,-0.0032671674,0.018807748,-0.0010329293,0.014809961,0.018587714,-0.039994493,0.0343713,0.05997743,0.045709584,0.040072944,1.6203848,488.1152,0.1,0.43606997,0.17943199,0.28356522,0.13391818,inf,inf,inf,inf,1,1,1,1,2,0,2,2,1,1,1
9736000,792000,47.3977419,8.545594,0.0024685978,0.010051661,-0.017419439,0.011807763,-0.003991564,0.0,-0.000675605,0.015171972,-0.00089906546,0.015106722,0.018587714,-0.039994493,0.0343713,-0.057368346,-0.009018375,-0.009340233,1.6200478,488.1152,0.1,0.45384282,0.18050325,0.296174,0.13504189,inf,inf,inf,inf,1,1,1,1,2,0,2,2,1,1,1
9840000,792000,47.3977419,8.545594,0.0032565703,0.008690457,-0.016333785,0.011807763,-0.003991564,0.0,-0.0010844006,0.01170875,0.00031791197,0.016075337,0.018587714,-0.039994493,0.0343713,-0.0043552862,-0.030527355,0.02847798,1.6197225,488.1152,0.1,0.43496922,0.17993231,0.2788031,0.13390201,inf,inf,inf,inf,1,1,1,1,2,0,2,2,1,1,1
9944000,792000,47.3977419,8.545594,0.0043868963,0.0069143553,-0.014803585,0.011807763,-0.003991564,0.0,0.0003237914,0.010004482,0.00021322192,0.016139504,0.018587714,-0.039994493,0.0343713,0.0035352712,0.041674834,0.0053467224,1.6194088,488.1152,0.1,0.45417413,0.18110088,0.29193994,0.13484599,inf,inf,inf,inf,1,1,1,1,2,0,2,2,1,1,1
10040000,792000,47.3977419,8.545594,0.0049318727,0.0057152417,-0.015249782,0.011807763,-0.003991564,0.0,-0.0012920697,0.006829198,-0.0028456952,0.011434565,0.018587714,-0.039994493,0.0343713,0.008665432,-0.01937685,-0.02213288,1.6192055,488.1152,0.1,0.4340431,0.18040454,0.2742797,0.13339733,inf,inf,inf,inf,1,1,1,1,2,0,2,2,1,1,1
10136000,792000,47.3977419,8.545594,0.0047545466,0.0042940523,-0.015343149,0.011807763,-0.003991564,0.0,0.00026684234,0.0053821877,-0.0012231192,0.012104022,0.018587714,-0.039994493,0.0343713,0.019360362,0.07881385,0.0155773,1.6189284,488.1152,0.1,0.4515914,0.18145947,0.28591266,0.13403578,inf,inf,inf,inf,1,1,1,1,2,0,2,2,1,1,1
10240000,792000,47.3977419,8.545594,0.0045766234,0.003333949,-0.01501414,0.011807763,-0.003991564,0.0,0.0016321247,0.004337195,-0.0016350242,0.011123124,0.018587714,-0.039994493,0.0343713,-0.012067132,-0.040762458,0.03175437,1.6188254,488.1152,0.1,0.43306485,0.18079102,0.2697339,0.13242948,inf,inf,inf,inf,1,1,1,1,2,0,2,2,1,1,1
10344000,792000,47.3977419,8.545594,0.004787885,0.0016417274,-0.014171295,0.011807763,-0.003991564,0.0,0.004295698,0.0036518243,-0.00032779132,0.012446577,0.018587714,-0.039994493,0.0343713,-0.0147971725,0.05117236,0.091177404,1.618391,488.1152,0.1,0.45197755,0.1818759,0.28181607,0.13286863,inf,inf,inf,inf,1,1,1,1,2,0,2,2,1,1,1
10440000,792000,47.3977419,8.545594,0.0049871644,0.0007024209,-0.013195823,0.011807763,-0.003991564,0.0,0.005428395,0.0034636033,-0.0006219486,0.012239146,0.018587714,-0.039994493,0.0343713,0.098969795,0.09445749,-0.019329598,1.6179686,488.1152,0.1,0.43222928,0.18106297,0.26536143,0.13106427,inf,inf,inf,inf,1,1,1,1,2,0,2,2,1,1,1
10536000,792000,47.3977419,8.545594,0.0052821934,3.2720272e-06,-0.01224689,0.011807763,-0.003991564,0.0,0.0055073635,0.0033003867,-7.902437e-05,0.012784334,0.018587714,-0.039994493,0.0343713,-0.07457673,0.033358444,0.093544826,1.61773,488.1152,0.1,0.4494789,0.1819956,0.2760775,0.1312705,inf,inf,inf,inf,1,1,1,1,2,0,2,2,1,1,1
10640000,792000,47.3977419,8.545594,0.0053464677,-0.00015520447,-0.010817303,0.011807763,-0.003991564,0.0,0.0019728665,0.004020295,0.0014206112,0.01446515,0.018587714,-0.039994493,0.0343713,-0.011229756,0.037284624,-0.053114254,1.61725,488.1152,0.1,0.4313219,0.18119062,0.2609835,0.12935051,inf,inf,inf,inf,1,1,1,1,2,0,2,2,1,1,1
10736000,792000,47.3977419,8.545594,0.0054749073,-0.00020601138,-0.009563159,0.011807763,-0.003991564,0.0,0.00014033163,0.005200733,0.00259162,0.015587033,0.018587714,-0.039994493,0.0343713,0.03147761,0.12640041,0.038617287,1.6168928,488.1152,0.1,0.44839874,0.1820391,0.27129713,0.12937535,inf,inf,inf,inf,1,1,1,1,2,0,2,2,1,1,1
10840000,792000,47.3977419,8.545594,0.0053025465,0.0003220487,-0.008066645,0.011807763,-0.003991564,0.0,-0.0020511912,0.0055141794,0.004451574,0.017394084,0.018587714,-0.039994493,0.0343713,-0.062666684,-0.046641227,0.036370937,1.6161758,488.1152,0.1,0.43053097,0.18117023,0.256843,0.12736443,inf,inf,inf,inf,1,1,1,1,2,0,2,2,1,1,1
10936000,792000,47.3977419,8.545594,0.004847516,0.00051279506,-0.00645132,0.011807763,-0.003991564,0.0,-0.0009773138,0.0045428546,0.0054251896,0.018404901,0.018587714,-0.039994493,0.0343713,0.041339092,-0.04677774,-0.049580816,1.6158499,488.1152,0.1,0.44743887,0.18192722,0.2667768,0.1272334,inf,inf,inf,inf,1,1,1,1,2,0,2,2,1,1,1
11040000,792000,47.3977419,8.545594,0.0043618903,0.00106086,-0.0041379873,0.011807763,-0.003991564,0.0,-0.0022123952,0.0044434294,0.0061591337,0.0195841,0.018587714,-0.039994493,0.0343713,-0.013447526,0.00040234588,-0.006991438,1.6156099,488.1152,0.1,0.4671664,0.18266267,0.27778265,0.12694651,inf,inf,inf,inf,1,1,1,1,2,0,2,2,1,1,1
11136000,792000,47.3977419,8.545594,0.0040452457,0.0008681085,-0.0020789285,0.011807763,-0.003991564,0.0,-0.0010815341,0.0027726481,0.0070693498,0.020701222,0.018587714,-0.039994493,0.0343713,0.04539896,0.055013426,0.030831432,1.6153446,488.1152,0.1,0.4463797,0.18165684,0.26230758,0.12489502,inf,inf,inf,inf,1,1,1,1,2,0,2,2,1,1,1
11240000,792000,47.3977419,8.545594,0.0037436893,0.0011317387,-0.0008546246,0.011807763,-0.003991564,0.0,-0.0008079393,0.004592499,0.008444583,0.02115338,0.018587714,-0.039994493,0.0343713,-0.030690046,0.021377256,-0.0011548399,1.6151832,488.1152,0.1,0.4658552,0.1822896,0.27292028,0.124483116,inf,inf,inf,inf,1,1,1,1,2,0,2,2,1,1,1
11336000,792000,47.3977419,8.545594,0.003998507,0.00053114304,0.00010383883,0.011807763,-0.003991564,0.0,-0.0011176685,0.0043841084,0.009785635,0.02144564,0.018587714,-0.039994493,0.0343713,-0.09945413,0.0041339514,0.0030230728,1.6150919,488.1152,0.1,0.4454294,0.181244,0.25812778,0.122427136,inf,inf,inf,inf,1,1,1,1,2,0,2,2,1,1,1
11440000,792000,47.3977419,8.545594,0.003891983,0.00035902814,0.0007382293,0.011807763,-0.003991564,0.0,-0.0027253458,0.00417616,0.009939439,0.020236377,0.018587714,-0.039994493,0.0343713,0.05782369,-0.0016010453,0.047697682,1.6148322,488.1152,0.1,0.46466595,0.18177748,0.268346,0.12191638,inf,inf,inf,inf,1,1,1,1,2,0,2,2,1,1,1
11536000,792000,47.3977419,8.545594,0.0042577595,0.00053719734,0.0015341663,0.011807763,-0.003991564,0.0,-0.0021481852,0.0051810476,0.008940722,0.018311316,0.018587714,-0.039994493,0.0343713,-0.057299864,-0.009219336,-0.050236467,1.6145483,488.1152,0.1,0.44437987,0.18069601,0.25398242,0.119870536,inf,inf,inf,inf,1,1,1,1,2,0,2,2,1,1,1
11640000,792000,47.3977419,8.545594,0.0043559587,0.0012021951,0.0025263154,0.011807763,-0.003991564,0.0,-0.0034140518,0.0071640853,0.009313764,0.017962607,0.018587714,-0.039994493,0.0343713,0.0597696,0.07920323,-0.07958151,1.6141803,488.1152,0.1,0.46336752,0.181136,0.26387036,0.11928441,inf,inf,inf,inf,1,1,1,1,2,0,2,2,1,1,1
11736000,792000,47.3977419,8.545594,0.0043707923,0.0022790194,0.0032186576,0.011807763,-0.003991564,0.0,-0.0021076517,0.008349916,0.0098287,0.017712174,0.018587714,-0.039994493,0.0343713,-0.015011886,0.024115534,0.054771077,1.613985,488.1152,0.1,0.44343066,0.1800342,0.25010833,0.11727586,inf,inf,inf,inf,1,1,1,1,2,0,2,2,1,1,1
11840000,792000,47.3977419,8.545594,0.004412582,0.0037909448,0.0038023344,0.011807763,-0.003991564,0.0,-0.000512457,0.009637972,0.009020151,0.015906097,0.018587714,-0.039994493,0.0343713,0.06835009,-0.047862906,-0.033284534,1.6135602,488.1152,0.1,0.46218422,0.18038793,0.2597118,0.11663478,inf,inf,inf,inf,1,1,1,1,2,0,2,2,1,1,1
11944000,792000,47.3977419,8.545594,0.004508089,0.0046341675,0.0036839307,0.011807763,-0.003991564,0.0,5.0443923e-05,0.0072107846,0.007427352,0.012859614,0.018587714,-0.039994493,0.0343713,0.030712951,-0.017038342,-0.027107073,1.6132379,488.1152,0.1,0.4437629,0.17929344,0.24700473,0.11462074,inf,inf,inf,inf,1,1,1,1,2,0,2,2,1,1,1
12040000,792000,47.3977419,8.545594,0.004664286,0.0054777563,0.0035172608,0.011807763,-0.003991564,0.0,0.0024229202,0.008077989,0.008048393,0.012265722,0.018587714,-0.039994493,0.0343713,0.063482665,0.033559624,0.032280568,1.6129955,488.1152,0.1,0.46089533,0.17954499,0.255604,0.113991804,inf,inf,inf,inf,1,1,1,1,2,0,2,2,1,1,1
12136000,792000,47.3977419,8.545594,0.0053560818,0.005231087,0.003111265,0.011807763,-0.003991564,0.0,0.0028742047,0.007943718,0.010866125,0.013641197,0.018587714,-0.039994493,0.0343713,-0.028487803,-0.15095745,0.03876071,1.6130308,488.1152,0.1,0.4414302,0.1784232,0.24274145,0.11208915,inf,inf,inf,inf,1,1,1,1,2,0,2,2,1,1,1
12240000,792000,47.3977419,8.545594,0.0061287964,0.00520224,0.0027856345,0.011807763,-0.003991564,0.0,0.0055131796,0.009737332,0.010503712,0.01187143,0.018587714,-0.039994493,0.0343713,0.0066547943,-0.030267997,-0.02399273,1.6130929,488.1152,0.1,0.4597168,0.17862846,0.2517511,0.11138792,inf,inf,inf,inf,1,1,1,1,2,0,2,2,1,1,1
12336000,792000,47.3977419,8.545594,0.007692468,0.006556818,0.0028021913,0.011807763,-0.003991564,0.0,-0.007753865,0.37805265,0.017639821,0.018223349,0.018587714,-0.039994493,0.0343713,-1.385866,35.323406,0.76760906,1.6129869,488.1152,0.1,0.44038382,0.1775058,0.23920982,0.10954888,inf,inf,inf,inf,1,1,1,1,2,0,2,2,1,1,1
12440000,792000,47.3977419,8.545594,-0.0033880242,0.3127576,0.009416047,0.011807763,-0.003991564,0.0,-0.2231398,5.49565,0.12740912,0.12725505,0.018587714,-0.039994493,0.0343713,-1.8531578,45.138577,0.94961554,1.6128244,488.1152,0.1,0.45843765,0.17764904,0.24798563,0.108837694,inf,inf,inf,inf,1,1,1,1,2,0,2,2,1,1,1
12536000,792000,47.3977419,8.545594,-0.032335456,1.0312427,0.025000753,0.011807763,-0.003991564,0.0,-0.38339996,9.348591,0.20852394,0.20804682,0.018587714,-0.039994493,0.0343713,-1.5570058,35.735596,0.7575647,1.6126649,488.1152,0.1,0.43942723,0.1765307,0.23995928,0.10914705,inf,inf,inf,inf,1,1,1,1,2,0,2,2,1,1,1
12640000,792000,47.3977419,8.545594,-0.07936284,2.1792822,0.04975748,0.011807763,-0.003991564,0.0,-0.5197345,12.622992,0.27705348,0.27633783,0.018587714,-0.039994493,0.0343713,-1.0902227,28.066395,0.6267894,1.6123493,488.1152,0.1,0.4574116,0.17659023,0.2864631,0.13437098,inf,inf,inf,inf,1,1,1,1,2,0,2,2,1,1,1
12736000,792000,47.3977419,8.545594,-0.120593,3.5056303,0.0769689,0.011807763,-0.003991564,0.0,-0.5983361,15.019228,0.3228074,0.32049385,0.018587714,-0.039994493,0.0343713,-0.8533986,22.573694,0.50592417,1.6116041,488.1152,0.1,0.4382199,0.17563088,0.30228117,0.15890247,inf,inf,inf,inf,1,1,1,1,2,0,2,2,1,1,1
12840000,792000,47.3977419,8.545594,-0.16389474,5.179412,0.10749204,0.011807763,-0.003991564,0.0,-0.5989419,17.198278,0.3323626,0.3269248,0.018587714,-0.039994493,0.0343713,-0.93852097,18.849304,-0.03718305,1.6314332,488.1152,0.1,0.45650092,0.1766245,0.34913826,0.18689881,inf,inf,inf,inf,1,1,1,1,2,0,2,2,1,1,1
12936000,792000,47.3977419,8.545594,-0.1919362,6.9057393,0.13181762,0.011807763,-0.003991564,0.0,-0.6820888,18.834078,0.31111324,0.2999105,0.018587714,-0.039994493,0.0343713,-1.8441339,15.379497,-0.09184982,1.6534663,488.1152,0.1,0.43695548,0.17651166,0.33057636,0.19748315,inf,inf,inf,inf,1,1,1,1,2,0,2,2,1,1,1
13040000,792000,47.3977419,8.545594,-0.23022848,8.934816,0.15344283,0.011807763,-0.003991564,0.0,-0.8382114,20.233744,0.30039227,0.2817629,0.018587714,-0.039994493,0.0343713,-1.9643738,11.740814,0.25143287,1.6462084,488.1152,0.1,0.455546,0.1793448,0.36229533,0.21559304,inf,inf,inf,inf,1,1,1,1,2,0,2,2,1,1,1
13136000,792000,47.3977419,8.545594,-0.26446158,10.920624,0.16944578,0.011807763,-0.003991564,0.0,-0.8954969,21.193985,0.32045013,0.29147092,0.018587714,-0.039994493,0.0343713,-0.7151032,8.607176,0.5595665,1.6206894,488.1152,0.1,0.43557632,0.17970201,0.3281985,0.21364146,inf,inf,inf,inf,1,1,1,1,2,0,2,2,1,1,1
13240000,792000,47.3977419,8.545594,-0.29648942,13.161679,0.18684213,0.011807763,-0.003991564,0.0,-0.876763,21.975546,0.3518014,0.3110338,0.018587714,-0.039994493,0.0343713,-0.88389945,6.7860456,0.3608493,1.5964524,488.1152,0.1,0.45415995,0.18387136,0.3484388,0.2224162,inf,inf,inf,inf,1,1,1,1,2,0,2,2,1,1,1
13336000,792000,47.3977419,8.545594,-0.31884828,15.295314,0.1976026,0.011807763,-0.003991564,0.0,-0.8753321,22.522251,0.2869493,0.23271741,0.018587714,-0.039994493,0.0343713,-1.1457283,5.086889,-1.0523767,1.595689,488.1152,0.1,0.4343668,0.18386498,0.31289068,0.21159211,inf,inf,inf,inf,1,1,1,1,2,0,2,2,1,1,1
13440000,792000,47.3977419,8.545594,-0.3480916,17.65874,0.19150764,0.011807763,-0.003991564,0.0,-0.9633585,22.952662,0.02717365,-0.041358422,0.018587714,-0.039994493,0.0343713,-1.9896051,3.3817234,-3.4572358,1.6098903,488.1152,0.1,0.45268413,0.18822536,0.32655844,0.21322607,inf,inf,inf,inf,1,1,1,1,2,0,2,2,1,1,1
13536000,792000,47.3977419,8.545594,-0.39004922,19.874004,0.14908002,0.011807763,-0.003991564,0.0,-1.1163312,23.204466,-0.4053948,-0.4876394,0.018587714,-0.039994493,0.0343713,-2.4712548,2.0266786,-4.7506285,1.6227984,488.1152,0.1,0.43310642,0.18734375,0.29675078,0.19951709,inf,inf,inf,inf,1,1,1,1,2,0,2,2,1,1,1
13640000,792000,47.3977419,8.545594,-0.45846018,22.29589,0.050951205,0.011807763,-0.003991564,0.0,-1.3122896,23.366995,-0.9139666,-1.0108086,0.018587714,-0.039994493,0.0343713,-2.3497362,1.1289757,-4.351911,1.6288891,488.1152,0.15521872,0.45114228,0.19108076,0.30988383,0.19746335,inf,inf,inf,inf,1,1,1,1,2,0,2,2,1,1,1
13736000,792000,47.3977419,8.545594,-0.54495865,24.544493,-0.085268795,0.011807763,-0.003991564,0.0,-1.4812567,23.447168,-1.3126731,-1.423155,0.018587714,-0.039994493,0.0343713,-2.103057,0.6335297,-3.5453465,1.6306068,488.1152,0.29143873,0.43193325,0.18925093,0.2868394,0.1830293,inf,inf,inf,inf,1,1,1,1,2,0,2,2,1,1,1
13840000,792000,47.3977419,8.545594,-0.6625206,26.987635,-0.27280194,0.011807763,-0.003991564,0.0,-1.6566231,23.487572,-1.680945,-1.8048748,0.018587714,-0.039994493,0.0343713,-1.9717826,0.14530517,-3.1781652,1.6349149,488.1152,0.47897187,0.44987538,0.19201066,0.30057403,0.1790554,inf,inf,inf,inf,1,1,1,1,2,0,2,2,1,1,1
13936000,792000,47.3977419,8.545594,-0.7953399,29.245617,-0.47994143,0.011807763,-0.003991564,0.0,-1.824532,23.486748,-2.0115561,-2.1475403,0.018587714,-0.039994493,0.0343713,-2.0916605,-0.07417821,-3.3653936,1.6433384,488.1152,0.68611133,0.4308321,0.18941547,0.28031954,0.16572738,inf,inf,inf,inf,1,1,1,1,2,0,2,2,1,1,1
14040000,792000,47.3977419,8.545594,-0.9643271,31.691465,-0.74044925,0.011807763,-0.003991564,0.0,-2.0190687,23.44316,-2.3804958,-2.5279803,0.018587714,-0.039994493,0.0343713,-2.1685472,-0.6593082,-3.3834276,1.654768,488.1152,0.94661915,0.44859034,0.19121055,0.29358935,0.1614148,inf,inf,inf,inf,1,1,1,1,2,0,2,2,1,1,1
14136000,792000,47.3977419,8.545594,-1.1470244,33.94469,-1.0132283,0.011807763,-0.003991564,0.0,-2.2125041,23.370216,-2.7233276,-2.878564,0.018587714,-0.039994493,0.0343713,-2.1873028,-0.8797635,-3.4188616,1.6641605,488.1152,1.2193983,0.4299474,0.18825778,0.27592248,0.15020649,inf,inf,inf,inf,1,1,1,1,2,0,2,2,1,1,1
14240000,792000,47.3977419,8.545594,-1.3726375,36.37942,-1.3419997,0.011807763,-0.003991564,0.0,-2.420894,23.272177,-3.0881672,-3.2476673,0.018587714,-0.039994493,0.0343713,-2.0670292,-1.0516605,-3.3426023,1.672188,488.1152,1.5481696,0.4475387,0.18927479,0.2898915,0.14612032,inf,inf,inf,inf,1,1,1,1,2,0,2,2,1,1,1
14336000,792000,47.3977419,8.545594,-1.6058075,38.617805,-1.6773651,0.011807763,-0.003991564,0.0,-2.607098,23.165424,-3.4066062,-3.5691662,0.018587714,-0.039994493,0.0343713,-1.9065493,-1.2022462,-3.0863059,1.6788437,488.1152,1.883535,0.42905948,0.18620686,0.27384198,0.1369303,inf,inf,inf,inf,1,1,1,1,2,0,2,2,1,1,1
14440000,792000,47.3977419,8.545594,-1.8836517,41.035503,-2.0735369,0.011807763,-0.003991564,0.0,-2.8032062,23.041124,-3.7417328,-3.9068334,0.018587714,-0.039994493,0.0343713,-1.8473213,-1.308263,-3.1353378,1.6870191,488.1152,2.2797067,0.4465291,0.18664813,0.2883103,0.13344452,inf,inf,inf,inf,1,1,1,1,2,0,2,2,1,1,1
14536000,792000,47.3977419,8.545594,-2.1622488,43.25365,-2.4697847,0.011807763,-0.003991564,0.0,-2.9814904,22.907764,-4.0475235,-4.2150526,0.018587714,-0.039994493,0.0343713,-1.790627,-1.4531078,-3.078397,1.6955928,488.1152,2.6759546,0.428373,0.18367702,0.27314866,0.12622839,inf,inf,inf,inf,1,1,1,1,2,0,2,2,1,1,1
14640000,792000,47.3977419,8.545594,-2.488461,45.644352,-2.9307585,0.011807763,-0.003991564,0.0,-3.1789737,22.751434,-4.3848424,-4.5535064,0.018587714,-0.039994493,0.0343713,-1.8965306,-1.6190042,-3.1802838,1.7051948,488.1152,3.1369283,0.44576275,0.1837331,0.2877598,0.123450905,inf,inf,inf,inf,1,1,1,1,2,0,2,2,1,1,1
14743999,792000,47.3977419,8.545594,-2.8384185,48.015636,-3.4259205,0.011807763,-0.003991564,0.0,-3.375944,22.577412,-4.728511,-4.897366,0.018587714,-0.039994493,0.0343713,-1.8446442,-1.8231181,-3.2826412,1.7142543,488.1152,3.6320903,0.42895886,0.18095402,0.27391326,0.11771924,inf,inf,inf,inf,1,1,1,1,2,0,2,2,1,1,1
14839999,792000,47.3977419,8.545594,-3.1843054,50.190243,-3.913161,0.011807763,-0.003991564,0.0,-3.5563104,22.406004,-5.050322,-5.2178497,0.018587714,-0.039994493,0.0343713,-1.8367603,-1.9380106,-3.304501,1.7220578,488.1152,4.119331,0.4450041,0.18078321,0.28758985,0.115806736,inf,inf,inf,inf,1,1,1,1,2,0,2,2,1,1,1
14944000,792000,47.3977419,8.545594,-3.580638,52.527283,-4.473915,0.011807763,-0.003991564,0.0,-3.746139,22.210434,-5.397895,-5.5625334,0.018587714,-0.039994493,0.0343713,-1.6735538,-1.9085941,-3.2106693,1.7304027,488.1152,4.680085,0.42841175,0.17826301,0.2740549,0.11149142,inf,inf,inf,inf,1,1,1,1,2,0,2,2,1,1,1
15048000,792000,47.3977419,8.545594,-4.0022645,54.849033,-5.069887,0.011807763,-0.003991564,0.0,-3.9359183,22.017118,-5.727331,-5.8894186,0.018587714,-0.039994493,0.0343713,-1.5655222,-1.8537725,-2.8600132,1.7385744,488.1152,5.2760572,0.44583932,0.1779537,0.2889457,0.110070825,inf,inf,inf,inf,1,1,1,1,2,0,2,2,1,1,1
15144000,792000,47.3977419,8.545594,-4.407325,56.97161,-5.6486993,0.011807763,-0.003991564,0.0,-4.0830607,21.854105,-5.9775376,-6.1387153,0.018587714,-0.039994493,0.0343713,-1.2316868,-1.5668709,-2.2788138,1.7446156,488.1152,5.8548694,0.4278436,0.17573564,0.27390563,0.106968164,inf,inf,inf,inf,1,1,1,1,2,0,2,2,1,1,1
15240000,792000,47.3977419,8.545594,-4.8293033,59.08322,-6.2493515,0.011807763,-0.003991564,0.0,-4.196321,21.71935,-6.182092,-6.3426285,0.018587714,-0.039994493,0.0343713,-0.72741157,-1.3893934,-1.8232696,1.7481662,488.1152,6.4555216,0.44385636,0.17542002,0.28716272,0.10620671,inf,inf,inf,inf,1,1,1,1,2,0,2,2,1,1,1
15344000,792000,47.3977419,8.545594,-5.294679,61.354706,-6.9191675,0.011807763,-0.003991564,0.0,-4.2669187,21.606245,-6.352216,-6.5118184,0.018587714,-0.039994493,0.0343713,-0.348757,-1.0126871,-1.2844465,1.7495438,488.1152,7.1253376,0.42742696,0.17347524,0.27251682,0.103910945,inf,inf,inf,inf,1,1,1,1,2,0,2,2,1,1,1
15440000,792000,47.3977419,8.545594,-5.7344475,63.447075,-7.550997,0.011807763,-0.003991564,0.0,-4.304026,21.52914,-6.4686494,-6.6275873,0.018587714,-0.039994493,0.0343713,-0.062465895,-0.81284523,-0.9061591,1.7497499,488.1152,7.757167,0.4434125,0.17319351,0.28450903,0.10354731,inf,inf,inf,inf,1,1,1,1,2,0,2,2,1,1,1
15544000,792000,47.3977419,8.545594,-6.2097034,65.70113,-8.247255,0.011807763,-0.003991564,0.0,-4.3118725,21.465342,-6.568146,-6.727185,0.018587714,-0.039994493,0.0343713,0.22317886,-0.5617905,-0.8116057,1.7491564,488.1152,8.453425,0.42697668,0.1715453,0.26905552,0.10182825,inf,inf,inf,inf,1,1,1,1,2,0,2,2,1,1,1
15640000,792000,47.3977419,8.545594,-6.65464,67.78084,-8.897738,0.011807763,-0.003991564,0.0,-4.3007174,21.422785,-6.6466537,-6.8052034,0.018587714,-0.039994493,0.0343713,0.46728614,-0.5996423,-0.62053925,1.7476664,488.1152,9.103909,0.44288757,0.17134002,0.27983183,0.10170529,inf,inf,inf,inf,1,1,1,1,2,0,2,2,1,1,1
15744000,792000,47.3977419,8.545594,-7.129874,70.02569,-9.61037,0.011807763,-0.003991564,0.0,-4.2639923,21.386585,-6.7198453,-6.8779683,0.018587714,-0.039994493,0.0343713,0.7640218,-0.37938073,-0.58740187,1.7450153,488.1152,9.81654,0.42661917,0.16996661,0.2645005,0.10041132,inf,inf,inf,inf,1,1,1,1,2,0,2,2,1,1,1
15840000,792000,47.3977419,8.545594,-7.570729,72.10104,-10.273352,0.011807763,-0.003991564,0.0,-4.212683,21.245628,-6.75369,-6.910974,0.018587714,-0.039994493,0.0343713,1.0295393,-3.7504413,0.06014667,1.7423011,488.1152,10.479522,0.44244412,0.16985312,0.274523,0.10044352,inf,inf,inf,inf,1,1,1,1,2,0,2,2,1,1,1
15944000,792000,47.3977419,8.545594,-8.033517,74.31083,-10.992054,0.011807763,-0.003991564,0.0,-4.110806,20.848476,-6.7801213,-6.93525,0.018587714,-0.039994493,0.0343713,1.2761621,-3.7237072,-0.4535224,1.7445831,488.1152,11.198224,0.4261712,0.168706,0.25951672,0.099418946,inf,inf,inf,inf,1,1,1,1,2,0,2,2,1,1,1
16040000,792000,47.3977419,8.545594,-8.455296,76.322914,-11.6589,0.011807763,-0.003991564,0.0,-4.003279,20.540117,-6.8165994,-6.969513,0.018587714,-0.039994493,0.0343713,1.4374497,-2.8600388,-0.023793427,1.7460191,488.1152,11.86507,0.441882,0.16867034,0.26977533,0.09916456,inf,inf,inf,inf,1,1,1,1,2,0,2,2,1,1,1
16144000,792000,47.3977419,8.545594,-8.8931,78.46819,-12.380643,0.011807763,-0.003991564,0.0,-3.875748,20.329702,-6.7422767,-6.893429,0.018587714,-0.039994493,0.0343713,1.4139872,-1.4549981,1.5400331,1.7417672,488.1152,12.586813,0.42578748,0.16766042,0.2566769,0.09777649,inf,inf,inf,inf,1,1,1,1,2,0,2,2,1,1,1
16240000,792000,47.3977419,8.545594,-9.291053,80.44262,-13.032034,0.011807763,-0.003991564,0.0,-3.7684498,20.27126,-6.539964,-6.688458,0.018587714,-0.039994493,0.0343713,1.2711216,-0.25400797,2.7291908,1.732929,488.1152,13.238204,0.4413739,0.16761556,0.26683483,0.09765944,inf,inf,inf,inf,1,1,1,1,2,0,2,2,1,1,1
16344000,792000,47.3977419,8.545594,-9.702422,82.572105,-13.710731,0.011807763,-0.003991564,0.0,-3.6434226,20.301725,-6.2286763,-6.3746314,0.018587714,-0.039994493,0.0343713,1.3757415,0.56522954,3.291603,1.7221305,488.1152,13.916901,0.4596066,0.16757363,0.2766794,0.097729124,inf,inf,inf,inf,1,1,1,1,2,0,2,2,1,1,1
16440000,792000,47.3977419,8.545594,-10.075537,84.5488,-14.308178,0.011807763,-0.003991564,0.0,-3.5266829,20.376148,-5.9380608,-6.082751,0.018587714,-0.039994493,0.0343713,1.4502556,0.6696283,2.9040844,1.7134613,488.1152,14.514348,0.44072962,0.16671084,0.2598565,0.09697319,inf,inf,inf,inf,1,1,1,1,2,0,2,2,1,1,1
16544000,792000,47.3977419,8.545594,-10.458702,86.69041,-14.9273615,0.011807763,-0.003991564,0.0,-3.380855,20.44701,-5.691493,-5.8351846,0.018587714,-0.039994493,0.0343713,1.6144785,0.49143538,2.0674567,1.7067515,488.1152,15.133532,0.45864522,0.16675991,0.26735052,0.097265065,inf,inf,inf,inf,1,1,1,1,2,0,2,2,1,1,1
16640000,792000,47.3977419,8.545594,-10.802392,88.68322,-15.480275,0.011807763,-0.003991564,0.0,-3.2381477,20.502888,-5.5394907,-5.6825376,0.018587714,-0.039994493,0.0343713,1.595867,0.3394517,1.4246823,1.7018638,488.1152,15.686445,0.44009104,0.16602142,0.25153708,0.09660466,inf,inf,inf,inf,1,1,1,1,2,0,2,2,1,1,1
16744000,792000,47.3977419,8.545594,-11.151549,90.8391,-16.064941,0.011807763,-0.003991564,0.0,-3.0721104,20.55066,-5.421785,-5.5637,0.018587714,-0.039994493,0.0343713,1.7437482,0.28866622,1.0290108,1.6955518,488.1152,16.27111,0.4576875,0.16616006,0.25922337,0.0968848,inf,inf,inf,inf,1,1,1,1,2,0,2,2,1,1,1
16840000,792000,47.3977419,8.545594,-11.461858,92.83738,-16.59478,0.011807763,-0.003991564,0.0,-2.9199886,20.590498,-5.331014,-5.4719014,0.018587714,-0.039994493,0.0343713,1.7558485,0.23048253,0.9590973,1.688157,488.1152,16.80095,0.4392867,0.16550143,0.2452515,0.09620645,inf,inf,inf,inf,1,1,1,1,2,0,2,2,1,1,1
16944000,792000,47.3977419,8.545594,-11.775541,94.99957,-17.16037,0.011807763,-0.003991564,0.0,-2.749326,20.62749,-5.245631,-5.3861794,0.018587714,-0.039994493,0.0343713,1.8307296,0.23058498,0.78288645,1.6787447,488.1152,17.366539,0.4566338,0.16569999,0.25319895,0.09646945,inf,inf,inf,inf,1,1,1,1,2,0,2,2,1,1,1
17040000,792000,47.3977419,8.545594,-12.051866,97.00494,-17.674517,0.011807763,-0.003991564,0.0,-2.5896337,20.654154,-5.1758356,-5.315682,0.018587714,-0.039994493,0.0343713,1.7458494,0.11739972,0.7178029,1.6699448,488.1152,17.880686,0.4385081,0.16509467,0.24030681,0.095794156,inf,inf,inf,inf,1,1,1,1,2,0,2,2,1,1,1
17144000,792000,47.3977419,8.545594,-12.3286,99.17346,-18.22409,0.011807763,-0.003991564,0.0,-2.4150949,20.675743,-5.116512,-5.2549796,0.018587714,-0.039994493,0.0343713,1.7351363,0.05127699,0.5891034,1.6617875,488.1152,18.43026,0.45564643,0.16533475,0.24812621,0.09604711,inf,inf,inf,inf,1,1,1,1,2,0,2,2,1,1,1
17240000,792000,47.3977419,8.545594,-12.572935,101.179504,-18.726831,0.011807763,-0.003991564,0.0,-2.260059,20.692158,-5.077241,-5.2147055,0.018587714,-0.039994493,0.0343713,1.7028891,0.023556173,0.4761908,1.6552151,488.1152,18.933,0.43761477,0.16476344,0.23587334,0.095366634,inf,inf,inf,inf,1,1,1,1,2,0,2,2,1,1,1
17344000,792000,47.3977419,8.545594,-12.816649,103.348976,-19.26744,0.011807763,-0.003991564,0.0,-2.0927322,20.698513,-5.0476165,-5.1836605,0.018587714,-0.039994493,0.0343713,1.6404504,-0.106545046,0.31849647,1.648065,488.1152,19.47361,0.45454833,0.1650314,0.24359103,0.095604084,inf,inf,inf,inf,1,1,1,1,2,0,2,2,1,1,1
17440000,792000,47.3977419,8.545594,-13.028534,105.35989,-19.76381,0.011807763,-0.003991564,0.0,-1.9422827,20.705793,-5.02794,-5.162547,0.018587714,-0.039994493,0.0343713,1.7072699,-0.057734314,0.25938728,1.641143,488.1152,19.969978,0.43677,0.1644858,0.23200367,0.09492421,inf,inf,inf,inf,1,1,1,1,2,0,2,2,1,1,0
17544000,792000,47.3977419,8.545594,-13.237501,107.53385,-20.299282,0.011807763,-0.003991564,0.0,-1.7801577,20.70539,-5.012279,-5.145109,0.018587714,-0.039994493,0.0343713,1.6127357,-0.10549951,0.24769081,1.6336144,488.1152,20.505451,0.4535214,0.16477242,0.23958367,0.09514025,inf,inf,inf,inf,1,1,1,1,2,0,2,2,1,1,0
17648000,792000,47.3977419,8.545594,-13.432987,109.71175,-20.832382,0.011807763,-0.003991564,0.0,-1.6264664,20.702734,-5.0020366,-5.13222,0.018587714,-0.039994493,0.0343713,1.6253666,-0.20961684,0.1483811,1.6260767,488.1152,21.038551,0.43706435,0.16426645,0.22894771,0.094473496,inf,inf,inf,inf,1,1,1,1,2,0,2,2,1,1,0
17744000,792000,47.3977419,8.545594,-13.596324,111.717705,-21.323284,0.011807763,-0.003991564,0.0,-1.4883562,20.69776,-4.991201,-5.1190267,0.018587714,-0.039994493,0.0343713,1.4597312,-0.17660913,0.24245213,1.619668,488.1152,21.529453,0.45239457,0.1645417,0.2357692,0.0946561,inf,inf,inf,inf,1,1,1,1,2,0,2,2,1,1,0
17840000,792000,47.3977419,8.545594,-13.749282,113.72517,-21.813675,0.011807763,-0.003991564,0.0,-1.3572469,20.692804,-4.98017,-5.10659,0.018587714,-0.039994493,0.0343713,1.4480973,-0.19866134,0.1661321,1.6136588,488.1152,22.019844,0.4349422,0.1640268,0.22501577,0.09396998,inf,inf,inf,inf,1,1,1,1,2,0,2,2,1,1,0
17944000,792000,47.3977419,8.545594,-13.897923,115.8949,-22.343847,0.011807763,-0.003991564,0.0,-1.2195336,20.683365,-4.976475,-5.1012635,0.018587714,-0.039994493,0.0343713,1.3249744,-0.16079865,0.026199965,1.607807,488.1152,22.550016,0.4513378,0.16433126,0.2321522,0.09414841,inf,inf,inf,inf,1,1,1,1,2,0,2,2,1,1,0
18040000,792000,47.3977419,8.545594,-14.023758,117.896225,-22.83298,0.011807763,-0.003991564,0.0,-1.0991578,20.669828,-4.9762363,-5.099542,0.018587714,-0.039994493,0.0343713,1.2583176,-0.15045749,0.058559697,1.602636,488.1152,23.039148,0.43396983,0.16382469,0.2216372,0.093456,inf,inf,inf,inf,1,1,1,1,2,0,2,2,1,1,0
18144000,792000,47.3977419,8.545594,-14.145011,120.05976,-23.362917,0.011807763,-0.003991564,0.0,-0.9737719,20.656431,-4.9779153,-5.0996237,0.018587714,-0.039994493,0.0343713,1.2651199,-0.16096397,0.07500126,1.5970855,488.1152,23.569086,0.4501841,0.16413102,0.2285627,0.093613535,inf,inf,inf,inf,1,1,1,1,2,0,2,2,1,1,0
18240000,792000,47.3977419,8.545594,-14.24827,122.058975,-23.851736,0.011807763,-0.003991564,0.0,-0.8660949,20.64244,-4.977701,-5.0978622,0.018587714,-0.039994493,0.0343713,1.1916679,-0.24314806,0.0042216848,1.592012,488.1152,24.057905,0.43305728,0.16363198,0.21844399,0.092920855,inf,inf,inf,inf,1,1,1,1,2,0,2,2,1,1,0
18344000,792000,47.3977419,8.545594,-14.347099,124.22124,-24.380318,0.011807763,-0.003991564,0.0,-0.75679624,20.628149,-4.976804,-5.094547,0.018587714,-0.039994493,0.0343713,1.1118631,-0.22608599,0.0011790543,1.5866684,488.1152,24.586487,0.44910002,0.16393624,0.225133,0.093056135,inf,inf,inf,inf,1,1,1,1,2,0,2,2,1,1,0
18440000,792000,47.3977419,8.545594,-14.429191,126.216194,-24.867496,0.011807763,-0.003991564,0.0,-0.6599682,20.614922,-4.9728827,-5.0881863,0.018587714,-0.039994493,0.0343713,1.084988,-0.22529158,0.0823466,1.5821141,488.1152,25.073666,0.4320622,0.16343999,0.21522585,0.092359826,inf,inf,inf,inf,1,1,1,1,2,0,2,2,1,1,0
18544000,792000,47.3977419,8.545594,-14.506792,128.37419,-25.395262,0.011807763,-0.003991564,0.0,-0.5636047,20.599724,-4.970715,-5.084029,0.018587714,-0.039994493,0.0343713,1.0089598,-0.25128978,0.09938422,1.5775775,488.1152,25.60143,0.44792438,0.16373898,0.22168823,0.09247427,inf,inf,inf,inf,1,1,1,1,2,0,2,2,1,1,0
18640000,792000,47.3977419,8.545594,-14.571225,130.36525,-25.881624,0.011807763,-0.003991564,0.0,-0.47906306,20.586132,-4.968507,-5.0795813,0.018587714,-0.039994493,0.0343713,0.90697783,-0.21573713,0.004990957,1.57379,488.1152,26.087793,0.43112814,0.16324557,0.21210355,0.09178323,inf,inf,inf,inf,1,1,1,1,2,0,2,2,1,1,0
18744000,792000,47.3977419,8.545594,-14.631278,132.51897,-26.407202,0.011807763,-0.003991564,0.0,-0.3953459,20.570316,-4.963568,-5.0714617,0.018587714,-0.039994493,0.0343713,0.84153616,-0.21020997,0.09115133,1.5697867,488.1152,26.61337,0.44681504,0.16353686,0.21835224,0.09187926,inf,inf,inf,inf,1,1,1,1,2,0,2,2,1,1,0
18840000,792000,47.3977419,8.545594,-14.679625,134.50386,-26.89107,0.011807763,-0.003991564,0.0,-0.3228179,20.556025,-4.960218,-5.0647626,0.018587714,-0.039994493,0.0343713,0.8154765,-0.24501629,0.034100372,1.5661926,488.1152,27.097239,0.43011427,0.16304274,0.20901144,0.09119146,inf,inf,inf,inf,1,1,1,1,2,0,2,2,1,1,0
18944000,792000,47.3977419,8.545594,-14.724312,136.65077,-27.414902,0.011807763,-0.003991564,0.0,-0.2510845,20.53899,-4.9585247,-5.0597296,0.018587714,-0.039994493,0.0343713,0.68827075,-0.14428933,0.09237136,1.5623547,488.1152,27.62107,0.44561967,0.16332437,0.21506591,0.091274284,inf,inf,inf,inf,1,1,1,1,2,0,2,2,1,1,0
