timestamp,error_count,device_id,temperature,clipping[0],clipping[1],clipping[2],full_scale_range,vibration_metric,coning_vibration,measure_rate,rotation
1000000,0,2294028,11.828796,0,0,0,34.906586,2.1643546e-05,5.0165844e-10,1000,0
2000000,0,2294028,11.828796,0,0,0,34.906586,2.4544057e-05,6.2026617e-10,1000,0
2904000,0,2294028,11.828796,0,0,0,34.906586,2.4569701e-05,6.5245154e-10,1000,0
3904000,0,2294028,11.828796,0,0,0,34.906586,2.3037654e-05,5.3070437e-10,1000,0
4904000,0,2294028,11.828796,0,0,0,34.906586,2.5462205e-05,6.109025e-10,1000,0
5904000,0,2294028,11.828796,0,0,0,34.906586,2.4448713e-05,6.24321e-10,1000,0
6908000,0,2294028,11.828796,0,0,0,34.906586,2.2483642e-05,5.187783e-10,1000,0
7908000,0,2294028,11.828796,0,0,0,34.906586,2.3977016e-05,6.0391386e-10,1000,0
8908000,0,2294028,11.828796,0,0,0,34.906586,2.3692906e-05,5.653332e-10,1000,0
9908000,0,2294028,11.828796,0,0,0,34.906586,2.4866285e-05,5.9901456e-10,1000,0
10908000,0,2294028,11.828796,0,0,0,34.906586,2.4930763e-05,6.424095e-10,1000,0
11908000,0,2294028,11.828796,0,0,0,34.906586,2.5204201e-05,6.431139e-10,1000,0
12908000,0,2294028,11.828766,0,0,0,34.906586,3.5267e-05,1.4604906e-08,1000,0
13908000,0,2294028,11.824402,0,0,0,34.906586,3.0331092e-05,2.1989973e-08,1000,0
14912000,0,2294028,11.7994995,0,0,0,34.906586,2.4171683e-05,1.3466042e-08,1000,0
15912000,0,2294028,11.757446,0,0,0,34.906586,2.9098566e-05,1.8232384e-08,1000,0
16912000,0,2294028,11.717255,0,0,0,34.906586,2.5011885e-05,1.0607764e-08,1000,0
17912000,0,2294028,11.683777,0,0,0,34.906586,2.4013267e-05,5.5610245e-09,1000,0
18912000,0,2294028,11.651337,0,0,0,34.906586,2.3874745e-05,4.1490766e-09,1000,0
19912000,0,2294028,11.618927,0,0,0,34.906586,2.3024197e-05,2.4593128e-09,1000,0
20912000,0,2294028,11.586914,0,0,0,34.906586,2.5872187e-05,1.38606e-09,1000,0
21912000,0,2294028,11.555481,0,0,0,34.906586,2.4152625e-05,7.6608275e-10,1000,0
22912000,0,2294028,11.524231,0,0,0,34.906586,2.4414026e-05,6.3823724e-10,1000,0
23912000,0,2294028,11.4935,0,0,0,34.906586,2.4944484e-05,7.253091e-10,1000,0
24912000,0,2294028,11.470306,0,0,0,34.906586,2.5010197e-05,1.1138696e-08,1000,0
25912000,0,2294028,11.464996,0,0,0,34.906586,2.5214973e-05,7.773483e-09,1000,0
26912000,0,2294028,11.4687195,0,0,0,34.906586,2.455682e-05,3.853876e-09,1000,0
27912000,0,2294028,11.475128,0,0,0,34.906586,2.4204837e-05,2.1369986e-09,1000,0
28912000,0,2294028,11.481689,0,0,0,34.906586,2.4511115e-05,1.505929e-09,1000,0
29912000,0,2294028,11.487427,0,0,0,34.906586,2.4301853e-05,1.2552395e-09,1000,0
30928000,0,2294028,11.484253,0,0,0,34.906586,2.4649344e-05,1.3616655e-08,1000,0
31952000,0,2294028,11.459076,0,0,0,34.906586,2.4960771e-05,6.628028e-09,1000,0
32952000,0,2294028,11.42746,0,0,0,34.906586,2.2776308e-05,2.794765e-09,1000,0
33952000,0,2294028,11.393799,0,0,0,34.906586,2.4034174e-05,1.5026288e-09,1000,0
34952000,0,2294028,11.359619,0,0,0,34.906586,2.4162851e-05,9.559138e-10,1000,0
35952000,0,2294028,11.32547,0,0,0,34.906586,2.4478579e-05,8.281589e-10,1000,0
36952000,0,2294028,11.291443,0,0,0,34.906586,2.3603681e-05,7.026639e-10,1000,0
37952000,0,2294028,11.257599,0,0,0,34.906586,2.5736752e-05,7.15844e-10,1000,0
38952000,0,2294028,11.22403,0,0,0,34.906586,2.5084475e-05,5.282727e-10,1000,0
39952000,0,2294028,11.19046,0,0,0,34.906586,2.3915029e-05,5.7492955e-10,1000,0
40952000,0,2294028,11.164398,0,0,0,34.906586,2.5125066e-05,1.2536566e-08,1000,0
41952000,0,2294028,11.157227,0,0,0,34.906586,2.4238961e-05,7.857976e-09,1000,0
42952000,0,2294028,11.158813,0,0,0,34.906586,2.5221258e-05,3.587586e-09,1000,0
43952000,0,2294028,11.162842,0,0,0,34.906586,2.4527215e-05,1.6656271e-09,1000,0
44952000,0,2294028,11.166962,0,0,0,34.906586,2.2409617e-05,1.1387378e-09,1000,0
45952000,0,2294028,11.170288,0,0,0,34.906586,2.4653302e-05,1.0764654e-09,1000,0
46952000,0,2294028,11.17276,0,0,0,34.906586,2.4308392e-05,9.430274e-10,1000,0
47952000,0,2294028,11.174469,0,0,0,34.906586,2.3291472e-05,9.329928e-10,1000,0
48952000,0,2294028,11.175537,0,0,0,34.906586,2.2147278e-05,8.5339036e-10,1000,0
49952000,0,2294028,11.176178,0,0,0,34.906586,2.386379e-05,6.761482e-10,1000,0
50952000,0,2294028,11.176453,0,0,0,34.906586,2.3860242e-05,6.0019195e-10,1000,0
51952000,0,2294028,11.176514,0,0,0,34.906586,2.6024969e-05,5.737211e-10,1000,0
52952000,0,2294028,11.176453,0,0,0,34.906586,2.442503e-05,5.3588023e-10,1000,0
53952000,0,2294028,11.1763,0,0,0,34.906586,2.388166e-05,5.374058e-10,1000,0
54952000,0,2294028,11.176117,0,0,0,34.906586,2.5101474e-05,5.952121e-10,1000,0
55952000,0,2294028,11.175995,0,0,0,34.906586,2.3220919e-05,5.3069416e-10,1000,0
56952000,0,2294028,11.175964,0,0,0,34.906586,2.4591955e-05,6.603624e-10,1000,0
57952000,0,2294028,11.175964,0,0,0,34.906586,2.304077e-05,5.107796e-10,1000,0
58952000,0,2294028,11.175964,0,0,0,34.906586,2.5491807e-05,6.572428e-10,1000,0
59952000,0,2294028,11.175964,0,0,0,34.906586,2.5320423e-05,6.4438427e-10,1000,0
60952000,0,2294028,11.176025,0,0,0,34.906586,2.4478184e-05,6.089739e-10,1000,0
61952000,0,2294028,11.176086,0,0,0,34.906586,2.5013169e-05,6.1556343e-10,1000,0
62972000,0,2294028,11.176086,0,0,0,34.906586,2.454572e-05,5.732613e-10,1000,0
63996000,0,2294028,11.176086,0,0,0,34.906586,2.3684852e-05,6.038875e-10,1000,0
64924000,0,2294028,11.176056,0,0,0,34.906586,2.553186e-05,6.574783e-10,1000,0
65936000,0,2294028,11.176086,0,0,0,34.906586,2.3978235e-05,6.028349e-10,1000,0
66936000,0,2294028,11.176147,0,0,0,34.906586,2.3386356e-05,5.832071e-10,1000,0
67936000,0,2294028,11.176239,0,0,0,34.906586,2.3692748e-05,5.469497e-10,1000,0
68936000,0,2294028,11.176361,0,0,0,34.906586,2.316864e-05,5.042062e-10,1000,0
69936000,0,2294028,11.176483,0,0,0,34.906586,2.254357e-05,5.3695765e-10,1000,0
70936000,0,2294028,11.176666,0,0,0,34.906586,2.3068313e-05,5.836736e-10,1000,0
71936000,0,2294028,11.176727,0,0,0,34.906586,2.3621822e-05,5.5118143e-10,1000,0
72936000,0,2294028,11.176697,0,0,0,34.906586,2.4600527e-05,5.683917e-10,1000,0
73936000,0,2294028,11.176666,0,0,0,34.906586,2.384264e-05,6.0381056e-10,1000,0
74936000,0,2294028,11.176636,0,0,0,34.906586,2.3560213e-05,5.8634797e-10,1000,0
75936000,0,2294028,11.176605,0,0,0,34.906586,2.4635447e-05,6.0265287e-10,1000,0
76936000,0,2294028,11.176544,0,0,0,34.906586,2.522415e-05,6.919983e-10,1000,0
77936000,0,2294028,11.176483,0,0,0,34.906586,2.4340843e-05,6.767711e-10,1000,0
78936000,0,2294028,11.176392,0,0,0,34.906586,2.5710604e-05,6.422126e-10,1000,0
79936000,0,2294028,11.1763,0,0,0,34.906586,2.4955416e-05,6.167486e-10,1000,0
80936000,0,2294028,11.17627,0,0,0,34.906586,2.558039e-05,6.4678984e-10,1000,0
81936000,0,2294028,11.1762085,0,0,0,34.906586,2.420378e-05,6.545456e-10,1000,0
82936000,0,2294028,11.1762085,0,0,0,34.906586,2.482022e-05,7.293155e-10,1000,0
83936000,0,2294028,11.176239,0,0,0,34.906586,2.5331776e-05,1.3657387e-09,1000,0
84936000,0,2294028,11.176361,0,0,0,34.906586,2.3899645e-05,9.473966e-10,1000,0
85936000,0,2294028,11.176483,0,0,0,34.906586,2.2805973e-05,8.4799556e-10,1000,0
86936000,0,2294028,11.176666,0,0,0,34.906586,2.4017452e-05,1.299902e-09,1000,0
87936000,0,2294028,11.17691,0,0,0,34.906586,2.6783473e-05,1.5663527e-08,1000,0
88936000,0,2294028,11.178406,0,0,0,34.906586,2.7783193e-05,1.969039e-08,1000,0
89936000,0,2294028,11.180664,0,0,0,34.906586,2.3739072e-05,9.1538785e-09,1000,0
90936000,0,2294028,11.183685,0,0,0,34.906586,2.3180584e-05,1.2700326e-08,1000,0
91936000,0,2294028,11.188629,0,0,0,34.906586,2.4356936e-05,1.9600012e-08,1000,0
92936000,0,2294028,11.19574,0,0,0,34.906586,2.5595504e-05,2.6777764e-08,1000,0
93936000,0,2294028,11.203613,0,0,0,34.906586,2.435552e-05,3.0104847e-08,1000,0
94936000,0,2294028,11.210968,0,0,0,34.906586,2.4251209e-05,2.805485e-08,1000,0
95936000,0,2294028,11.217804,0,0,0,34.906586,2.3975657e-05,2.7937833e-08,1000,0
96936000,0,2294028,11.220856,0,0,0,34.906586,2.3869557e-05,3.987119e-08,1000,0
97936000,0,2294028,11.213379,0,0,0,34.906586,2.4369052e-05,4.1154955e-08,1000,0
98936000,0,2294028,11.197815,0,0,0,34.906586,2.353945e-05,2.993305e-08,1000,0
99936000,0,2294028,11.183472,0,0,0,34.906586,2.1369922e-05,1.6323352e-08,1000,0
100936000,0,2294028,11.175262,0,0,0,34.906586,2.2963522e-05,1.0924492e-08,1000,0
101936000,0,2294028,11.172516,0,0,0,34.906586,2.570947e-05,8.39392e-09,1000,0
102936000,0,2294028,11.172333,0,0,0,34.906586,2.4562176e-05,7.862678e-09,1000,0
103936000,0,2294028,11.172302,0,0,0,34.906586,2.300749e-05,9.482799e-09,1000,0
104936000,0,2294028,11.171265,0,0,0,34.906586,2.5049683e-05,1.39622225e-08,1000,0
105936000,0,2294028,11.169403,0,0,0,34.906586,2.3804574e-05,1.4627864e-08,1000,0
106936000,0,2294028,11.167633,0,0,0,34.906586,2.4029117e-05,1.4310687e-08,1000,0
107936000,0,2294028,11.166626,0,0,0,34.906586,2.4277395e-05,1.2789633e-08,1000,0
108936000,0,2294028,11.166229,0,0,0,34.906586,2.4608347e-05,1.2247524e-08,1000,0
109936000,0,2294028,11.165955,0,0,0,34.906586,2.4497867e-05,1.3288236e-08,1000,0
110936000,0,2294028,11.16568,0,0,0,34.906586,2.4498231e-05,1.422142e-08,1000,0
111936000,0,2294028,11.165466,0,0,0,34.906586,2.417723e-05,1.5958873e-08,1000,0
112936000,0,2294028,11.165497,0,0,0,34.906586,2.2278995e-05,1.486876e-08,1000,0
113936000,0,2294028,11.165894,0,0,0,34.906586,2.2656015e-05,1.5520122e-08,1000,0
114936000,0,2294028,11.166901,0,0,0,34.906586,2.5238185e-05,1.602315e-08,1000,0
115936000,0,2294028,11.168701,0,0,0,34.906586,2.565079e-05,1.5159102e-08,1000,0
116936000,0,2294028,11.171326,0,0,0,34.906586,2.532981e-05,1.427737e-08,1000,0
117936000,0,2294028,11.174927,0,0,0,34.906586,2.351969e-05,1.334135e-08,1000,0
118936000,0,2294028,11.179718,0,0,0,34.906586,2.4823214e-05,1.504949e-08,1000,0
119936000,0,2294028,11.185608,0,0,0,34.906586,2.3621817e-05,1.507558e-08,1000,0
120936000,0,2294028,11.191803,0,0,0,34.906586,2.287431e-05,1.716177e-08,1000,0
121936000,0,2294028,11.19693,0,0,0,34.906586,3.1971827e-05,5.9584444e-08,1000,0
122936000,0,2294028,11.19397,0,0,0,34.906586,2.8809778e-05,5.6346135e-08,1000,0
123936000,0,2294028,11.185883,0,0,0,34.906586,2.4870513e-05,3.8802153e-08,1000,0
124936000,0,2294028,11.180481,0,0,0,34.906586,2.5607236e-05,3.283113e-08,1000,0
125936000,0,2294028,11.179413,0,0,0,34.906586,2.3588136e-05,2.6155677e-08,1000,0
126940000,0,2294028,11.18103,0,0,0,34.906586,2.5597095e-05,2.861209e-08,1000,0
127952000,0,2294028,11.183655,0,0,0,34.906586,2.5292478e-05,2.9241926e-08,1000,0
128964000,0,2294028,11.185699,0,0,0,34.906586,2.4970801e-05,2.3817924e-08,1000,0
129976000,0,2294028,11.186005,0,0,0,34.906586,2.4195942e-05,1.7381868e-08,1000,0
130988000,0,2294028,11.184204,0,0,0,34.906586,2.5721862e-05,1.2662802e-08,1000,0
132000000,0,2294028,11.181305,0,0,0,34.906586,2.393558e-05,6.8335018e-09,1000,0
133004000,0,2294028,11.178833,0,0,0,34.906586,2.3160614e-05,3.3448753e-09,1000,0
134004000,0,2294028,11.177551,0,0,0,34.906586,2.4671092e-05,1.7235156e-09,1000,0
135004000,0,2294028,11.177216,0,0,0,34.906586,2.4602376e-05,1.0604744e-09,1000,0
136004000,0,2294028,11.177338,0,0,0,34.906586,2.4675264e-05,7.0907463e-10,1000,0
137004000,0,2294028,11.177551,0,0,0,34.906586,2.4175557e-05,6.3550776e-10,1000,0
138004000,0,2294028,11.177765,0,0,0,34.906586,2.4097717e-05,5.6951427e-10,1000,0
139004000,0,2294028,11.177887,0,0,0,34.906586,2.3730297e-05,5.290158e-10,1000,0
140004000,0,2294028,11.177856,0,0,0,34.906586,2.2723692e-05,5.7272004e-10,1000,0
141004000,0,2294028,11.177795,0,0,0,34.906586,2.3841516e-05,5.74567e-10,1000,0
142004000,0,2294028,11.177673,0,0,0,34.906586,2.435349e-05,5.529929e-10,1000,0
143004000,0,2294028,11.17749,0,0,0,34.906586,2.5163345e-05,6.9199874e-10,1000,0
144004000,0,2294028,11.177399,0,0,0,34.906586,2.5185203e-05,7.075823e-10,1000,0
145004000,0,2294028,11.177338,0,0,0,34.906586,2.3614184e-05,6.5384137e-10,1000,0
146004000,0,2294028,11.177368,0,0,0,34.906586,2.442364e-05,1.3016155e-09,1000,0
147004000,0,2294028,11.1770935,0,0,0,34.906586,2.5624651e-05,2.0638462e-08,1000,0
148004000,0,2294028,11.179993,0,0,0,34.906586,2.461723e-05,2.1289313e-08,1000,0
149004000,0,2294028,11.182892,0,0,0,34.906586,2.423778e-05,2.1806452e-08,1000,0
150004000,0,2294028,11.183472,0,0,0,34.906586,2.5206788e-05,2.1514275e-08,1000,0
151004000,0,2294028,11.182037,0,0,0,34.906586,2.271655e-05,1.3455557e-08,1000,0
152004000,0,2294028,11.179993,0,0,0,34.906586,2.4478817e-05,8.8907495e-09,1000,0
153004000,0,2294028,11.178314,0,0,0,34.906586,2.4190877e-05,4.689653e-09,1000,0
154004000,0,2294028,11.177399,0,0,0,34.906586,2.53541e-05,2.270989e-09,1000,0
155004000,0,2294028,11.177002,0,0,0,34.906586,2.4897028e-05,1.197306e-09,1000,0
156004000,0,2294028,11.17688,0,0,0,34.906586,2.4775682e-05,7.2354367e-10,1000,0
157004000,0,2294028,11.176819,0,0,0,34.906586,2.5086261e-05,6.9087136e-10,1000,0
158004000,0,2294028,11.176819,0,0,0,34.906586,2.5920162e-05,6.5495326e-10,1000,0
159004000,0,2294028,11.176758,0,0,0,34.906586,2.4859397e-05,6.411768e-10,1000,0
160004000,0,2294028,11.176819,0,0,0,34.906586,2.4723207e-05,7.413701e-10,1000,0
161004000,0,2294028,11.177002,0,0,0,34.906586,2.357382e-05,6.309917e-10,1000,0
162004000,0,2294028,11.177246,0,0,0,34.906586,2.5489775e-05,6.7664585e-10,1000,0
163004000,0,2294028,11.177521,0,0,0,34.906586,2.592362e-05,7.0642253e-10,1000,0
164004000,0,2294028,11.177734,0,0,0,34.906586,2.493081e-05,6.208054e-10,1000,0
165004000,0,2294028,11.1779175,0,0,0,34.906586,2.5370791e-05,6.5805406e-10,1000,0
166004000,0,2294028,11.17804,0,0,0,34.906586,2.497032e-05,6.143798e-10,1000,0
167004000,0,2294028,11.17804,0,0,0,34.906586,2.4650692e-05,5.1157034e-10,1000,0
168004000,0,2294028,11.1779785,0,0,0,34.906586,2.3711958e-05,5.849756e-10,1000,0
169004000,0,2294028,11.1779175,0,0,0,34.906586,2.355836e-05,6.03944e-10,1000,0
170004000,0,2294028,11.177887,0,0,0,34.906586,2.4472127e-05,5.482984e-10,1000,0
171004000,0,2294028,11.177795,0,0,0,34.906586,2.4544868e-05,5.712503e-10,1000,0
172004000,0,2294028,11.177704,0,0,0,34.906586,2.4985933e-05,6.3973715e-10,1000,0
173004000,0,2294028,11.177704,0,0,0,34.906586,2.3266872e-05,6.0959926e-10,1000,0
174004000,0,2294028,11.177704,0,0,0,34.906586,2.5241672e-05,6.0236e-10,1000,0
175004000,0,2294028,11.177704,0,0,0,34.906586,2.4723893e-05,6.6549294e-10,1000,0
176004000,0,2294028,11.177673,0,0,0,34.906586,2.2130269e-05,4.6355972e-10,1000,0
177004000,0,2294028,11.177612,0,0,0,34.906586,2.4695122e-05,2.989705e-09,1000,0
178004000,0,2294028,11.177551,0,0,0,34.906586,2.4174728e-05,1.0152261e-08,1000,0
179004000,0,2294028,11.177551,0,0,0,34.906586,2.5974941e-05,1.7473399e-08,1000,0
180004000,0,2294028,11.177551,0,0,0,34.906586,2.46326e-05,2.1472228e-08,1000,0
181004000,0,2294028,11.178314,0,0,0,34.906586,2.5286206e-05,2.9311352e-08,1000,0
182004000,0,2294028,11.197113,0,0,0,34.906586,2.466017e-05,2.5328086e-08,1000,0
183004000,0,2294028,11.233429,0,0,0,34.906586,2.4360626e-05,1.9596326e-08,1000,0
184004000,0,2294028,11.270905,0,0,0,34.906586,2.5513704e-05,2.2402642e-08,1000,0
185004000,0,2294028,11.303833,0,0,0,34.906586,2.3302166e-05,2.0628667e-08,1000,0
186004000,0,2294028,11.3315735,0,0,0,34.906586,2.5571964e-05,2.4016236e-08,1000,0
187004000,0,2294028,11.354858,0,0,0,34.906586,2.4034682e-05,2.2468338e-08,1000,0
188004000,0,2294028,11.375458,0,0,0,34.906586,2.5061414e-05,2.4217567e-08,1000,0
189004000,0,2294028,11.395538,0,0,0,34.906586,2.4223862e-05,2.232526e-08,1000,0
190004000,0,2294028,11.416748,0,0,0,34.906586,2.6479382e-05,2.194032e-08,1000,0
191004000,0,2294028,11.438995,0,0,0,34.906586,2.5813484e-05,2.3810134e-08,1000,0
192004000,0,2294028,11.449249,0,0,0,34.906586,2.372356e-05,2.1977224e-08,1000,0
193004000,0,2294028,11.452454,0,0,0,34.906586,2.3688603e-05,1.7017364e-08,1000,0
194004000,0,2294028,11.457275,0,0,0,34.906586,2.5918667e-05,1.4318803e-08,1000,0
195004000,0,2294028,11.463318,0,0,0,34.906586,2.250692e-05,1.1646615e-08,1000,0
196004000,0,2294028,11.468628,0,0,0,34.906586,2.346337e-05,1.3169552e-08,1000,0
197004000,0,2294028,11.472626,0,0,0,34.906586,2.4060379e-05,1.522539e-08,1000,0
198004000,0,2294028,11.475647,0,0,0,34.906586,2.3802162e-05,1.6166124e-08,1000,0
199004000,0,2294028,11.47821,0,0,0,34.906586,2.5830694e-05,1.9379312e-08,1000,0
200004000,0,2294028,11.480774,0,0,0,34.906586,2.6182575e-05,1.933117e-08,1000,0
201004000,0,2294028,11.483978,0,0,0,34.906586,2.2757376e-05,1.5015036e-08,1000,0
202004000,0,2294028,11.488403,0,0,0,34.906586,2.1978607e-05,1.364522e-08,1000,0
203004000,0,2294028,11.494232,0,0,0,34.906586,2.460346e-05,1.5607512e-08,1000,0
204004000,0,2294028,11.501526,0,0,0,34.906586,2.4905097e-05,1.705263e-08,1000,0
205004000,0,2294028,11.509857,0,0,0,34.906586,2.4166784e-05,1.8808073e-08,1000,0
206004000,0,2294028,11.517944,0,0,0,34.906586,2.3161534e-05,2.035434e-08,1000,0
207004000,0,2294028,11.524292,0,0,0,34.906586,2.3556338e-05,1.9688047e-08,1000,0
208004000,0,2294028,11.529205,0,0,0,34.906586,2.3656177e-05,1.8159366e-08,1000,0
209004000,0,2294028,11.533936,0,0,0,34.906586,2.4494477e-05,1.6260916e-08,1000,0
210004000,0,2294028,11.538666,0,0,0,34.906586,2.5478543e-05,1.7898762e-08,1000,0
211004000,0,2294028,11.542114,0,0,0,34.906586,2.5391066e-05,2.0660861e-08,1000,0
212004000,0,2294028,11.540955,0,0,0,34.906586,2.5994506e-05,2.761335e-08,1000,0
213004000,0,2294028,11.53241,0,0,0,34.906586,2.2844773e-05,2.6154517e-08,1000,0
214004000,0,2294028,11.519623,0,0,0,34.906586,2.5084304e-05,2.574429e-08,1000,0
215004000,0,2294028,11.509338,0,0,0,34.906586,2.491525e-05,1.723323e-08,1000,0
216004000,0,2294028,11.506134,0,0,0,34.906586,2.4167486e-05,9.346198e-09,1000,0
217004000,0,2294028,11.508209,0,0,0,34.906586,2.3731562e-05,4.8357065e-09,1000,0
218004000,0,2294028,11.51181,0,0,0,34.906586,2.5072353e-05,2.860933e-09,1000,0
219004000,0,2294028,11.514374,0,0,0,34.906586,2.536513e-05,2.998519e-09,1000,0
220004000,0,2294028,11.515167,0,0,0,34.906586,2.5369853e-05,3.0253557e-09,1000,0
221004000,0,2294028,11.5147705,0,0,0,34.906586,2.4855319e-05,2.752213e-09,1000,0
222004000,0,2294028,11.514069,0,0,0,34.906586,2.4750409e-05,2.3971658e-09,1000,0
223004000,0,2294028,11.513489,0,0,0,34.906586,2.4735335e-05,1.8217498e-09,1000,0
224004000,0,2294028,11.513092,0,0,0,34.906586,2.4703493e-05,1.3577302e-09,1000,0
225004000,0,2294028,11.512695,0,0,0,34.906586,2.4640321e-05,9.63745e-10,1000,0
226004000,0,2294028,11.515442,0,0,0,34.906586,2.5669311e-05,1.4447501e-08,1000,0
227004000,0,2294028,11.531128,0,0,0,34.906586,2.3997725e-05,4.73658e-09,1000,0
228004000,0,2294028,11.549286,0,0,0,34.906586,2.5681935e-05,3.2648857e-09,1000,0
229004000,0,2294028,11.564209,0,0,0,34.906586,2.4510891e-05,3.189971e-09,1000,0
230004000,0,2294028,11.57608,0,0,0,34.906586,2.2979215e-05,1.408987e-09,1000,0
231004000,0,2294028,11.586639,0,0,0,34.906586,2.4621979e-05,1.1426526e-09,1000,0
232004000,0,2294028,11.597015,0,0,0,34.906586,2.502939e-05,1.0120342e-09,1000,0
233004000,0,2294028,11.607178,0,0,0,34.906586,2.7215374e-05,1.0339575e-09,1000,0
234004000,0,2294028,11.617035,0,0,0,34.906586,2.4825584e-05,7.928349e-10,1000,0
235004000,0,2294028,11.626526,0,0,0,34.906586,2.5300425e-05,6.8921147e-10,1000,0
236004000,0,2294028,11.635834,0,0,0,34.906586,2.391684e-05,5.8497224e-10,1000,0
237004000,0,2294028,11.64505,0,0,0,34.906586,2.3268678e-05,4.5424242e-10,1000,0
238004000,0,2294028,11.654205,0,0,0,34.906586,2.5134887e-05,4.792076e-10,1000,0
239004000,0,2294028,11.6633,0,0,0,34.906586,2.6878746e-05,6.080862e-10,1000,0
240004000,0,2294028,11.672363,0,0,0,34.906586,2.6259746e-05,6.173019e-10,1000,0
241004000,0,2294028,11.681488,0,0,0,34.906586,2.410558e-05,5.802157e-10,1000,0
242004000,0,2294028,11.690552,0,0,0,34.906586,2.3819612e-05,5.3147253e-10,1000,0
243004000,0,2294028,11.699585,0,0,0,34.906586,2.2714015e-05,4.669805e-10,1000,0
244004000,0,2294028,11.708649,0,0,0,34.906586,2.3374769e-05,7.418365e-10,1000,0
245004000,0,2294028,11.718018,0,0,0,34.906586,2.409265e-05,7.820701e-10,1000,0
246004000,0,2294028,11.727692,0,0,0,34.906586,2.4417624e-05,7.5526185e-10,1000,0
247004000,0,2294028,11.737488,0,0,0,34.906586,2.5303947e-05,6.918567e-10,1000,0
248004000,0,2294028,11.747345,0,0,0,34.906586,2.4628396e-05,6.3510225e-10,1000,0
249004000,0,2294028,11.757202,0,0,0,34.906586,2.4529241e-05,6.489088e-10,1000,0
250004000,0,2294028,11.76712,0,0,0,34.906586,2.585661e-05,7.326181e-10,1000,0
251004000,0,2294028,11.7771,0,0,0,34.906586,2.303356e-05,4.994464e-10,1000,0
252004000,0,2294028,11.786926,0,0,0,34.906586,2.393591e-05,5.1401067e-10,1000,0
253004000,0,2294028,11.796539,0,0,0,34.906586,2.3970282e-05,5.541756e-10,1000,0
254004000,0,2294028,11.806213,0,0,0,34.906586,2.3116358e-05,7.021195e-10,1000,0
255008000,0,2294028,11.8172,0,0,0,34.906586,2.4213718e-05,6.641665e-09,1000,0
255920000,0,2294028,11.828796,0,0,0,34.906586,0.00013196097,2.15564e-08,1000,0
256932000,0,2294028,11.828796,0,0,0,34.906586,3.134184e-05,2.1980853e-09,1000,0
257944000,0,2294028,11.828796,0,0,0,34.906586,2.5631407e-05,7.4612266e-10,1000,0
258956000,0,2294028,11.828796,0,0,0,34.906586,2.4317085e-05,6.3055605e-10,1000,0
