timestamp,ref_timestamp,ref_lat,ref_lon,x,y,z,delta_xy[0],delta_xy[1],delta_z,vx,vy,vz,z_deriv,delta_vxy[0],delta_vxy[1],delta_vz,ax,ay,az,yaw,ref_alt,dist_bottom,eph,epv,evh,evv,vxy_max,vz_max,hagl_min,hagl_max,xy_valid,z_valid,v_xy_valid,v_z_valid,xy_reset_counter,z_reset_counter,vxy_reset_counter,vz_reset_counter,xy_global,z_global,dist_bottom_valid
180000,0,47.3977419,8.545594,0.011119492,0.0,0.0,0.0,0.0,0.0,0.0,0.0,0.0,0.0,0.0,0.0,0.0,0.0,0.0,0.0,1.5707964,488.12402,0.0,0.0,0.0,0.0,0.0,inf,inf,inf,inf,1,1,1,1,0,0,0,0,1,1,0
280000,0,47.3977419,8.545594,0.0,0.0,0.0,0.0,0.0,0.0,0.0,0.0,0.0,0.0,0.0,0.0,0.0,0.0,0.0,0.0,1.5707964,488.12402,0.0,0.0,0.0,0.0,0.0,inf,inf,inf,inf,1,1,1,1,0,0,0,0,1,1,0
380000,0,47.3977419,8.545594,0.011119492,0.0,0.0,0.0,0.0,0.0,0.0,0.0,0.0,0.0,0.0,0.0,0.0,0.0,0.0,0.0,1.5707964,488.12402,0.0,0.0,0.0,0.0,0.0,inf,inf,inf,inf,1,1,1,1,0,0,0,0,1,1,0
480000,0,47.3977419,8.545594,0.0,0.0,0.0,0.0,0.0,0.0,0.0,0.0,0.0,0.0,0.0,0.0,0.0,0.0,0.0,0.0,1.5707964,488.12402,0.0,0.0,0.0,0.0,0.0,inf,inf,inf,inf,1,1,1,1,0,0,0,0,1,1,0
580000,0,47.3977419,8.545594,0.011119492,0.0,0.0,0.0,0.0,0.0,0.0,0.0,0.0,0.0,0.0,0.0,0.0,0.0,0.0,0.0,1.5707964,488.12402,0.0,0.0,0.0,0.0,0.0,inf,inf,inf,inf,1,1,1,1,0,0,0,0,1,1,0
680000,0,47.3977419,8.545594,0.0,0.0,0.0,0.0,0.0,0.0,0.0,0.0,0.0,0.0,0.0,0.0,0.0,0.0,0.0,0.0,1.5707964,488.12402,0.0,0.0,0.0,0.0,0.0,inf,inf,inf,inf,1,1,1,1,0,0,0,0,1,1,0
780000,0,47.3977419,8.545594,0.011119492,0.0,0.0,0.0,0.0,0.0,0.0,0.0,0.0,0.0,0.0,0.0,0.0,0.0,0.0,0.0,1.5707964,488.12402,0.0,0.0,0.0,0.0,0.0,inf,inf,inf,inf,1,1,1,1,0,0,0,0,1,1,0
880000,0,47.3977419,8.545594,0.0,0.0,0.0,0.0,0.0,0.0,0.0,0.0,0.0,0.0,0.0,0.0,0.0,0.0,0.0,0.0,1.5707964,488.12402,0.0,0.0,0.0,0.0,0.0,inf,inf,inf,inf,1,1,1,1,0,0,0,0,1,1,0
980000,0,47.3977419,8.545594,0.011119492,0.0,0.0,0.0,0.0,0.0,0.0,0.0,0.0,0.0,0.0,0.0,0.0,0.0,0.0,0.0,1.5707964,488.12402,0.0,0.0,0.0,0.0,0.0,inf,inf,inf,inf,1,1,1,1,0,0,0,0,1,1,0
1080000,0,47.3977419,8.545594,0.0,0.0,0.0,0.0,0.0,0.0,0.0,0.0,0.0,0.0,0.0,0.0,0.0,0.0,0.0,0.0,1.5707964,488.12402,0.0,0.0,0.0,0.0,0.0,inf,inf,inf,inf,1,1,1,1,0,0,0,0,1,1,0
1180000,0,47.3977419,8.545594,0.011119492,0.0,0.0,0.0,0.0,0.0,0.0,0.0,0.0,0.0,0.0,0.0,0.0,0.0,0.0,0.0,1.5707964,488.12402,0.0,0.0,0.0,0.0,0.0,inf,inf,inf,inf,1,1,1,1,0,0,0,0,1,1,0
1280000,0,47.3977419,8.545594,0.0,0.0,0.0,0.0,0.0,0.0,0.0,0.0,0.0,0.0,0.0,0.0,0.0,0.0,0.0,0.0,1.5707964,488.12402,0.0,0.0,0.0,0.0,0.0,inf,inf,inf,inf,1,1,1,1,0,0,0,0,1,1,0
1380000,0,47.3977419,8.545594,0.011119492,0.0,0.0,0.0,0.0,0.0,0.0,0.0,0.0,0.0,0.0,0.0,0.0,0.0,0.0,0.0,1.5707964,488.12402,0.0,0.0,0.0,0.0,0.0,inf,inf,inf,inf,1,1,1,1,0,0,0,0,1,1,0
1480000,0,47.3977419,8.545594,0.0,0.0,0.0,0.0,0.0,0.0,0.0,0.0,0.0,0.0,0.0,0.0,0.0,0.0,0.0,0.0,1.5707964,488.12402,0.0,0.0,0.0,0.0,0.0,inf,inf,inf,inf,1,1,1,1,0,0,0,0,1,1,0
1580000,0,47.3977419,8.545594,0.011119492,0.0,0.0,0.0,0.0,0.0,0.0,0.0,0.0,0.0,0.0,0.0,0.0,0.0,0.0,0.0,1.5707964,488.12402,0.0,0.0,0.0,0.0,0.0,inf,inf,inf,inf,1,1,1,1,0,0,0,0,1,1,0
1680000,0,47.3977419,8.545594,0.0,0.0,0.0,0.0,0.0,0.0,0.0,0.0,0.0,0.0,0.0,0.0,0.0,0.0,0.0,0.0,1.5707964,488.12402,0.0,0.0,0.0,0.0,0.0,inf,inf,inf,inf,1,1,1,1,0,0,0,0,1,1,0
1780000,0,47.3977419,8.545594,0.011119492,0.0,0.0,0.0,0.0,0.0,0.0,0.0,0.0,0.0,0.0,0.0,0.0,0.0,0.0,0.0,1.5707964,488.12402,0.0,0.0,0.0,0.0,0.0,inf,inf,inf,inf,1,1,1,1,0,0,0,0,1,1,0
1880000,0,47.3977419,8.545594,0.0,0.0,0.0,0.0,0.0,0.0,0.0,0.0,0.0,0.0,0.0,0.0,0.0,0.0,0.0,0.0,1.5707964,488.12402,0.0,0.0,0.0,0.0,0.0,inf,inf,inf,inf,1,1,1,1,0,0,0,0,1,1,0
1980000,0,47.3977419,8.545594,0.011119492,0.0,0.0,0.0,0.0,0.0,0.0,0.0,0.0,0.0,0.0,0.0,0.0,0.0,0.0,0.0,1.5707964,488.12402,0.0,0.0,0.0,0.0,0.0,inf,inf,inf,inf,1,1,1,1,0,0,0,0,1,1,0
2076000,0,47.3977419,8.545594,0.011119492,0.0,0.0,0.0,0.0,0.0,0.0,0.0,0.0,0.0,0.0,0.0,0.0,0.0,0.0,0.0,1.5707964,488.12402,0.0,0.0,0.0,0.0,0.0,inf,inf,inf,inf,1,1,1,1,0,0,0,0,1,1,0
2176000,0,47.3977419,8.545594,0.0,0.0,0.0,0.0,0.0,0.0,0.0,0.0,0.0,0.0,0.0,0.0,0.0,0.0,0.0,0.0,1.5707964,488.12402,0.0,0.0,0.0,0.0,0.0,inf,inf,inf,inf,1,1,1,1,0,0,0,0,1,1,0
2276000,0,47.3977419,8.545594,0.011119492,0.0,0.0,0.0,0.0,0.0,0.0,0.0,0.0,0.0,0.0,0.0,0.0,0.0,0.0,0.0,1.5707964,488.12402,0.0,0.0,0.0,0.0,0.0,inf,inf,inf,inf,1,1,1,1,0,0,0,0,1,1,0
2384000,0,47.3977419,8.545594,0.0,0.0,0.0,0.0,0.0,0.0,0.0,0.0,0.0,0.0,0.0,0.0,0.0,0.0,0.0,0.0,1.5707964,488.12402,0.0,0.0,0.0,0.0,0.0,inf,inf,inf,inf,1,1,1,1,0,0,0,0,1,1,0
2488000,0,47.3977419,8.545594,0.0,0.0,0.0,0.0,0.0,0.0,0.0,0.0,0.0,0.0,0.0,0.0,0.0,0.0,0.0,0.0,1.5707964,488.12402,0.0,0.0,0.0,0.0,0.0,inf,inf,inf,inf,1,1,1,1,0,0,0,0,1,1,0
2584000,0,47.3977419,8.545594,0.0,0.0,0.0,0.0,0.0,0.0,0.0,0.0,0.0,0.0,0.0,0.0,0.0,0.0,0.0,0.0,1.5707964,488.12402,0.0,0.0,0.0,0.0,0.0,inf,inf,inf,inf,1,1,1,1,0,0,0,0,1,1,0
2688000,0,47.3977419,8.545594,0.0,0.0,0.0,0.0,0.0,0.0,0.0,0.0,0.0,0.0,0.0,0.0,0.0,0.0,0.0,0.0,1.5707964,488.12402,0.0,0.0,0.0,0.0,0.0,inf,inf,inf,inf,1,1,1,1,0,0,0,0,1,1,0
2784000,0,47.3977419,8.545594,0.0,0.0,0.0,0.0,0.0,0.0,0.0,0.0,0.0,0.0,0.0,0.0,0.0,0.0,0.0,0.0,1.5707964,488.12402,0.0,0.0,0.0,0.0,0.0,inf,inf,inf,inf,1,1,1,1,0,0,0,0,1,1,0
2888000,0,47.3977419,8.545594,0.0,0.0,0.0,0.0,0.0,0.0,0.0,0.0,0.0,0.0,0.0,0.0,0.0,0.0,0.0,0.0,1.5707964,488.12402,0.0,0.0,0.0,0.0,0.0,inf,inf,inf,inf,1,1,1,1,0,0,0,0,1,1,0
2988000,0,47.3977419,8.545594,0.011119492,0.0,0.0,0.0,0.0,0.0,0.0,0.0,0.0,0.0,0.0,0.0,0.0,0.0,0.0,0.0,1.5707964,488.12402,0.0,0.0,0.0,0.0,0.0,inf,inf,inf,inf,1,1,1,1,0,0,0,0,1,1,0
3088000,0,47.3977419,8.545594,0.0,0.0,0.0,0.0,0.0,0.0,0.0,0.0,0.0,0.0,0.0,0.0,0.0,0.0,0.0,0.0,1.5707964,488.12402,0.0,0.0,0.0,0.0,0.0,inf,inf,inf,inf,1,1,1,1,0,0,0,0,1,1,0
3188000,0,47.3977419,8.545594,0.011119492,0.0,0.0,0.0,0.0,0.0,0.0,0.0,0.0,0.0,0.0,0.0,0.0,0.0,0.0,0.0,1.5707964,488.12402,0.0,0.0,0.0,0.0,0.0,inf,inf,inf,inf,1,1,1,1,0,0,0,0,1,1,0
3288000,0,47.3977419,8.545594,0.0,0.0,0.0,0.0,0.0,0.0,0.0,0.0,0.0,0.0,0.0,0.0,0.0,0.0,0.0,0.0,1.5707964,488.12402,0.0,0.0,0.0,0.0,0.0,inf,inf,inf,inf,1,1,1,1,0,0,0,0,1,1,0
3388000,0,47.3977419,8.545594,0.011119492,0.0,0.0,0.0,0.0,0.0,0.0,0.0,0.0,0.0,0.0,0.0,0.0,0.0,0.0,0.0,1.5707964,488.12402,0.0,0.0,0.0,0.0,0.0,inf,inf,inf,inf,1,1,1,1,0,0,0,0,1,1,0
3488000,0,47.3977419,8.545594,0.0,0.0,0.0,0.0,0.0,0.0,0.0,0.0,0.0,0.0,0.0,0.0,0.0,0.0,0.0,0.0,1.5707964,488.12402,0.0,0.0,0.0,0.0,0.0,inf,inf,inf,inf,1,1,1,1,0,0,0,0,1,1,0
3584000,0,47.3977419,8.545594,0.0,0.0,0.0,0.0,0.0,0.0,0.0,0.0,0.0,0.0,0.0,0.0,0.0,0.0,0.0,0.0,1.5707964,488.12402,0.0,0.0,0.0,0.0,0.0,inf,inf,inf,inf,1,1,1,1,0,0,0,0,1,1,0
3688000,0,47.3977419,8.545594,0.0,0.0,0.0,0.0,0.0,0.0,0.0,0.0,0.0,0.0,0.0,0.0,0.0,0.0,0.0,0.0,1.5707964,488.12402,0.0,0.0,0.0,0.0,0.0,inf,inf,inf,inf,1,1,1,1,0,0,0,0,1,1,0
3788000,0,47.3977419,8.545594,0.011119492,0.0,0.0,0.0,0.0,0.0,0.0,0.0,0.0,0.0,0.0,0.0,0.0,0.0,0.0,0.0,1.5707964,488.12402,0.0,0.0,0.0,0.0,0.0,inf,inf,inf,inf,1,1,1,1,0,0,0,0,1,1,0
3888000,0,47.3977419,8.545594,0.0,0.0,0.0,0.0,0.0,0.0,0.0,0.0,0.0,0.0,0.0,0.0,0.0,0.0,0.0,0.0,1.5707964,488.12402,0.0,0.0,0.0,0.0,0.0,inf,inf,inf,inf,1,1,1,1,0,0,0,0,1,1,0
3988000,0,47.3977419,8.545594,0.011119492,0.0,0.0,0.0,0.0,0.0,0.0,0.0,0.0,0.0,0.0,0.0,0.0,0.0,0.0,0.0,1.5707964,488.12402,0.0,0.0,0.0,0.0,0.0,inf,inf,inf,inf,1,1,1,1,0,0,0,0,1,1,0
4088000,0,47.3977419,8.545594,0.0,0.0,0.0,0.0,0.0,0.0,0.0,0.0,0.0,0.0,0.0,0.0,0.0,0.0,0.0,0.0,1.5707964,488.12402,0.0,0.0,0.0,0.0,0.0,inf,inf,inf,inf,1,1,1,1,0,0,0,0,1,1,0
4188000,0,47.3977419,8.545594,0.011119492,0.0,0.0,0.0,0.0,0.0,0.0,0.0,0.0,0.0,0.0,0.0,0.0,0.0,0.0,0.0,1.5707964,488.12402,0.0,0.0,0.0,0.0,0.0,inf,inf,inf,inf,1,1,1,1,0,0,0,0,1,1,0
4288000,0,47.3977419,8.545594,0.0,0.0,0.0,0.0,0.0,0.0,0.0,0.0,0.0,0.0,0.0,0.0,0.0,0.0,0.0,0.0,1.5707964,488.12402,0.0,0.0,0.0,0.0,0.0,inf,inf,inf,inf,1,1,1,1,0,0,0,0,1,1,0
4388000,0,47.3977419,8.545594,0.011119492,0.0,0.0,0.0,0.0,0.0,0.0,0.0,0.0,0.0,0.0,0.0,0.0,0.0,0.0,0.0,1.5707964,488.12402,0.0,0.0,0.0,0.0,0.0,inf,inf,inf,inf,1,1,1,1,0,0,0,0,1,1,0
4488000,0,47.3977419,8.545594,0.0,0.0,0.0,0.0,0.0,0.0,0.0,0.0,0.0,0.0,0.0,0.0,0.0,0.0,0.0,0.0,1.5707964,488.12402,0.0,0.0,0.0,0.0,0.0,inf,inf,inf,inf,1,1,1,1,0,0,0,0,1,1,0
4588000,0,47.3977419,8.545594,0.011119492,0.0,0.0,0.0,0.0,0.0,0.0,0.0,0.0,0.0,0.0,0.0,0.0,0.0,0.0,0.0,1.5707964,488.12402,0.0,0.0,0.0,0.0,0.0,inf,inf,inf,inf,1,1,1,1,0,0,0,0,1,1,0
4688000,0,47.3977419,8.545594,0.0,0.0,0.0,0.0,0.0,0.0,0.0,0.0,0.0,0.0,0.0,0.0,0.0,0.0,0.0,0.0,1.5707964,488.12402,0.0,0.0,0.0,0.0,0.0,inf,inf,inf,inf,1,1,1,1,0,0,0,0,1,1,0
4788000,0,47.3977419,8.545594,0.011119492,0.0,0.0,0.0,0.0,0.0,0.0,0.0,0.0,0.0,0.0,0.0,0.0,0.0,0.0,0.0,1.5707964,488.12402,0.0,0.0,0.0,0.0,0.0,inf,inf,inf,inf,1,1,1,1,0,0,0,0,1,1,0
4888000,0,47.3977419,8.545594,0.0,0.0,0.0,0.0,0.0,0.0,0.0,0.0,0.0,0.0,0.0,0.0,0.0,0.0,0.0,0.0,1.5707964,488.12402,0.0,0.0,0.0,0.0,0.0,inf,inf,inf,inf,1,1,1,1,0,0,0,0,1,1,0
4988000,0,47.3977419,8.545594,0.011119492,0.0,0.0,0.0,0.0,0.0,0.0,0.0,0.0,0.0,0.0,0.0,0.0,0.0,0.0,0.0,1.5707964,488.12402,0.0,0.0,0.0,0.0,0.0,inf,inf,inf,inf,1,1,1,1,0,0,0,0,1,1,0
5088000,0,47.3977419,8.545594,0.0,0.0,0.0,0.0,0.0,0.0,0.0,0.0,0.0,0.0,0.0,0.0,0.0,0.0,0.0,0.0,1.5707964,488.12402,0.0,0.0,0.0,0.0,0.0,inf,inf,inf,inf,1,1,1,1,0,0,0,0,1,1,0
5188000,0,47.3977419,8.545594,0.011119492,0.0,0.0,0.0,0.0,0.0,0.0,0.0,0.0,0.0,0.0,0.0,0.0,0.0,0.0,0.0,1.5707964,488.12402,0.0,0.0,0.0,0.0,0.0,inf,inf,inf,inf,1,1,1,1,0,0,0,0,1,1,0
5288000,0,47.3977419,8.545594,0.0,0.0,0.0,0.0,0.0,0.0,0.0,0.0,0.0,0.0,0.0,0.0,0.0,0.0,0.0,0.0,1.5707964,488.12402,0.0,0.0,0.0,0.0,0.0,inf,inf,inf,inf,1,1,1,1,0,0,0,0,1,1,0
5388000,0,47.3977419,8.545594,0.011119492,0.0,0.0,0.0,0.0,0.0,0.0,0.0,0.0,0.0,0.0,0.0,0.0,0.0,0.0,0.0,1.5707964,488.12402,0.0,0.0,0.0,0.0,0.0,inf,inf,inf,inf,1,1,1,1,0,0,0,0,1,1,0
5488000,0,47.3977419,8.545594,0.0,0.0,0.0,0.0,0.0,0.0,0.0,0.0,0.0,0.0,0.0,0.0,0.0,0.0,0.0,0.0,1.5707964,488.12402,0.0,0.0,0.0,0.0,0.0,inf,inf,inf,inf,1,1,1,1,0,0,0,0,1,1,0
5588000,0,47.3977419,8.545594,0.011119492,0.0,0.0,0.0,0.0,0.0,0.0,0.0,0.0,0.0,0.0,0.0,0.0,0.0,0.0,0.0,1.5707964,488.12402,0.0,0.0,0.0,0.0,0.0,inf,inf,inf,inf,1,1,1,1,0,0,0,0,1,1,0
5688000,0,47.3977419,8.545594,0.0,0.0,0.0,0.0,0.0,0.0,0.0,0.0,0.0,0.0,0.0,0.0,0.0,0.0,0.0,0.0,1.5707964,488.12402,0.0,0.0,0.0,0.0,0.0,inf,inf,inf,inf,1,1,1,1,0,0,0,0,1,1,0
5788000,0,47.3977419,8.545594,0.011119492,0.0,0.0,0.0,0.0,0.0,0.0,0.0,0.0,0.0,0.0,0.0,0.0,0.0,0.0,0.0,1.5707964,488.12402,0.0,0.0,0.0,0.0,0.0,inf,inf,inf,inf,1,1,1,1,0,0,0,0,1,1,0
5888000,0,47.3977419,8.545594,0.0,0.0,0.0,0.0,0.0,0.0,0.0,0.0,0.0,0.0,0.0,0.0,0.0,0.0,0.0,0.0,1.5707964,488.12402,0.0,0.0,0.0,0.0,0.0,inf,inf,inf,inf,1,1,1,1,0,0,0,0,1,1,0
5988000,0,47.3977419,8.545594,0.011119492,0.0,0.0,0.0,0.0,0.0,0.0,0.0,0.0,0.0,0.0,0.0,0.0,0.0,0.0,0.0,1.5707964,488.12402,0.0,0.0,0.0,0.0,0.0,inf,inf,inf,inf,1,1,1,1,0,0,0,0,1,1,0
6088000,0,47.3977419,8.545594,0.0,0.0,0.0,0.0,0.0,0.0,0.0,0.0,0.0,0.0,0.0,0.0,0.0,0.0,0.0,0.0,1.5707964,488.12402,0.0,0.0,0.0,0.0,0.0,inf,inf,inf,inf,1,1,1,1,0,0,0,0,1,1,0
6188000,0,47.3977419,8.545594,0.011119492,0.0,0.0,0.0,0.0,0.0,0.0,0.0,0.0,0.0,0.0,0.0,0.0,0.0,0.0,0.0,1.5707964,488.12402,0.0,0.0,0.0,0.0,0.0,inf,inf,inf,inf,1,1,1,1,0,0,0,0,1,1,0
6288000,0,47.3977419,8.545594,0.0,0.0,0.0,0.0,0.0,0.0,0.0,0.0,0.0,0.0,0.0,0.0,0.0,0.0,0.0,0.0,1.5707964,488.12402,0.0,0.0,0.0,0.0,0.0,inf,inf,inf,inf,1,1,1,1,0,0,0,0,1,1,0
6388000,0,47.3977419,8.545594,0.011119492,0.0,0.0,0.0,0.0,0.0,0.0,0.0,0.0,0.0,0.0,0.0,0.0,0.0,0.0,0.0,1.5707964,488.12402,0.0,0.0,0.0,0.0,0.0,inf,inf,inf,inf,1,1,1,1,0,0,0,0,1,1,0
6488000,0,47.3977419,8.545594,0.0,0.0,0.0,0.0,0.0,0.0,0.0,0.0,0.0,0.0,0.0,0.0,0.0,0.0,0.0,0.0,1.5707964,488.12402,0.0,0.0,0.0,0.0,0.0,inf,inf,inf,inf,1,1,1,1,0,0,0,0,1,1,0
6588000,0,47.3977419,8.545594,0.011119492,0.0,0.0,0.0,0.0,0.0,0.0,0.0,0.0,0.0,0.0,0.0,0.0,0.0,0.0,0.0,1.5707964,488.12402,0.0,0.0,0.0,0.0,0.0,inf,inf,inf,inf,1,1,1,1,0,0,0,0,1,1,0
6692000,0,47.3977419,8.545594,0.011119492,0.0,0.0,0.0,0.0,0.0,0.0,0.0,0.0,0.0,0.0,0.0,0.0,0.0,0.0,0.0,1.5707964,488.12402,0.0,0.0,0.0,0.0,0.0,inf,inf,inf,inf,1,1,1,1,0,0,0,0,1,1,0
6792000,0,47.3977419,8.545594,0.0,0.0,0.0,0.0,0.0,0.0,0.0,0.0,0.0,0.0,0.0,0.0,0.0,0.0,0.0,0.0,1.5707964,488.12402,0.0,0.0,0.0,0.0,0.0,inf,inf,inf,inf,1,1,1,1,0,0,0,0,1,1,0
6892000,0,47.3977419,8.545594,0.011119492,0.0,0.0,0.0,0.0,0.0,0.0,0.0,0.0,0.0,0.0,0.0,0.0,0.0,0.0,0.0,1.5707964,488.12402,0.0,0.0,0.0,0.0,0.0,inf,inf,inf,inf,1,1,1,1,0,0,0,0,1,1,0
6992000,0,47.3977419,8.545594,0.0,0.0,0.0,0.0,0.0,0.0,0.0,0.0,0.0,0.0,0.0,0.0,0.0,0.0,0.0,0.0,1.5707964,488.12402,0.0,0.0,0.0,0.0,0.0,inf,inf,inf,inf,1,1,1,1,0,0,0,0,1,1,0
7092000,0,47.3977419,8.545594,0.011119492,0.0,0.0,0.0,0.0,0.0,0.0,0.0,0.0,0.0,0.0,0.0,0.0,0.0,0.0,0.0,1.5707964,488.12402,0.0,0.0,0.0,0.0,0.0,inf,inf,inf,inf,1,1,1,1,0,0,0,0,1,1,0
7192000,0,47.3977419,8.545594,0.0,0.0,0.0,0.0,0.0,0.0,0.0,0.0,0.0,0.0,0.0,0.0,0.0,0.0,0.0,0.0,1.5707964,488.12402,0.0,0.0,0.0,0.0,0.0,inf,inf,inf,inf,1,1,1,1,0,0,0,0,1,1,0
7292000,0,47.3977419,8.545594,0.011119492,0.0,0.0,0.0,0.0,0.0,0.0,0.0,0.0,0.0,0.0,0.0,0.0,0.0,0.0,0.0,1.5707964,488.12402,0.0,0.0,0.0,0.0,0.0,inf,inf,inf,inf,1,1,1,1,0,0,0,0,1,1,0
7392000,0,47.3977419,8.545594,0.0,0.0,0.0,0.0,0.0,0.0,0.0,0.0,0.0,0.0,0.0,0.0,0.0,0.0,0.0,0.0,1.5707964,488.12402,0.0,0.0,0.0,0.0,0.0,inf,inf,inf,inf,1,1,1,1,0,0,0,0,1,1,0
7492000,0,47.3977419,8.545594,0.011119492,0.0,0.0,0.0,0.0,0.0,0.0,0.0,0.0,0.0,0.0,0.0,0.0,0.0,0.0,0.0,1.5707964,488.12402,0.0,0.0,0.0,0.0,0.0,inf,inf,inf,inf,1,1,1,1,0,0,0,0,1,1,0
7592000,0,47.3977419,8.545594,0.0,0.0,0.0,0.0,0.0,0.0,0.0,0.0,0.0,0.0,0.0,0.0,0.0,0.0,0.0,0.0,1.5707964,488.12402,0.0,0.0,0.0,0.0,0.0,inf,inf,inf,inf,1,1,1,1,0,0,0,0,1,1,0
7692000,0,47.3977419,8.545594,0.011119492,0.0,0.0,0.0,0.0,0.0,0.0,0.0,0.0,0.0,0.0,0.0,0.0,0.0,0.0,0.0,1.5707964,488.12402,0.0,0.0,0.0,0.0,0.0,inf,inf,inf,inf,1,1,1,1,0,0,0,0,1,1,0
7792000,0,47.3977419,8.545594,0.0,0.0,0.0,0.0,0.0,0.0,0.0,0.0,0.0,0.0,0.0,0.0,0.0,0.0,0.0,0.0,1.5707964,488.12402,0.0,0.0,0.0,0.0,0.0,inf,inf,inf,inf,1,1,1,1,0,0,0,0,1,1,0
7892000,0,47.3977419,8.545594,0.011119492,0.0,0.0,0.0,0.0,0.0,0.0,0.0,0.0,0.0,0.0,0.0,0.0,0.0,0.0,0.0,1.5707964,488.12402,0.0,0.0,0.0,0.0,0.0,inf,inf,inf,inf,1,1,1,1,0,0,0,0,1,1,0
7992000,0,47.3977419,8.545594,0.0,0.0,0.0,0.0,0.0,0.0,0.0,0.0,0.0,0.0,0.0,0.0,0.0,0.0,0.0,0.0,1.5707964,488.12402,0.0,0.0,0.0,0.0,0.0,inf,inf,inf,inf,1,1,1,1,0,0,0,0,1,1,0
8092000,0,47.3977419,8.545594,0.011119492,0.0,0.0,0.0,0.0,0.0,0.0,0.0,0.0,0.0,0.0,0.0,0.0,0.0,0.0,0.0,1.5707964,488.12402,0.0,0.0,0.0,0.0,0.0,inf,inf,inf,inf,1,1,1,1,0,0,0,0,1,1,0
8192000,0,47.3977419,8.545594,0.0,0.0,0.0,0.0,0.0,0.0,0.0,0.0,0.0,0.0,0.0,0.0,0.0,0.0,0.0,0.0,1.5707964,488.12402,0.0,0.0,0.0,0.0,0.0,inf,inf,inf,inf,1,1,1,1,0,0,0,0,1,1,0
8292000,0,47.3977419,8.545594,0.011119492,0.0,0.0,0.0,0.0,0.0,0.0,0.0,0.0,0.0,0.0,0.0,0.0,0.0,0.0,0.0,1.5707964,488.12402,0.0,0.0,0.0,0.0,0.0,inf,inf,inf,inf,1,1,1,1,0,0,0,0,1,1,0
8392000,0,47.3977419,8.545594,0.0,0.0,0.0,0.0,0.0,0.0,0.0,0.0,0.0,0.0,0.0,0.0,0.0,0.0,0.0,0.0,1.5707964,488.12402,0.0,0.0,0.0,0.0,0.0,inf,inf,inf,inf,1,1,1,1,0,0,0,0,1,1,0
8492000,0,47.3977419,8.545594,0.011119492,0.0,0.0,0.0,0.0,0.0,0.0,0.0,0.0,0.0,0.0,0.0,0.0,0.0,0.0,0.0,1.5707964,488.12402,0.0,0.0,0.0,0.0,0.0,inf,inf,inf,inf,1,1,1,1,0,0,0,0,1,1,0
8592000,0,47.3977419,8.545594,0.0,0.0,0.0,0.0,0.0,0.0,0.0,0.0,0.0,0.0,0.0,0.0,0.0,0.0,0.0,0.0,1.5707964,488.12402,0.0,0.0,0.0,0.0,0.0,inf,inf,inf,inf,1,1,1,1,0,0,0,0,1,1,0
8692000,0,47.3977419,8.545594,0.011119492,0.0,0.0,0.0,0.0,0.0,0.0,0.0,0.0,0.0,0.0,0.0,0.0,0.0,0.0,0.0,1.5707964,488.12402,0.0,0.0,0.0,0.0,0.0,inf,inf,inf,inf,1,1,1,1,0,0,0,0,1,1,0
8792000,0,47.3977419,8.545594,0.0,0.0,0.0,0.0,0.0,0.0,0.0,0.0,0.0,0.0,0.0,0.0,0.0,0.0,0.0,0.0,1.5707964,488.12402,0.0,0.0,0.0,0.0,0.0,inf,inf,inf,inf,1,1,1,1,0,0,0,0,1,1,0
8892000,0,47.3977419,8.545594,0.011119492,0.0,0.0,0.0,0.0,0.0,0.0,0.0,0.0,0.0,0.0,0.0,0.0,0.0,0.0,0.0,1.5707964,488.12402,0.0,0.0,0.0,0.0,0.0,inf,inf,inf,inf,1,1,1,1,0,0,0,0,1,1,0
8992000,0,47.3977419,8.545594,0.0,0.0,0.0,0.0,0.0,0.0,0.0,0.0,0.0,0.0,0.0,0.0,0.0,0.0,0.0,0.0,1.5707964,488.12402,0.0,0.0,0.0,0.0,0.0,inf,inf,inf,inf,1,1,1,1,0,0,0,0,1,1,0
9092000,0,47.3977419,8.545594,0.011119492,0.0,0.0,0.0,0.0,0.0,0.0,0.0,0.0,0.0,0.0,0.0,0.0,0.0,0.0,0.0,1.5707964,488.12402,0.0,0.0,0.0,0.0,0.0,inf,inf,inf,inf,1,1,1,1,0,0,0,0,1,1,0
9192000,0,47.3977419,8.545594,0.0,0.0,0.0,0.0,0.0,0.0,0.0,0.0,0.0,0.0,0.0,0.0,0.0,0.0,0.0,0.0,1.5707964,488.12402,0.0,0.0,0.0,0.0,0.0,inf,inf,inf,inf,1,1,1,1,0,0,0,0,1,1,0
9292000,0,47.3977419,8.545594,0.0,0.0,0.0,0.0,0.0,0.0,0.0,0.0,0.0,0.0,0.0,0.0,0.0,0.0,0.0,0.0,1.5707964,488.12402,0.0,0.0,0.0,0.0,0.0,inf,inf,inf,inf,1,1,1,1,0,0,0,0,1,1,0
9392000,0,47.3977419,8.545594,0.0,0.0,0.0,0.0,0.0,0.0,0.0,0.0,0.0,0.0,0.0,0.0,0.0,0.0,0.0,0.0,1.5707964,488.12402,0.0,0.0,0.0,0.0,0.0,inf,inf,inf,inf,1,1,1,1,0,0,0,0,1,1,0
9492000,0,47.3977419,8.545594,0.011119492,0.0,0.0,0.0,0.0,0.0,0.0,0.0,0.0,0.0,0.0,0.0,0.0,0.0,0.0,0.0,1.5707964,488.12402,0.0,0.0,0.0,0.0,0.0,inf,inf,inf,inf,1,1,1,1,0,0,0,0,1,1,0
9592000,0,47.3977419,8.545594,0.0,0.0,0.0,0.0,0.0,0.0,0.0,0.0,0.0,0.0,0.0,0.0,0.0,0.0,0.0,0.0,1.5707964,488.12402,0.0,0.0,0.0,0.0,0.0,inf,inf,inf,inf,1,1,1,1,0,0,0,0,1,1,0
9692000,0,47.3977419,8.545594,0.011119492,0.0,0.0,0.0,0.0,0.0,0.0,0.0,0.0,0.0,0.0,0.0,0.0,0.0,0.0,0.0,1.5707964,488.12402,0.0,0.0,0.0,0.0,0.0,inf,inf,inf,inf,1,1,1,1,0,0,0,0,1,1,0
9792000,0,47.3977419,8.545594,0.0,0.0,0.0,0.0,0.0,0.0,0.0,0.0,0.0,0.0,0.0,0.0,0.0,0.0,0.0,0.0,1.5707964,488.12402,0.0,0.0,0.0,0.0,0.0,inf,inf,inf,inf,1,1,1,1,0,0,0,0,1,1,0
9892000,0,47.3977419,8.545594,0.011119492,0.0,0.0,0.0,0.0,0.0,0.0,0.0,0.0,0.0,0.0,0.0,0.0,0.0,0.0,0.0,1.5707964,488.12402,0.0,0.0,0.0,0.0,0.0,inf,inf,inf,inf,1,1,1,1,0,0,0,0,1,1,0
9992000,0,47.3977419,8.545594,0.0,0.0,0.0,0.0,0.0,0.0,0.0,0.0,0.0,0.0,0.0,0.0,0.0,0.0,0.0,0.0,1.5707964,488.12402,0.0,0.0,0.0,0.0,0.0,inf,inf,inf,inf,1,1,1,1,0,0,0,0,1,1,0
10092000,0,47.3977419,8.545594,0.0,0.0,0.0,0.0,0.0,0.0,0.0,0.0,0.0,0.0,0.0,0.0,0.0,0.0,0.0,0.0,1.5707964,488.12402,0.0,0.0,0.0,0.0,0.0,inf,inf,inf,inf,1,1,1,1,0,0,0,0,1,1,0
10192000,0,47.3977419,8.545594,0.0,0.0,0.0,0.0,0.0,0.0,0.0,0.0,0.0,0.0,0.0,0.0,0.0,0.0,0.0,0.0,1.5707964,488.12402,0.0,0.0,0.0,0.0,0.0,inf,inf,inf,inf,1,1,1,1,0,0,0,0,1,1,0
10292000,0,47.3977419,8.545594,0.011119492,0.0,0.0,0.0,0.0,0.0,0.0,0.0,0.0,0.0,0.0,0.0,0.0,0.0,0.0,0.0,1.5707964,488.12402,0.0,0.0,0.0,0.0,0.0,inf,inf,inf,inf,1,1,1,1,0,0,0,0,1,1,0
10392000,0,47.3977419,8.545594,0.0,0.0,0.0,0.0,0.0,0.0,0.0,0.0,0.0,0.0,0.0,0.0,0.0,0.0,0.0,0.0,1.5707964,488.12402,0.0,0.0,0.0,0.0,0.0,inf,inf,inf,inf,1,1,1,1,0,0,0,0,1,1,0
10492000,0,47.3977419,8.545594,0.011119492,0.0,0.0,0.0,0.0,0.0,0.0,0.0,0.0,0.0,0.0,0.0,0.0,0.0,0.0,0.0,1.5707964,488.12402,0.0,0.0,0.0,0.0,0.0,inf,inf,inf,inf,1,1,1,1,0,0,0,0,1,1,0
10592000,0,47.3977419,8.545594,0.0,0.0,0.0,0.0,0.0,0.0,0.0,0.0,0.0,0.0,0.0,0.0,0.0,0.0,0.0,0.0,1.5707964,488.12402,0.0,0.0,0.0,0.0,0.0,inf,inf,inf,inf,1,1,1,1,0,0,0,0,1,1,0
10692000,0,47.3977419,8.545594,0.011119492,0.0,0.0,0.0,0.0,0.0,0.0,0.0,0.0,0.0,0.0,0.0,0.0,0.0,0.0,0.0,1.5707964,488.12402,0.0,0.0,0.0,0.0,0.0,inf,inf,inf,inf,1,1,1,1,0,0,0,0,1,1,0
10792000,0,47.3977419,8.545594,0.011119492,0.0,0.0,0.0,0.0,0.0,0.0,0.0,0.0,0.0,0.0,0.0,0.0,0.0,0.0,0.0,1.5707964,488.12402,0.0,0.0,0.0,0.0,0.0,inf,inf,inf,inf,1,1,1,1,0,0,0,0,1,1,0
10892000,0,47.3977419,8.545594,0.011119492,0.0,0.0,0.0,0.0,0.0,0.0,0.0,0.0,0.0,0.0,0.0,0.0,0.0,0.0,0.0,1.5707964,488.12402,0.0,0.0,0.0,0.0,0.0,inf,inf,inf,inf,1,1,1,1,0,0,0,0,1,1,0
10992000,0,47.3977419,8.545594,0.0,0.0,0.0,0.0,0.0,0.0,0.0,0.0,0.0,0.0,0.0,0.0,0.0,0.0,0.0,0.0,1.5707964,488.12402,0.0,0.0,0.0,0.0,0.0,inf,inf,inf,inf,1,1,1,1,0,0,0,0,1,1,0
11092000,0,47.3977419,8.545594,0.011119492,0.0,0.0,0.0,0.0,0.0,0.0,0.0,0.0,0.0,0.0,0.0,0.0,0.0,0.0,0.0,1.5707964,488.12402,0.0,0.0,0.0,0.0,0.0,inf,inf,inf,inf,1,1,1,1,0,0,0,0,1,1,0
11192000,0,47.3977419,8.545594,0.0,0.0,0.0,0.0,0.0,0.0,0.0,0.0,0.0,0.0,0.0,0.0,0.0,0.0,0.0,0.0,1.5707964,488.12402,0.0,0.0,0.0,0.0,0.0,inf,inf,inf,inf,1,1,1,1,0,0,0,0,1,1,0
11292000,0,47.3977419,8.545594,0.011119492,0.0,0.0,0.0,0.0,0.0,0.0,0.0,0.0,0.0,0.0,0.0,0.0,0.0,0.0,0.0,1.5707964,488.12402,0.0,0.0,0.0,0.0,0.0,inf,inf,inf,inf,1,1,1,1,0,0,0,0,1,1,0
11392000,0,47.3977419,8.545594,0.0,0.0,0.0,0.0,0.0,0.0,0.0,0.0,0.0,0.0,0.0,0.0,0.0,0.0,0.0,0.0,1.5707964,488.12402,0.0,0.0,0.0,0.0,0.0,inf,inf,inf,inf,1,1,1,1,0,0,0,0,1,1,0
11492000,0,47.3977419,8.545594,0.011119492,0.0,0.0,0.0,0.0,0.0,0.0,0.0,0.0,0.0,0.0,0.0,0.0,0.0,0.0,0.0,1.5707964,488.12402,0.0,0.0,0.0,0.0,0.0,inf,inf,inf,inf,1,1,1,1,0,0,0,0,1,1,0
11592000,0,47.3977419,8.545594,0.0,0.0,0.0,0.0,0.0,0.0,0.0,0.0,0.0,0.0,0.0,0.0,0.0,0.0,0.0,0.0,1.5707964,488.12402,0.0,0.0,0.0,0.0,0.0,inf,inf,inf,inf,1,1,1,1,0,0,0,0,1,1,0
11692000,0,47.3977419,8.545594,0.011119492,0.0,0.0,0.0,0.0,0.0,0.0,0.0,0.0,0.0,0.0,0.0,0.0,0.0,0.0,0.0,1.5707964,488.12402,0.0,0.0,0.0,0.0,0.0,inf,inf,inf,inf,1,1,1,1,0,0,0,0,1,1,0
11792000,0,47.3977419,8.545594,0.0,0.0,0.0,0.0,0.0,0.0,0.0,0.0,0.0,0.0,0.0,0.0,0.0,0.0,0.0,0.0,1.5707964,488.12402,0.0,0.0,0.0,0.0,0.0,inf,inf,inf,inf,1,1,1,1,0,0,0,0,1,1,0
11892000,0,47.3977419,8.545594,0.011119492,0.0,0.0,0.0,0.0,0.0,0.0,0.0,0.0,0.0,0.0,0.0,0.0,0.0,0.0,0.0,1.5707964,488.12402,0.0,0.0,0.0,0.0,0.0,inf,inf,inf,inf,1,1,1,1,0,0,0,0,1,1,0
11992000,0,47.3977419,8.545594,0.0,0.0,0.0,0.0,0.0,0.0,0.0,0.0,0.0,0.0,0.0,0.0,0.0,0.0,0.0,0.0,1.5707964,488.12402,0.0,0.0,0.0,0.0,0.0,inf,inf,inf,inf,1,1,1,1,0,0,0,0,1,1,0
12092000,0,47.3977419,8.545594,0.011119492,0.0,0.0,0.0,0.0,0.0,0.0,0.0,0.0,0.0,0.0,0.0,0.0,0.0,0.0,0.0,1.5707964,488.12402,0.0,0.0,0.0,0.0,0.0,inf,inf,inf,inf,1,1,1,1,0,0,0,0,1,1,0
12192000,0,47.3977419,8.545594,0.0,0.0,0.0,0.0,0.0,0.0,0.0,0.0,0.0,0.0,0.0,0.0,0.0,0.0,0.0,0.0,1.5707964,488.12402,0.0,0.0,0.0,0.0,0.0,inf,inf,inf,inf,1,1,1,1,0,0,0,0,1,1,0
12292000,0,47.3977419,8.545594,0.011119492,0.0,0.0,0.0,0.0,0.0,0.0,0.0,0.0,0.0,0.0,0.0,0.0,0.0,0.0,0.0,1.5707964,488.12402,0.0,0.0,0.0,0.0,0.0,inf,inf,inf,inf,1,1,1,1,0,0,0,0,1,1,0
12392000,0,47.3977419,8.545594,0.011119493,0.1129026,0.0,0.0,0.0,0.0,0.0,3.29,0.0,0.0,0.0,0.0,0.0,0.0,0.0,0.0,1.5708157,488.12402,0.0,0.0,0.0,0.0,0.0,inf,inf,inf,inf,1,1,1,1,0,0,0,0,1,1,0
12492000,0,47.3977419,8.545594,0.011119533,0.6924693,0.0,0.0,0.0,0.0,0.0,7.77,0.0,0.0,0.0,0.0,0.0,0.0,0.0,0.0,1.5708137,488.12402,0.0,0.0,0.0,0.0,0.0,inf,inf,inf,inf,1,1,1,1,0,0,0,0,1,1,0
12592000,0,47.3977419,8.545594,0.011119726,1.6559048,0.0,0.0,0.0,0.0,0.0,11.2699995,0.0,0.0,0.0,0.0,0.0,0.0,0.0,0.0,1.5708275,488.12402,0.0,0.0,0.0,0.0,0.0,inf,inf,inf,inf,1,1,1,1,0,0,0,0,1,1,0
12692000,0,47.3977419,8.545594,0.011120228,2.9354675,0.0,0.0,0.0,0.0,0.0,14.04,0.0,0.0,0.0,0.0,0.0,0.0,0.0,0.0,1.5709076,488.12402,0.0,0.0,0.0,0.0,0.0,inf,inf,inf,inf,1,1,1,1,0,0,0,0,1,1,0
12792000,0,47.3977419,8.545594,0.011121199,4.470943,0.0,0.0,0.0,0.0,0.049999997,16.3,-0.01,0.0,0.0,0.0,0.0,0.0,0.0,0.0,1.5784218,488.12402,0.0,0.0,0.0,0.0,0.0,inf,inf,inf,inf,1,1,1,1,0,0,0,0,1,1,0
12892000,0,47.3977419,8.545594,0.011122775,6.202116,-0.0029907227,0.0,0.0,0.0,0.03,18.17,-0.049999997,0.0,0.0,0.0,0.0,0.0,0.0,0.0,1.6090069,488.12402,0.0,0.0,0.0,0.0,0.0,inf,inf,inf,inf,1,1,1,1,0,0,0,0,1,1,0
12992000,0,47.3977419,8.545594,0.011125101,8.106406,-0.010986328,0.0,0.0,0.0,-0.12,19.689999,-0.08,0.0,0.0,0.0,0.0,0.0,0.0,0.0,1.6188284,488.12402,0.0,0.0,0.0,0.0,0.0,inf,inf,inf,inf,1,1,1,1,0,0,0,0,1,1,0
13092000,0,47.3977419,8.545594,-0.011110708,10.14618,-0.019989014,0.0,0.0,0.0,-0.26999998,20.85,-0.08,0.0,0.0,0.0,0.0,0.0,0.0,0.0,1.6016073,488.12402,0.0,0.0,0.0,0.0,0.0,inf,inf,inf,inf,1,1,1,1,0,0,0,0,1,1,0
13192000,0,47.3977419,8.545594,-0.044465095,12.283803,-0.027008057,0.0,0.0,0.0,-0.32999998,21.699999,-0.049999997,0.0,0.0,0.0,0.0,0.0,0.0,0.0,1.5780618,488.12402,0.0,0.0,0.0,0.0,0.0,inf,inf,inf,inf,1,1,1,1,0,0,0,0,1,1,0
13292000,0,47.3977419,8.545594,-0.07781851,14.496694,-0.03201294,0.0,0.0,0.0,-0.38,22.35,-0.06,0.0,0.0,0.0,0.0,0.0,0.0,0.0,1.5696568,488.12402,0.0,0.0,0.0,0.0,0.0,inf,inf,inf,inf,1,1,1,1,0,0,0,0,1,1,0
13392000,0,47.3977419,8.545594,-0.12229044,16.762274,-0.042999268,0.0,0.0,0.0,-0.51,22.85,-0.19,0.0,0.0,0.0,0.0,0.0,0.0,0.0,1.5828122,488.12402,0.0,0.0,0.0,0.0,0.0,inf,inf,inf,inf,1,1,1,1,0,0,0,0,1,1,0
13492000,0,47.3977419,8.545594,-0.18900032,19.073013,-0.07998657,0.0,0.0,0.0,-0.71999997,23.18,-0.55,0.0,0.0,0.0,0.0,0.0,0.0,0.0,1.6010889,488.12402,0.0,0.0,0.0,0.0,0.0,inf,inf,inf,inf,1,1,1,1,0,0,0,0,1,1,0
13592000,0,47.3977419,8.545594,-0.27794817,21.41386,-0.16000366,0.0,0.0,0.0,-0.97999996,23.38,-1.02,0.0,0.0,0.0,0.0,0.0,0.0,0.0,1.6131155,488.12402,0.0,0.0,0.0,0.0,0.0,inf,inf,inf,inf,1,1,1,1,0,0,0,0,1,1,0
13692000,0,47.3977419,8.545594,-0.38913405,23.762236,-0.28500366,0.0,0.0,0.0,-1.24,23.51,-1.4499999,0.0,0.0,0.0,0.0,0.0,0.0,0.0,1.6179756,488.12402,0.0,0.0,0.0,0.0,0.0,inf,inf,inf,inf,1,1,1,1,0,0,0,0,1,1,0
13792000,0,47.3977419,8.545594,-0.5225579,26.125664,-0.4500122,0.0,0.0,0.0,-1.4699999,23.58,-1.81,0.0,0.0,0.0,0.0,0.0,0.0,0.0,1.6221007,488.12402,0.0,0.0,0.0,0.0,0.0,inf,inf,inf,inf,1,1,1,1,0,0,0,0,1,1,0
13892000,0,47.3977419,8.545594,-0.67821974,28.49662,-0.64801025,0.0,0.0,0.0,-1.6999999,23.6,-2.1299999,0.0,0.0,0.0,0.0,0.0,0.0,0.0,1.6303648,488.12402,0.0,0.0,0.0,0.0,0.0,inf,inf,inf,inf,1,1,1,1,0,0,0,0,1,1,0
13992000,0,47.3977419,8.545594,-0.8672392,30.860048,-0.8779907,0.0,0.0,0.0,-1.93,23.59,-2.46,0.0,0.0,0.0,0.0,0.0,0.0,0.0,1.6420655,488.12402,0.0,0.0,0.0,0.0,0.0,inf,inf,inf,inf,1,1,1,1,0,0,0,0,1,1,0
14092000,0,47.3977419,8.545594,-1.0673771,33.223476,-1.1419983,0.0,0.0,0.0,-2.1699998,23.529999,-2.8,0.0,0.0,0.0,0.0,0.0,0.0,0.0,1.6536621,488.12402,0.0,0.0,0.0,0.0,0.0,inf,inf,inf,inf,1,1,1,1,0,0,0,0,1,1,0
14192000,0,47.3977419,8.545594,-1.3008726,35.57938,-1.4400024,0.0,0.0,0.0,-2.4099998,23.449999,-3.1399999,0.0,0.0,0.0,0.0,0.0,0.0,0.0,1.663141,488.12402,0.0,0.0,0.0,0.0,0.0,inf,inf,inf,inf,1,1,1,1,0,0,0,0,1,1,0
14292000,0,47.3977419,8.545594,-1.5566062,37.927757,-1.7709961,0.0,0.0,0.0,-2.6399999,23.359999,-3.46,0.0,0.0,0.0,0.0,0.0,0.0,0.0,1.6711601,488.12402,0.0,0.0,0.0,0.0,0.0,inf,inf,inf,inf,1,1,1,1,0,0,0,0,1,1,0
14396000,0,47.3977419,8.545594,-1.8456968,40.35893,-2.1489868,0.0,0.0,0.0,-2.87,23.24,-3.79,0.0,0.0,0.0,0.0,0.0,0.0,0.0,1.6797507,488.12402,0.0,0.0,0.0,0.0,0.0,inf,inf,inf,inf,1,1,1,1,0,0,0,0,1,1,0
14496000,0,47.3977419,8.545594,-2.1459067,42.684727,-2.5450134,0.0,0.0,0.0,-3.09,23.109999,-4.1,0.0,0.0,0.0,0.0,0.0,0.0,0.0,1.6891564,488.12402,0.0,0.0,0.0,0.0,0.0,inf,inf,inf,inf,1,1,1,1,0,0,0,0,1,1,0
14600000,0,47.3977419,8.545594,-2.4794734,45.08579,-2.9890137,0.0,0.0,0.0,-3.31,22.97,-4.42,0.0,0.0,0.0,0.0,0.0,0.0,0.0,1.6996891,488.12402,0.0,0.0,0.0,0.0,0.0,inf,inf,inf,inf,1,1,1,1,0,0,0,0,1,1,0
14700000,0,47.3977419,8.545594,-2.8241596,47.38148,-3.447998,0.0,0.0,0.0,-3.52,22.81,-4.74,0.0,0.0,0.0,0.0,0.0,0.0,0.0,1.7096059,488.12402,0.0,0.0,0.0,0.0,0.0,inf,inf,inf,inf,1,1,1,1,0,0,0,0,1,1,0
14800000,0,47.3977419,8.545594,-3.191084,49.662117,-3.9400024,0.0,0.0,0.0,-3.73,22.63,-5.0699997,0.0,0.0,0.0,0.0,0.0,0.0,0.0,1.7188824,488.12402,0.0,0.0,0.0,0.0,0.0,inf,inf,inf,inf,1,1,1,1,0,0,0,0,1,1,0
14900000,0,47.3977419,8.545594,-3.569127,51.920174,-4.4649963,0.0,0.0,0.0,-3.9299998,22.449999,-5.4,0.0,0.0,0.0,0.0,0.0,0.0,0.0,1.727966,488.12402,0.0,0.0,0.0,0.0,0.0,inf,inf,inf,inf,1,1,1,1,0,0,0,0,1,1,0
15004000,0,47.3977419,8.545594,-3.9916468,54.253498,-5.04599,0.0,0.0,0.0,-4.14,22.25,-5.74,0.0,0.0,0.0,0.0,0.0,0.0,0.0,1.7373239,488.12402,0.0,0.0,0.0,0.0,0.0,inf,inf,inf,inf,1,1,1,1,0,0,0,0,1,1,0
15104000,0,47.3977419,8.545594,-4.4141665,56.473923,-5.63501,0.0,0.0,0.0,-4.3199997,22.07,-6.02,0.0,0.0,0.0,0.0,0.0,0.0,0.0,1.7452277,488.12402,0.0,0.0,0.0,0.0,0.0,inf,inf,inf,inf,1,1,1,1,0,0,0,0,1,1,0
15204000,0,47.3977419,8.545594,-4.8589244,58.679295,-6.25,0.0,0.0,0.0,-4.46,21.92,-6.25,0.0,0.0,0.0,0.0,0.0,0.0,0.0,1.750593,488.12402,0.0,0.0,0.0,0.0,0.0,inf,inf,inf,inf,1,1,1,1,0,0,0,0,1,1,0
15304000,0,47.3977419,8.545594,-5.314801,60.86961,-6.8840027,0.0,0.0,0.0,-4.5499997,21.8,-6.42,0.0,0.0,0.0,0.0,0.0,0.0,0.0,1.7535136,488.12402,0.0,0.0,0.0,0.0,0.0,inf,inf,inf,inf,1,1,1,1,0,0,0,0,1,1,0
15404000,0,47.3977419,8.545594,-5.7706776,63.0524,-7.5350037,0.0,0.0,0.0,-4.5899997,21.71,-6.56,0.0,0.0,0.0,0.0,0.0,0.0,0.0,1.7548048,488.12402,0.0,0.0,0.0,0.0,0.0,inf,inf,inf,inf,1,1,1,1,0,0,0,0,1,1,0
15504000,0,47.3977419,8.545594,-6.2376723,65.22766,-8.196014,0.0,0.0,0.0,-4.61,21.64,-6.66,0.0,0.0,0.0,0.0,0.0,0.0,0.0,1.7551798,488.12402,0.0,0.0,0.0,0.0,0.0,inf,inf,inf,inf,1,1,1,1,0,0,0,0,1,1,0
15604000,0,47.3977419,8.545594,-6.693547,67.3954,-8.867004,0.0,0.0,0.0,-4.6,21.59,-6.75,0.0,0.0,0.0,0.0,0.0,0.0,0.0,1.7549273,488.12402,0.0,0.0,0.0,0.0,0.0,inf,inf,inf,inf,1,1,1,1,0,0,0,0,1,1,0
15704000,0,47.3977419,8.545594,-7.16054,69.56314,-9.54599,0.0,0.0,0.0,-4.56,21.55,-6.8199997,0.0,0.0,0.0,0.0,0.0,0.0,0.0,1.7537214,488.12402,0.0,0.0,0.0,0.0,0.0,inf,inf,inf,inf,1,1,1,1,0,0,0,0,1,1,0
15804000,0,47.3977419,8.545594,-7.6164136,71.72335,-10.231995,0.0,0.0,0.0,-4.5099998,21.51,-6.8799996,0.0,0.0,0.0,0.0,0.0,0.0,0.0,1.7514597,488.12402,0.0,0.0,0.0,0.0,0.0,inf,inf,inf,inf,1,1,1,1,0,0,0,0,1,1,0
15904000,0,47.3977419,8.545594,-8.061167,73.860985,-10.920013,0.0,0.0,0.0,-4.41,21.14,-6.8799996,0.0,0.0,0.0,0.0,0.0,0.0,0.0,1.7527492,488.12402,0.0,0.0,0.0,0.0,0.0,inf,inf,inf,inf,1,1,1,1,0,0,0,0,1,1,0
16004000,0,47.3977419,8.545594,-8.4948,75.960976,-11.610992,0.0,0.0,0.0,-4.29,20.779999,-6.93,0.0,0.0,0.0,0.0,0.0,0.0,0.0,1.7562238,488.12402,0.0,0.0,0.0,0.0,0.0,inf,inf,inf,inf,1,1,1,1,0,0,0,0,1,1,0
16104000,0,47.3977419,8.545594,-8.906195,77.948074,-12.277008,0.0,0.0,0.0,-4.16,20.529999,-6.91,0.0,0.0,0.0,0.0,0.0,0.0,0.0,1.7549537,488.12402,0.0,0.0,0.0,0.0,0.0,inf,inf,inf,inf,1,1,1,1,0,0,0,0,1,1,0
16204000,0,47.3977419,8.545594,-9.328707,80.0857,-12.988007,0.0,0.0,0.0,-4.0299997,20.41,-6.74,0.0,0.0,0.0,0.0,0.0,0.0,0.0,1.7475816,488.12402,0.0,0.0,0.0,0.0,0.0,inf,inf,inf,inf,1,1,1,1,0,0,0,0,1,1,0
16304000,0,47.3977419,8.545594,-9.72898,82.12549,-13.648987,0.0,0.0,0.0,-3.8999999,20.41,-6.47,0.0,0.0,0.0,0.0,0.0,0.0,0.0,1.737278,488.12402,0.0,0.0,0.0,0.0,0.0,inf,inf,inf,inf,1,1,1,1,0,0,0,0,1,1,0
16404000,0,47.3977419,8.545594,-10.118134,84.18032,-14.279999,0.0,0.0,0.0,-3.76,20.48,-6.15,0.0,0.0,0.0,0.0,0.0,0.0,0.0,1.7278684,488.12402,0.0,0.0,0.0,0.0,0.0,inf,inf,inf,inf,1,1,1,1,0,0,0,0,1,1,0
16504000,0,47.3977419,8.545594,-10.485047,86.23516,-14.881012,0.0,0.0,0.0,-3.62,20.55,-5.8799996,0.0,0.0,0.0,0.0,0.0,0.0,0.0,1.7210599,488.12402,0.0,0.0,0.0,0.0,0.0,inf,inf,inf,inf,1,1,1,1,0,0,0,0,1,1,0
16604000,0,47.3977419,8.545594,-10.84084,88.305046,-15.459015,0.0,0.0,0.0,-3.46,20.609999,-5.7,0.0,0.0,0.0,0.0,0.0,0.0,0.0,1.7161323,488.12402,0.0,0.0,0.0,0.0,0.0,inf,inf,inf,inf,1,1,1,1,0,0,0,0,1,1,0
16704000,0,47.3977419,8.545594,-11.174393,90.37494,-16.022003,0.0,0.0,0.0,-3.29,20.65,-5.5699997,0.0,0.0,0.0,0.0,0.0,0.0,0.0,1.7110993,488.12402,0.0,0.0,0.0,0.0,0.0,inf,inf,inf,inf,1,1,1,1,0,0,0,0,1,1,0
16804000,0,47.3977419,8.545594,-11.496826,92.44483,-16.574005,0.0,0.0,0.0,-3.1299999,20.689999,-5.47,0.0,0.0,0.0,0.0,0.0,0.0,0.0,1.7044425,488.12402,0.0,0.0,0.0,0.0,0.0,inf,inf,inf,inf,1,1,1,1,0,0,0,0,1,1,0
16904000,0,47.3977419,8.545594,-11.808139,94.52225,-17.117004,0.0,0.0,0.0,-2.96,20.73,-5.38,0.0,0.0,0.0,0.0,0.0,0.0,0.0,1.6961737,488.12402,0.0,0.0,0.0,0.0,0.0,inf,inf,inf,inf,1,1,1,1,0,0,0,0,1,1,0
17004000,0,47.3977419,8.545594,-12.086093,96.52439,-17.630005,0.0,0.0,0.0,-2.8,20.76,-5.2999997,0.0,0.0,0.0,0.0,0.0,0.0,0.0,1.6875204,488.12402,0.0,0.0,0.0,0.0,0.0,inf,inf,inf,inf,1,1,1,1,0,0,0,0,1,1,0
17104000,0,47.3977419,8.545594,-12.364045,98.68461,-18.178009,0.0,0.0,0.0,-2.6299999,20.779999,-5.23,0.0,0.0,0.0,0.0,0.0,0.0,0.0,1.6797059,488.12402,0.0,0.0,0.0,0.0,0.0,inf,inf,inf,inf,1,1,1,1,0,0,0,0,1,1,0
17204000,0,47.3977419,8.545594,-12.619758,100.769554,-18.699005,0.0,0.0,0.0,-2.46,20.8,-5.18,0.0,0.0,0.0,0.0,0.0,0.0,0.0,1.6730471,488.12402,0.0,0.0,0.0,0.0,0.0,inf,inf,inf,inf,1,1,1,1,0,0,0,0,1,1,0
17304000,0,47.3977419,8.545594,-12.86435,102.86202,-19.216003,0.0,0.0,0.0,-2.29,20.8,-5.15,0.0,0.0,0.0,0.0,0.0,0.0,0.0,1.6670107,488.12402,0.0,0.0,0.0,0.0,0.0,inf,inf,inf,inf,1,1,1,1,0,0,0,0,1,1,0
17404000,0,47.3977419,8.545594,-13.086703,104.94696,-19.730011,0.0,0.0,0.0,-2.1299999,20.8,-5.12,0.0,0.0,0.0,0.0,0.0,0.0,0.0,1.6608717,488.12402,0.0,0.0,0.0,0.0,0.0,inf,inf,inf,inf,1,1,1,1,0,0,0,0,1,1,0
17504000,0,47.3977419,8.545594,-13.286816,107.031906,-20.240997,0.0,0.0,0.0,-1.9799999,20.8,-5.1,0.0,0.0,0.0,0.0,0.0,0.0,0.0,1.6542568,488.12402,0.0,0.0,0.0,0.0,0.0,inf,inf,inf,inf,1,1,1,1,0,0,0,0,1,1,0
17604000,0,47.3977419,8.545594,-13.475809,109.11685,-20.75,0.0,0.0,0.0,-1.8199999,20.789999,-5.08,0.0,0.0,0.0,0.0,0.0,0.0,0.0,1.6474535,488.12402,0.0,0.0,0.0,0.0,0.0,inf,inf,inf,inf,1,1,1,1,0,0,0,0,1,1,0
17704000,0,47.3977419,8.545594,-13.653682,111.20179,-21.257996,0.0,0.0,0.0,-1.68,20.779999,-5.06,0.0,0.0,0.0,0.0,0.0,0.0,0.0,1.6409787,488.12402,0.0,0.0,0.0,0.0,0.0,inf,inf,inf,inf,1,1,1,1,0,0,0,0,1,1,0
17804000,0,47.3977419,8.545594,-13.820435,113.286736,-21.764008,0.0,0.0,0.0,-1.54,20.77,-5.0499997,0.0,0.0,0.0,0.0,0.0,0.0,0.0,1.6351297,488.12402,0.0,0.0,0.0,0.0,0.0,inf,inf,inf,inf,1,1,1,1,0,0,0,0,1,1,0
17904000,0,47.3977419,8.545594,-13.964947,115.37168,-22.269012,0.0,0.0,0.0,-1.4,20.76,-5.04,0.0,0.0,0.0,0.0,0.0,0.0,0.0,1.629807,488.12402,0.0,0.0,0.0,0.0,0.0,inf,inf,inf,inf,1,1,1,1,0,0,0,0,1,1,0
18004000,0,47.3977419,8.545594,-14.098339,117.4491,-22.77301,0.0,0.0,0.0,-1.28,20.74,-5.0299997,0.0,0.0,0.0,0.0,0.0,0.0,0.0,1.6247494,488.12402,0.0,0.0,0.0,0.0,0.0,inf,inf,inf,inf,1,1,1,1,0,0,0,0,1,1,0
18104000,0,47.3977419,8.545594,-14.220612,119.52651,-23.276001,0.0,0.0,0.0,-1.15,20.72,-5.0299997,0.0,0.0,0.0,0.0,0.0,0.0,0.0,1.6197846,488.12402,0.0,0.0,0.0,0.0,0.0,inf,inf,inf,inf,1,1,1,1,0,0,0,0,1,1,0
18204000,0,47.3977419,8.545594,-14.331764,121.60393,-23.778992,0.0,0.0,0.0,-1.04,20.699999,-5.02,0.0,0.0,0.0,0.0,0.0,0.0,0.0,1.6149192,488.12402,0.0,0.0,0.0,0.0,0.0,inf,inf,inf,inf,1,1,1,1,0,0,0,0,1,1,0
18304000,0,47.3977419,8.545594,-14.431796,123.681335,-24.281982,0.0,0.0,0.0,-0.93,20.68,-5.02,0.0,0.0,0.0,0.0,0.0,0.0,0.0,1.6102571,488.12402,0.0,0.0,0.0,0.0,0.0,inf,inf,inf,inf,1,1,1,1,0,0,0,0,1,1,0
18404000,0,47.3977419,8.545594,-14.520708,125.75875,-24.78302,0.0,0.0,0.0,-0.83,20.66,-5.0099998,0.0,0.0,0.0,0.0,0.0,0.0,0.0,1.6059315,488.12402,0.0,0.0,0.0,0.0,0.0,inf,inf,inf,inf,1,1,1,1,0,0,0,0,1,1,0
18504000,0,47.3977419,8.545594,-14.598499,127.82864,-25.283997,0.0,0.0,0.0,-0.72999996,20.65,-5.0,0.0,0.0,0.0,0.0,0.0,0.0,0.0,1.6019762,488.12402,0.0,0.0,0.0,0.0,0.0,inf,inf,inf,inf,1,1,1,1,0,0,0,0,1,1,0
18604000,0,47.3977419,8.545594,-14.665171,129.89853,-25.784973,0.0,0.0,0.0,-0.64,20.63,-5.0,0.0,0.0,0.0,0.0,0.0,0.0,0.0,1.598345,488.12402,0.0,0.0,0.0,0.0,0.0,inf,inf,inf,inf,1,1,1,1,0,0,0,0,1,1,0
18704000,0,47.3977419,8.545594,-14.731841,131.96841,-26.283997,0.0,0.0,0.0,-0.56,20.609999,-4.99,0.0,0.0,0.0,0.0,0.0,0.0,0.0,1.5949447,488.12402,0.0,0.0,0.0,0.0,0.0,inf,inf,inf,inf,1,1,1,1,0,0,0,0,1,1,0
18804000,0,47.3977419,8.545594,-14.776273,134.03078,-26.78302,0.0,0.0,0.0,-0.48,20.59,-4.98,0.0,0.0,0.0,0.0,0.0,0.0,0.0,1.5916876,488.12402,0.0,0.0,0.0,0.0,0.0,inf,inf,inf,inf,1,1,1,1,0,0,0,0,1,1,0
18904000,0,47.3977419,8.545594,-14.8207035,136.09314,-27.281982,0.0,0.0,0.0,-0.41,20.57,-4.97,0.0,0.0,0.0,0.0,0.0,0.0,0.0,1.5885947,488.12402,0.0,0.0,0.0,0.0,0.0,inf,inf,inf,inf,1,1,1,1,0,0,0,0,1,1,0
19004000,0,47.3977419,8.545594,-14.865133,138.1555,-27.778992,0.0,0.0,0.0,-0.34,20.55,-4.97,0.0,0.0,0.0,0.0,0.0,0.0,0.0,1.5857307,488.12402,0.0,0.0,0.0,0.0,0.0,inf,inf,inf,inf,1,1,1,1,0,0,0,0,1,1,0
19104000,0,47.3977419,8.545594,-14.898442,140.21786,-28.276978,0.0,0.0,0.0,-0.28,20.529999,-4.97,0.0,0.0,0.0,0.0,0.0,0.0,0.0,1.5831343,488.12402,0.0,0.0,0.0,0.0,0.0,inf,inf,inf,inf,1,1,1,1,0,0,0,0,1,1,0
19204000,0,47.3977419,8.545594,-14.920631,142.28021,-28.773987,0.0,0.0,0.0,-0.22999999,20.51,-4.96,0.0,0.0,0.0,0.0,0.0,0.0,0.0,1.5807754,488.12402,0.0,0.0,0.0,0.0,0.0,inf,inf,inf,inf,1,1,1,1,0,0,0,0,1,1,0
19304000,0,47.3977419,8.545594,-14.942821,144.33505,-29.27002,0.0,0.0,0.0,-0.17,20.49,-4.96,0.0,0.0,0.0,0.0,0.0,0.0,0.0,1.5785825,488.12402,0.0,0.0,0.0,0.0,0.0,inf,inf,inf,inf,1,1,1,1,0,0,0,0,1,1,0
19404000,0,47.3977419,8.545594,-14.953889,146.38988,-29.767029,0.0,0.0,0.0,-0.12,20.47,-4.96,0.0,0.0,0.0,0.0,0.0,0.0,0.0,1.576524,488.12402,0.0,0.0,0.0,0.0,0.0,inf,inf,inf,inf,1,1,1,1,0,0,0,0,1,1,0
19504000,0,47.3977419,8.545594,-14.964957,148.4372,-30.263,0.0,0.0,0.0,-0.08,20.439999,-4.96,0.0,0.0,0.0,0.0,0.0,0.0,0.0,1.5746205,488.12402,0.0,0.0,0.0,0.0,0.0,inf,inf,inf,inf,1,1,1,1,0,0,0,0,1,1,0
19604000,0,47.3977419,8.545594,-14.976024,150.49202,-30.76001,0.0,0.0,0.0,-0.04,20.42,-4.96,0.0,0.0,0.0,0.0,0.0,0.0,0.0,1.5729082,488.12402,0.0,0.0,0.0,0.0,0.0,inf,inf,inf,inf,1,1,1,1,0,0,0,0,1,1,0
19704000,0,47.3977419,8.545594,-14.975971,152.53932,-31.255981,0.0,0.0,0.0,0.0,20.4,-4.95,0.0,0.0,0.0,0.0,0.0,0.0,0.0,1.5713594,488.12402,0.0,0.0,0.0,0.0,0.0,inf,inf,inf,inf,1,1,1,1,0,0,0,0,1,1,0
19804000,0,47.3977419,8.545594,-14.975918,154.5791,-31.750977,0.0,0.0,0.0,0.02,20.369999,-4.95,0.0,0.0,0.0,0.0,0.0,0.0,0.0,1.5699553,488.12402,0.0,0.0,0.0,0.0,0.0,inf,inf,inf,inf,1,1,1,1,0,0,0,0,1,1,0
19904000,0,47.3977419,8.545594,-14.975863,156.62642,-32.24701,0.0,0.0,0.0,0.049999997,20.35,-4.94,0.0,0.0,0.0,0.0,0.0,0.0,0.0,1.5686688,488.12402,0.0,0.0,0.0,0.0,0.0,inf,inf,inf,inf,1,1,1,1,0,0,0,0,1,1,0
20004000,0,47.3977419,8.545594,-14.964688,158.6662,-32.741028,0.0,0.0,0.0,0.08,20.32,-4.94,0.0,0.0,0.0,0.0,0.0,0.0,0.0,1.5674741,488.12402,0.0,0.0,0.0,0.0,0.0,inf,inf,inf,inf,1,1,1,1,0,0,0,0,1,1,0
20104000,0,47.3977419,8.545594,-14.953514,160.69844,-33.234985,0.0,0.0,0.0,0.099999994,20.3,-4.93,0.0,0.0,0.0,0.0,0.0,0.0,0.0,1.5663662,488.12402,0.0,0.0,0.0,0.0,0.0,inf,inf,inf,inf,1,1,1,1,0,0,0,0,1,1,0
20204000,0,47.3977419,8.545594,-14.942338,162.73822,-33.729004,0.0,0.0,0.0,0.13,20.279999,-4.93,0.0,0.0,0.0,0.0,0.0,0.0,0.0,1.5653374,488.12402,0.0,0.0,0.0,0.0,0.0,inf,inf,inf,inf,1,1,1,1,0,0,0,0,1,1,0
20304000,0,47.3977419,8.545594,-14.931162,164.77048,-34.221985,0.0,0.0,0.0,0.14999999,20.25,-4.93,0.0,0.0,0.0,0.0,0.0,0.0,0.0,1.5644019,488.12402,0.0,0.0,0.0,0.0,0.0,inf,inf,inf,inf,1,1,1,1,0,0,0,0,1,1,0
20404000,0,47.3977419,8.545594,-14.908865,166.7952,-34.715027,0.0,0.0,0.0,0.17,20.23,-4.92,0.0,0.0,0.0,0.0,0.0,0.0,0.0,1.5635676,488.12402,0.0,0.0,0.0,0.0,0.0,inf,inf,inf,inf,1,1,1,1,0,0,0,0,1,1,0
20504000,0,47.3977419,8.545594,-14.897688,168.82745,-35.208008,0.0,0.0,0.0,0.19,20.199999,-4.92,0.0,0.0,0.0,0.0,0.0,0.0,0.0,1.5628288,488.12402,0.0,0.0,0.0,0.0,0.0,inf,inf,inf,inf,1,1,1,1,0,0,0,0,1,1,0
20604000,0,47.3977419,8.545594,-14.87539,170.85217,-35.700012,0.0,0.0,0.0,0.19999999,20.18,-4.91,0.0,0.0,0.0,0.0,0.0,0.0,0.0,1.5621743,488.12402,0.0,0.0,0.0,0.0,0.0,inf,inf,inf,inf,1,1,1,1,0,0,0,0,1,1,0
20704000,0,47.3977419,8.545594,-14.853091,172.87689,-36.192017,0.0,0.0,0.0,0.22,20.16,-4.9,0.0,0.0,0.0,0.0,0.0,0.0,0.0,1.561587,488.12402,0.0,0.0,0.0,0.0,0.0,inf,inf,inf,inf,1,1,1,1,0,0,0,0,1,1,0
20804000,0,47.3977419,8.545594,-14.830792,174.89409,-36.682007,0.0,0.0,0.0,0.22999999,20.14,-4.9,0.0,0.0,0.0,0.0,0.0,0.0,0.0,1.5610387,488.12402,0.0,0.0,0.0,0.0,0.0,inf,inf,inf,inf,1,1,1,1,0,0,0,0,1,1,0
20904000,0,47.3977419,8.545594,-14.808493,176.91882,-37.171997,0.0,0.0,0.0,0.24,20.119999,-4.89,0.0,0.0,0.0,0.0,0.0,0.0,0.0,1.5605233,488.12402,0.0,0.0,0.0,0.0,0.0,inf,inf,inf,inf,1,1,1,1,0,0,0,0,1,1,0
21004000,0,47.3977419,8.545594,-14.775073,178.93602,-37.659973,0.0,0.0,0.0,0.25,20.1,-4.88,0.0,0.0,0.0,0.0,0.0,0.0,0.0,1.560031,488.12402,0.0,0.0,0.0,0.0,0.0,inf,inf,inf,inf,1,1,1,1,0,0,0,0,1,1,0
21104000,0,47.3977419,8.545594,-14.752772,180.9457,-38.14801,0.0,0.0,0.0,0.26,20.08,-4.87,0.0,0.0,0.0,0.0,0.0,0.0,0.0,1.5595888,488.12402,0.0,0.0,0.0,0.0,0.0,inf,inf,inf,inf,1,1,1,1,0,0,0,0,1,1,0
21204000,0,47.3977419,8.545594,-14.730471,182.96289,-38.635986,0.0,0.0,0.0,0.26999998,20.06,-4.87,0.0,0.0,0.0,0.0,0.0,0.0,0.0,1.5592043,488.12402,0.0,0.0,0.0,0.0,0.0,inf,inf,inf,inf,1,1,1,1,0,0,0,0,1,1,0
21304000,0,47.3977419,8.545594,-14.697049,184.97255,-39.122986,0.0,0.0,0.0,0.28,20.029999,-4.8599997,0.0,0.0,0.0,0.0,0.0,0.0,0.0,1.5588605,488.12402,0.0,0.0,0.0,0.0,0.0,inf,inf,inf,inf,1,1,1,1,0,0,0,0,1,1,0
21404000,0,47.3977419,8.545594,-14.6747465,186.98222,-39.60901,0.0,0.0,0.0,0.28,20.01,-4.85,0.0,0.0,0.0,0.0,0.0,0.0,0.0,1.5585554,488.12402,0.0,0.0,0.0,0.0,0.0,inf,inf,inf,inf,1,1,1,1,0,0,0,0,1,1,0
21504000,0,47.3977419,8.545594,-14.641324,188.98438,-40.09503,0.0,0.0,0.0,0.29,19.99,-4.8399997,0.0,0.0,0.0,0.0,0.0,0.0,0.0,1.5582699,488.12402,0.0,0.0,0.0,0.0,0.0,inf,inf,inf,inf,1,1,1,1,0,0,0,0,1,1,0
21604000,0,47.3977419,8.545594,-14.607901,190.99403,-40.57898,0.0,0.0,0.0,0.29999998,19.97,-4.8399997,0.0,0.0,0.0,0.0,0.0,0.0,0.0,1.5579606,488.12402,0.0,0.0,0.0,0.0,0.0,inf,inf,inf,inf,1,1,1,1,0,0,0,0,1,1,0
21704000,0,47.3977419,8.545594,-14.585596,192.99619,-41.06299,0.0,0.0,0.0,0.29999998,19.949999,-4.83,0.0,0.0,0.0,0.0,0.0,0.0,0.0,1.5576466,488.12402,0.0,0.0,0.0,0.0,0.0,inf,inf,inf,inf,1,1,1,1,0,0,0,0,1,1,0
21804000,0,47.3977419,8.545594,-14.552171,194.9908,-41.546997,0.0,0.0,0.0,0.31,19.93,-4.83,0.0,0.0,0.0,0.0,0.0,0.0,0.0,1.5573671,488.12402,0.0,0.0,0.0,0.0,0.0,inf,inf,inf,inf,1,1,1,1,0,0,0,0,1,1,0
21904000,0,47.3977419,8.545594,-14.518745,196.99295,-42.02899,0.0,0.0,0.0,0.31,19.91,-4.8199997,0.0,0.0,0.0,0.0,0.0,0.0,0.0,1.5571407,488.12402,0.0,0.0,0.0,0.0,0.0,inf,inf,inf,inf,1,1,1,1,0,0,0,0,1,1,0
22004000,0,47.3977419,8.545594,-14.48532,198.98756,-42.510986,0.0,0.0,0.0,0.32,19.89,-4.81,0.0,0.0,0.0,0.0,0.0,0.0,0.0,1.5569437,488.12402,0.0,0.0,0.0,0.0,0.0,inf,inf,inf,inf,1,1,1,1,0,0,0,0,1,1,0
22104000,0,47.3977419,8.545594,-14.451893,200.98218,-42.992004,0.0,0.0,0.0,0.32,19.869999,-4.7999997,0.0,0.0,0.0,0.0,0.0,0.0,0.0,1.5567349,488.12402,0.0,0.0,0.0,0.0,0.0,inf,inf,inf,inf,1,1,1,1,0,0,0,0,1,1,0
22204000,0,47.3977419,8.545594,-14.418466,202.97679,-43.473022,0.0,0.0,0.0,0.32999998,19.84,-4.7999997,0.0,0.0,0.0,0.0,0.0,0.0,0.0,1.5565004,488.12402,0.0,0.0,0.0,0.0,0.0,inf,inf,inf,inf,1,1,1,1,0,0,0,0,1,1,0
22304000,0,47.3977419,8.545594,-14.385038,204.96388,-43.953003,0.0,0.0,0.0,0.32999998,19.82,-4.79,0.0,0.0,0.0,0.0,0.0,0.0,0.0,1.5562693,488.12402,0.0,0.0,0.0,0.0,0.0,inf,inf,inf,inf,1,1,1,1,0,0,0,0,1,1,0
22404000,0,47.3977419,8.545594,-14.35161,206.95097,-44.432007,0.0,0.0,0.0,0.32999998,19.8,-4.7799997,0.0,0.0,0.0,0.0,0.0,0.0,0.0,1.5560702,488.12402,0.0,0.0,0.0,0.0,0.0,inf,inf,inf,inf,1,1,1,1,0,0,0,0,1,1,0
22504000,0,47.3977419,8.545594,-14.318181,208.93806,-44.909973,0.0,0.0,0.0,0.34,19.779999,-4.77,0.0,0.0,0.0,0.0,0.0,0.0,0.0,1.555886,488.12402,0.0,0.0,0.0,0.0,0.0,inf,inf,inf,inf,1,1,1,1,0,0,0,0,1,1,0
22604000,0,47.3977419,8.545594,-14.284752,210.91762,-45.387024,0.0,0.0,0.0,0.34,19.77,-4.77,0.0,0.0,0.0,0.0,0.0,0.0,0.0,1.5557091,488.12402,0.0,0.0,0.0,0.0,0.0,inf,inf,inf,inf,1,1,1,1,0,0,0,0,1,1,0
22704000,0,47.3977419,8.545594,-14.251322,212.89719,-45.864014,0.0,0.0,0.0,0.35,19.75,-4.7599998,0.0,0.0,0.0,0.0,0.0,0.0,0.0,1.5555052,488.12402,0.0,0.0,0.0,0.0,0.0,inf,inf,inf,inf,1,1,1,1,0,0,0,0,1,1,0
22804000,0,47.3977419,8.545594,-14.217891,214.88428,-46.340027,0.0,0.0,0.0,0.35,19.73,-4.75,0.0,0.0,0.0,0.0,0.0,0.0,0.0,1.55531,488.12402,0.0,0.0,0.0,0.0,0.0,inf,inf,inf,inf,1,1,1,1,0,0,0,0,1,1,0
22904000,0,47.3977419,8.545594,-14.17334,216.85631,-46.81598,0.0,0.0,0.0,0.35,19.71,-4.75,0.0,0.0,0.0,0.0,0.0,0.0,0.0,1.5550982,488.12402,0.0,0.0,0.0,0.0,0.0,inf,inf,inf,inf,1,1,1,1,0,0,0,0,1,1,0
23004000,0,47.3977419,8.545594,-14.139908,218.83588,-47.289978,0.0,0.0,0.0,0.35999998,19.689999,-4.74,0.0,0.0,0.0,0.0,0.0,0.0,0.0,1.5548986,488.12402,0.0,0.0,0.0,0.0,0.0,inf,inf,inf,inf,1,1,1,1,0,0,0,0,1,1,0
23104000,0,47.3977419,8.545594,-14.106475,220.8079,-47.765015,0.0,0.0,0.0,0.35999998,19.67,-4.74,0.0,0.0,0.0,0.0,0.0,0.0,0.0,1.5546671,488.12402,0.0,0.0,0.0,0.0,0.0,inf,inf,inf,inf,1,1,1,1,0,0,0,0,1,1,0
23204000,0,47.3977419,8.545594,-14.073045,222.70468,-48.22003,0.0,0.0,0.0,0.37,19.66,-4.73,0.0,0.0,0.0,0.0,0.0,0.0,0.0,1.5544754,488.12402,0.0,0.0,0.0,0.0,0.0,inf,inf,inf,inf,1,1,1,1,0,0,0,0,1,1,0
23304000,0,47.3977419,8.545594,-14.028489,224.75198,-48.711975,0.0,0.0,0.0,0.37,19.64,-4.73,0.0,0.0,0.0,0.0,0.0,0.0,0.0,1.5543761,488.12402,0.0,0.0,0.0,0.0,0.0,inf,inf,inf,inf,1,1,1,1,0,0,0,0,1,1,0
23404000,0,47.3977419,8.545594,-13.995054,226.72401,-49.184998,0.0,0.0,0.0,0.37,19.619999,-4.72,0.0,0.0,0.0,0.0,0.0,0.0,0.0,1.5542986,488.12402,0.0,0.0,0.0,0.0,0.0,inf,inf,inf,inf,1,1,1,1,0,0,0,0,1,1,0
23504000,0,47.3977419,8.545594,-13.961619,228.68852,-49.656982,0.0,0.0,0.0,0.37,19.59,-4.72,0.0,0.0,0.0,0.0,0.0,0.0,0.0,1.5541579,488.12402,0.0,0.0,0.0,0.0,0.0,inf,inf,inf,inf,1,1,1,1,0,0,0,0,1,1,0
23604000,0,47.3977419,8.545594,-13.917065,230.65303,-50.130005,0.0,0.0,0.0,0.38,19.58,-4.72,0.0,0.0,0.0,0.0,0.0,0.0,0.0,1.5539566,488.12402,0.0,0.0,0.0,0.0,0.0,inf,inf,inf,inf,1,1,1,1,0,0,0,0,1,1,0
23704000,0,47.3977419,8.545594,-13.883632,232.53474,-50.583008,0.0,0.0,0.0,0.38,19.56,-4.71,0.0,0.0,0.0,0.0,0.0,0.0,0.0,1.5537492,488.12402,0.0,0.0,0.0,0.0,0.0,inf,inf,inf,inf,1,1,1,1,0,0,0,0,1,1,0
23804000,0,47.3977419,8.545594,-13.839072,234.57452,-51.072998,0.0,0.0,0.0,0.38,19.539999,-4.71,0.0,0.0,0.0,0.0,0.0,0.0,0.0,1.5535696,488.12402,0.0,0.0,0.0,0.0,0.0,inf,inf,inf,inf,1,1,1,1,0,0,0,0,1,1,0
23904000,0,47.3977419,8.545594,-13.805635,236.53151,-51.544983,0.0,0.0,0.0,0.38,19.49,-4.7,0.0,0.0,0.0,0.0,0.0,0.0,0.0,1.5534375,488.12402,0.0,0.0,0.0,0.0,0.0,inf,inf,inf,inf,1,1,1,1,0,0,0,0,1,1,0
24004000,0,47.3977419,8.545594,-13.761079,238.48096,-52.013,0.0,0.0,0.0,0.39,19.34,-4.64,0.0,0.0,0.0,0.0,0.0,0.0,0.0,1.5531726,488.12402,0.0,0.0,0.0,0.0,0.0,inf,inf,inf,inf,1,1,1,1,0,0,0,0,1,1,0
24104000,0,47.3977419,8.545594,-13.727641,240.40784,-52.47101,0.0,0.0,0.0,0.39,19.15,-4.5099998,0.0,0.0,0.0,0.0,0.0,0.0,0.0,1.5525124,488.12402,0.0,0.0,0.0,0.0,0.0,inf,inf,inf,inf,1,1,1,1,0,0,0,0,1,1,0
24204000,0,47.3977419,8.545594,-13.6830845,242.31966,-52.911987,0.0,0.0,0.0,0.39999998,18.96,-4.2999997,0.0,0.0,0.0,0.0,0.0,0.0,0.0,1.5514942,488.12402,0.0,0.0,0.0,0.0,0.0,inf,inf,inf,inf,1,1,1,1,0,0,0,0,1,1,0
24304000,0,47.3977419,8.545594,-13.638528,244.21642,-53.330017,0.0,0.0,0.0,0.42,18.779999,-4.04,0.0,0.0,0.0,0.0,0.0,0.0,0.0,1.5503906,488.12402,0.0,0.0,0.0,0.0,0.0,inf,inf,inf,inf,1,1,1,1,0,0,0,0,1,1,0
24404000,0,47.3977419,8.545594,-13.593971,246.0906,-53.71698,0.0,0.0,0.0,0.42999998,18.619999,-3.72,0.0,0.0,0.0,0.0,0.0,0.0,0.0,1.5494384,488.12402,0.0,0.0,0.0,0.0,0.0,inf,inf,inf,inf,1,1,1,1,0,0,0,0,1,1,0
24504000,0,47.3977419,8.545594,-13.549415,247.94974,-54.070984,0.0,0.0,0.0,0.45,18.46,-3.36,0.0,0.0,0.0,0.0,0.0,0.0,0.0,1.5485812,488.12402,0.0,0.0,0.0,0.0,0.0,inf,inf,inf,inf,1,1,1,1,0,0,0,0,1,1,0
24604000,0,47.3977419,8.545594,-13.504859,249.79381,-54.388,0.0,0.0,0.0,0.47,18.31,-2.99,0.0,0.0,0.0,0.0,0.0,0.0,0.0,1.54752,488.12402,0.0,0.0,0.0,0.0,0.0,inf,inf,inf,inf,1,1,1,1,0,0,0,0,1,1,0
24704000,0,47.3977419,8.545594,-13.460302,251.62283,-54.669983,0.0,0.0,0.0,0.5,18.17,-2.6499999,0.0,0.0,0.0,0.0,0.0,0.0,0.0,1.5461011,488.12402,0.0,0.0,0.0,0.0,0.0,inf,inf,inf,inf,1,1,1,1,0,0,0,0,1,1,0
24804000,0,47.3977419,8.545594,-13.404627,253.43681,-54.91803,0.0,0.0,0.0,0.53,18.02,-2.33,0.0,0.0,0.0,0.0,0.0,0.0,0.0,1.5443534,488.12402,0.0,0.0,0.0,0.0,0.0,inf,inf,inf,inf,1,1,1,1,0,0,0,0,1,1,0
24904000,0,47.3977419,8.545594,-13.348951,255.23572,-55.135986,0.0,0.0,0.0,0.56,17.88,-2.03,0.0,0.0,0.0,0.0,0.0,0.0,0.0,1.5423924,488.12402,0.0,0.0,0.0,0.0,0.0,inf,inf,inf,inf,1,1,1,1,0,0,0,0,1,1,0
25004000,0,47.3977419,8.545594,-13.293279,256.95184,-55.317993,0.0,0.0,0.0,0.59999996,17.75,-1.75,0.0,0.0,0.0,0.0,0.0,0.0,0.0,1.540326,488.12402,0.0,0.0,0.0,0.0,0.0,inf,inf,inf,inf,1,1,1,1,0,0,0,0,1,1,0
25104000,0,47.3977419,8.545594,-13.2264805,258.79593,-55.486023,0.0,0.0,0.0,0.63,17.619999,-1.48,0.0,0.0,0.0,0.0,0.0,0.0,0.0,1.538223,488.12402,0.0,0.0,0.0,0.0,0.0,inf,inf,inf,inf,1,1,1,1,0,0,0,0,1,1,0
25204000,0,47.3977419,8.545594,-13.159685,260.5572,-55.621033,0.0,0.0,0.0,0.66999996,17.51,-1.22,0.0,0.0,0.0,0.0,0.0,0.0,0.0,1.5360942,488.12402,0.0,0.0,0.0,0.0,0.0,inf,inf,inf,inf,1,1,1,1,0,0,0,0,1,1,0
25304000,0,47.3977419,8.545594,-13.092891,262.31094,-55.731018,0.0,0.0,0.0,0.71,17.41,-0.97999996,0.0,0.0,0.0,0.0,0.0,0.0,0.0,1.5339301,488.12402,0.0,0.0,0.0,0.0,0.0,inf,inf,inf,inf,1,1,1,1,0,0,0,0,1,1,0
25404000,0,47.3977419,8.545594,-13.014976,264.04965,-55.817993,0.0,0.0,0.0,0.75,17.31,-0.76,0.0,0.0,0.0,0.0,0.0,0.0,0.0,1.5316951,488.12402,0.0,0.0,0.0,0.0,0.0,inf,inf,inf,inf,1,1,1,1,0,0,0,0,1,1,0
25504000,0,47.3977419,8.545594,-12.937061,265.78082,-55.882996,0.0,0.0,0.0,0.78999996,17.22,-0.56,0.0,0.0,0.0,0.0,0.0,0.0,0.0,1.5293779,488.12402,0.0,0.0,0.0,0.0,0.0,inf,inf,inf,inf,1,1,1,1,0,0,0,0,1,1,0
25604000,0,47.3977419,8.545594,-12.859146,267.5045,-55.929993,0.0,0.0,0.0,0.83,17.13,-0.37,0.0,0.0,0.0,0.0,0.0,0.0,0.0,1.5269964,488.12402,0.0,0.0,0.0,0.0,0.0,inf,inf,inf,inf,1,1,1,1,0,0,0,0,1,1,0
25704000,0,47.3977419,8.545594,-12.770112,269.2206,-55.958008,0.0,0.0,0.0,0.87,17.06,-0.19999999,0.0,0.0,0.0,0.0,0.0,0.0,0.0,1.5245931,488.12402,0.0,0.0,0.0,0.0,0.0,inf,inf,inf,inf,1,1,1,1,0,0,0,0,1,1,0
25800000,0,47.3977419,8.545594,-12.6922,270.86145,-55.97003,0.0,0.0,0.0,0.90999997,16.99,-0.049999997,0.0,0.0,0.0,0.0,0.0,0.0,0.0,1.5223147,488.12402,0.0,0.0,0.0,0.0,0.0,inf,inf,inf,inf,1,1,1,1,0,0,0,0,1,1,0
25904000,0,47.3977419,8.545594,-12.592042,272.63025,-55.968018,0.0,0.0,0.0,0.95,16.92,0.089999996,0.0,0.0,0.0,0.0,0.0,0.0,0.0,1.5199243,488.12402,0.0,0.0,0.0,0.0,0.0,inf,inf,inf,inf,1,1,1,1,0,0,0,0,1,1,0
26004000,0,47.3977419,8.545594,-12.491888,274.3238,-55.952026,0.0,0.0,0.0,0.97999996,16.859999,0.21,0.0,0.0,0.0,0.0,0.0,0.0,0.0,1.5177217,488.12402,0.0,0.0,0.0,0.0,0.0,inf,inf,inf,inf,1,1,1,1,0,0,0,0,1,1,0
26104000,0,47.3977419,8.545594,-12.391736,275.94208,-55.924988,0.0,0.0,0.0,1.02,16.81,0.32999998,0.0,0.0,0.0,0.0,0.0,0.0,0.0,1.5156145,488.12402,0.0,0.0,0.0,0.0,0.0,inf,inf,inf,inf,1,1,1,1,0,0,0,0,1,1,0
26204000,0,47.3977419,8.545594,-12.291578,277.69583,-55.88501,0.0,0.0,0.0,1.05,16.76,0.42999998,0.0,0.0,0.0,0.0,0.0,0.0,0.0,1.5135938,488.12402,0.0,0.0,0.0,0.0,0.0,inf,inf,inf,inf,1,1,1,1,0,0,0,0,1,1,0
26304000,0,47.3977419,8.545594,-12.180304,279.3743,-55.836975,0.0,0.0,0.0,1.0799999,16.71,0.52,0.0,0.0,0.0,0.0,0.0,0.0,0.0,1.5116743,488.12402,0.0,0.0,0.0,0.0,0.0,inf,inf,inf,inf,1,1,1,1,0,0,0,0,1,1,0
26404000,0,47.3977419,8.545594,-12.069028,281.04526,-55.781006,0.0,0.0,0.0,1.11,16.67,0.59999996,0.0,0.0,0.0,0.0,0.0,0.0,0.0,1.5098743,488.12402,0.0,0.0,0.0,0.0,0.0,inf,inf,inf,inf,1,1,1,1,0,0,0,0,1,1,0
26504000,0,47.3977419,8.545594,-11.957756,282.64847,-55.718994,0.0,0.0,0.0,1.14,16.63,0.66999996,0.0,0.0,0.0,0.0,0.0,0.0,0.0,1.5081981,488.12402,0.0,0.0,0.0,0.0,0.0,inf,inf,inf,inf,1,1,1,1,0,0,0,0,1,1,0
26604000,0,47.3977419,8.545594,-11.835358,284.37964,-55.645996,0.0,0.0,0.0,1.17,16.6,0.72999996,0.0,0.0,0.0,0.0,0.0,0.0,0.0,1.5066448,488.12402,0.0,0.0,0.0,0.0,0.0,inf,inf,inf,inf,1,1,1,1,0,0,0,0,1,1,0
26704000,0,47.3977419,8.545594,-11.724082,286.04306,-55.56903,0.0,0.0,0.0,1.1899999,16.57,0.78999996,0.0,0.0,0.0,0.0,0.0,0.0,0.0,1.5052332,488.12402,0.0,0.0,0.0,0.0,0.0,inf,inf,inf,inf,1,1,1,1,0,0,0,0,1,1,0
26804000,0,47.3977419,8.545594,-11.6016865,287.7065,-55.487976,0.0,0.0,0.0,1.2099999,16.539999,0.83,0.0,0.0,0.0,0.0,0.0,0.0,0.0,1.5039762,488.12402,0.0,0.0,0.0,0.0,0.0,inf,inf,inf,inf,1,1,1,1,0,0,0,0,1,1,0
26904000,0,47.3977419,8.545594,-11.47929,289.3624,-55.401978,0.0,0.0,0.0,1.23,16.52,0.87,0.0,0.0,0.0,0.0,0.0,0.0,0.0,1.502873,488.12402,0.0,0.0,0.0,0.0,0.0,inf,inf,inf,inf,1,1,1,1,0,0,0,0,1,1,0
27004000,0,47.3977419,8.545594,-11.356894,291.0183,-55.31201,0.0,0.0,0.0,1.25,16.49,0.90999997,0.0,0.0,0.0,0.0,0.0,0.0,0.0,1.50192,488.12402,0.0,0.0,0.0,0.0,0.0,inf,inf,inf,inf,1,1,1,1,0,0,0,0,1,1,0
27104000,0,47.3977419,8.545594,-11.223377,292.6742,-55.218994,0.0,0.0,0.0,1.26,16.47,0.94,0.0,0.0,0.0,0.0,0.0,0.0,0.0,1.5011214,488.12402,0.0,0.0,0.0,0.0,0.0,inf,inf,inf,inf,1,1,1,1,0,0,0,0,1,1,0
27204000,0,47.3977419,8.545594,-11.100981,294.32257,-55.124023,0.0,0.0,0.0,1.27,16.46,0.96,0.0,0.0,0.0,0.0,0.0,0.0,0.0,1.500468,488.12402,0.0,0.0,0.0,0.0,0.0,inf,inf,inf,inf,1,1,1,1,0,0,0,0,1,1,0
27304000,0,47.3977419,8.545594,-10.9674635,295.9785,-55.026,0.0,0.0,0.0,1.28,16.44,0.97999996,0.0,0.0,0.0,0.0,0.0,0.0,0.0,1.4999627,488.12402,0.0,0.0,0.0,0.0,0.0,inf,inf,inf,inf,1,1,1,1,0,0,0,0,1,1,0
27404000,0,47.3977419,8.545594,-10.845065,297.62686,-54.927002,0.0,0.0,0.0,1.28,16.43,1.0,0.0,0.0,0.0,0.0,0.0,0.0,0.0,1.4996161,488.12402,0.0,0.0,0.0,0.0,0.0,inf,inf,inf,inf,1,1,1,1,0,0,0,0,1,1,0
27504000,0,47.3977419,8.545594,-10.711548,299.2677,-54.82599,0.0,0.0,0.0,1.29,16.42,1.01,0.0,0.0,0.0,0.0,0.0,0.0,0.0,1.4994223,488.12402,0.0,0.0,0.0,0.0,0.0,inf,inf,inf,inf,1,1,1,1,0,0,0,0,1,1,0
27604000,0,47.3977419,8.545594,-10.57803,300.91608,-54.724976,0.0,0.0,0.0,1.29,16.41,1.02,0.0,0.0,0.0,0.0,0.0,0.0,0.0,1.499361,488.12402,0.0,0.0,0.0,0.0,0.0,inf,inf,inf,inf,1,1,1,1,0,0,0,0,1,1,0
27704000,0,47.3977419,8.545594,-10.45563,302.56445,-54.62201,0.0,0.0,0.0,1.29,16.4,1.02,0.0,0.0,0.0,0.0,0.0,0.0,0.0,1.4994305,488.12402,0.0,0.0,0.0,0.0,0.0,inf,inf,inf,inf,1,1,1,1,0,0,0,0,1,1,0
27804000,0,47.3977419,8.545594,-10.322111,304.2053,-54.518982,0.0,0.0,0.0,1.28,16.4,1.03,0.0,0.0,0.0,0.0,0.0,0.0,0.0,1.4996408,488.12402,0.0,0.0,0.0,0.0,0.0,inf,inf,inf,inf,1,1,1,1,0,0,0,0,1,1,0
27904000,0,47.3977419,8.545594,-10.188592,305.85367,-54.416016,0.0,0.0,0.0,1.28,16.39,1.03,0.0,0.0,0.0,0.0,0.0,0.0,0.0,1.4999695,488.12402,0.0,0.0,0.0,0.0,0.0,inf,inf,inf,inf,1,1,1,1,0,0,0,0,1,1,0
28004000,0,47.3977419,8.545594,-10.066192,307.4945,-54.31299,0.0,0.0,0.0,1.27,16.39,1.03,0.0,0.0,0.0,0.0,0.0,0.0,0.0,1.5004171,488.12402,0.0,0.0,0.0,0.0,0.0,inf,inf,inf,inf,1,1,1,1,0,0,0,0,1,1,0
28104000,0,47.3977419,8.545594,-9.932671,309.14288,-54.208984,0.0,0.0,0.0,1.26,16.39,1.02,0.0,0.0,0.0,0.0,0.0,0.0,0.0,1.5009917,488.12402,0.0,0.0,0.0,0.0,0.0,inf,inf,inf,inf,1,1,1,1,0,0,0,0,1,1,0
28204000,0,47.3977419,8.545594,-9.810269,310.78375,-54.106995,0.0,0.0,0.0,1.25,16.38,1.02,0.0,0.0,0.0,0.0,0.0,0.0,0.0,1.5016787,488.12402,0.0,0.0,0.0,0.0,0.0,inf,inf,inf,inf,1,1,1,1,0,0,0,0,1,1,0
28304000,0,47.3977419,8.545594,-9.687867,312.4246,-54.005005,0.0,0.0,0.0,1.23,16.38,1.01,0.0,0.0,0.0,0.0,0.0,0.0,0.0,1.5024627,488.12402,0.0,0.0,0.0,0.0,0.0,inf,inf,inf,inf,1,1,1,1,0,0,0,0,1,1,0
28404000,0,47.3977419,8.545594,-9.565465,314.07297,-53.903015,0.0,0.0,0.0,1.22,16.39,1.01,0.0,0.0,0.0,0.0,0.0,0.0,0.0,1.5033495,488.12402,0.0,0.0,0.0,0.0,0.0,inf,inf,inf,inf,1,1,1,1,0,0,0,0,1,1,0
28504000,0,47.3977419,8.545594,-9.443063,315.7138,-53.802002,0.0,0.0,0.0,1.1999999,16.39,1.0,0.0,0.0,0.0,0.0,0.0,0.0,0.0,1.5043192,488.12402,0.0,0.0,0.0,0.0,0.0,inf,inf,inf,inf,1,1,1,1,0,0,0,0,1,1,0
28604000,0,47.3977419,8.545594,-9.320659,317.36218,-53.702026,0.0,0.0,0.0,1.18,16.39,0.98999995,0.0,0.0,0.0,0.0,0.0,0.0,0.0,1.5053612,488.12402,0.0,0.0,0.0,0.0,0.0,inf,inf,inf,inf,1,1,1,1,0,0,0,0,1,1,0
28704000,0,47.3977419,8.545594,-9.209375,319.00302,-53.603027,0.0,0.0,0.0,1.16,16.39,0.97999996,0.0,0.0,0.0,0.0,0.0,0.0,0.0,1.5064816,488.12402,0.0,0.0,0.0,0.0,0.0,inf,inf,inf,inf,1,1,1,1,0,0,0,0,1,1,0
28804000,0,47.3977419,8.545594,-9.098094,320.58368,-53.51001,0.0,0.0,0.0,1.14,16.39,0.96999997,0.0,0.0,0.0,0.0,0.0,0.0,0.0,1.5076814,488.12402,0.0,0.0,0.0,0.0,0.0,inf,inf,inf,inf,1,1,1,1,0,0,0,0,1,1,0
28904000,0,47.3977419,8.545594,-8.975686,322.29227,-53.408997,0.0,0.0,0.0,1.12,16.4,0.95,0.0,0.0,0.0,0.0,0.0,0.0,0.0,1.5089415,488.12402,0.0,0.0,0.0,0.0,0.0,inf,inf,inf,inf,1,1,1,1,0,0,0,0,1,1,0
29004000,0,47.3977419,8.545594,-8.8644,323.94064,-53.314026,0.0,0.0,0.0,1.1,16.4,0.94,0.0,0.0,0.0,0.0,0.0,0.0,0.0,1.5102553,488.12402,0.0,0.0,0.0,0.0,0.0,inf,inf,inf,inf,1,1,1,1,0,0,0,0,1,1,0
29104000,0,47.3977419,8.545594,-8.753114,325.58148,-53.22003,0.0,0.0,0.0,1.0699999,16.41,0.93,0.0,0.0,0.0,0.0,0.0,0.0,0.0,1.5116318,488.12402,0.0,0.0,0.0,0.0,0.0,inf,inf,inf,inf,1,1,1,1,0,0,0,0,1,1,0
29204000,0,47.3977419,8.545594,-8.65295,327.1621,-53.130005,0.0,0.0,0.0,1.05,16.41,0.91999996,0.0,0.0,0.0,0.0,0.0,0.0,0.0,1.5130496,488.12402,0.0,0.0,0.0,0.0,0.0,inf,inf,inf,inf,1,1,1,1,0,0,0,0,1,1,0
29304000,0,47.3977419,8.545594,-8.541659,328.87823,-53.03601,0.0,0.0,0.0,1.02,16.42,0.9,0.0,0.0,0.0,0.0,0.0,0.0,0.0,1.514491,488.12402,0.0,0.0,0.0,0.0,0.0,inf,inf,inf,inf,1,1,1,1,0,0,0,0,1,1,0
29404000,0,47.3977419,8.545594,-8.441491,330.5266,-52.945984,0.0,0.0,0.0,0.98999995,16.42,0.89,0.0,0.0,0.0,0.0,0.0,0.0,0.0,1.5159495,488.12402,0.0,0.0,0.0,0.0,0.0,inf,inf,inf,inf,1,1,1,1,0,0,0,0,1,1,0
29504000,0,47.3977419,8.545594,-8.341323,332.16745,-52.856995,0.0,0.0,0.0,0.96999997,16.43,0.87,0.0,0.0,0.0,0.0,0.0,0.0,0.0,1.5174388,488.12402,0.0,0.0,0.0,0.0,0.0,inf,inf,inf,inf,1,1,1,1,0,0,0,0,1,1,0
29604000,0,47.3977419,8.545594,-8.252274,333.81583,-52.77002,0.0,0.0,0.0,0.94,16.43,0.85999995,0.0,0.0,0.0,0.0,0.0,0.0,0.0,1.5189538,488.12402,0.0,0.0,0.0,0.0,0.0,inf,inf,inf,inf,1,1,1,1,0,0,0,0,1,1,0
29704000,0,47.3977419,8.545594,-8.152103,335.4642,-52.684998,0.0,0.0,0.0,0.90999997,16.44,0.84,0.0,0.0,0.0,0.0,0.0,0.0,0.0,1.520478,488.12402,0.0,0.0,0.0,0.0,0.0,inf,inf,inf,inf,1,1,1,1,0,0,0,0,1,1,0
29804000,0,47.3977419,8.545594,-8.063053,337.1201,-52.601013,0.0,0.0,0.0,0.89,16.44,0.83,0.0,0.0,0.0,0.0,0.0,0.0,0.0,1.5219992,488.12402,0.0,0.0,0.0,0.0,0.0,inf,inf,inf,inf,1,1,1,1,0,0,0,0,1,1,0
29904000,0,47.3977419,8.545594,-7.974002,338.76846,-52.518005,0.0,0.0,0.0,0.85999995,16.449999,0.81,0.0,0.0,0.0,0.0,0.0,0.0,0.0,1.5235262,488.12402,0.0,0.0,0.0,0.0,0.0,inf,inf,inf,inf,1,1,1,1,0,0,0,0,1,1,0
30004000,0,47.3977419,8.545594,-7.8849497,340.42438,-52.43701,0.0,0.0,0.0,0.84,16.65,0.79999995,0.0,0.0,0.0,0.0,0.0,0.0,0.0,1.5253897,488.12402,0.0,0.0,0.0,0.0,0.0,inf,inf,inf,inf,1,1,1,1,0,0,0,0,1,1,0
30104000,0,47.3977419,8.545594,-7.807015,342.11038,-52.359985,0.0,0.0,0.0,0.82,17.02,0.72999996,0.0,0.0,0.0,0.0,0.0,0.0,0.0,1.5281117,488.12402,0.0,0.0,0.0,0.0,0.0,inf,inf,inf,inf,1,1,1,1,0,0,0,0,1,1,0
30204000,0,47.3977419,8.545594,-7.7290773,343.84155,-52.294983,0.0,0.0,0.0,0.78999996,17.48,0.55,0.0,0.0,0.0,0.0,0.0,0.0,0.0,1.5313956,488.12402,0.0,0.0,0.0,0.0,0.0,inf,inf,inf,inf,1,1,1,1,0,0,0,0,1,1,0
30304000,0,47.3977419,8.545594,-7.651136,345.62543,-52.255005,0.0,0.0,0.0,0.74,17.949999,0.22999999,0.0,0.0,0.0,0.0,0.0,0.0,0.0,1.5347296,488.12402,0.0,0.0,0.0,0.0,0.0,inf,inf,inf,inf,1,1,1,1,0,0,0,0,1,1,0
30404000,0,47.3977419,8.545594,-7.5731916,347.4469,-52.25403,0.0,0.0,0.0,0.68,18.359999,-0.19,0.0,0.0,0.0,0.0,0.0,0.0,0.0,1.5380188,488.12402,0.0,0.0,0.0,0.0,0.0,inf,inf,inf,inf,1,1,1,1,0,0,0,0,1,1,0
30508000,0,47.3977419,8.545594,-7.5063596,349.38132,-52.302002,0.0,0.0,0.0,0.59999996,18.71,-0.7,0.0,0.0,0.0,0.0,0.0,0.0,0.0,1.5419166,488.12402,0.0,0.0,0.0,0.0,0.0,inf,inf,inf,inf,1,1,1,1,0,0,0,0,1,1,0
30608000,0,47.3977419,8.545594,-7.4506493,351.27054,-52.398987,0.0,0.0,0.0,0.51,18.96,-1.2099999,0.0,0.0,0.0,0.0,0.0,0.0,0.0,1.5465143,488.12402,0.0,0.0,0.0,0.0,0.0,inf,inf,inf,inf,1,1,1,1,0,0,0,0,1,1,0
30712000,0,47.3977419,8.545594,-7.406052,353.25763,-52.552002,0.0,0.0,0.0,0.41,19.14,-1.6999999,0.0,0.0,0.0,0.0,0.0,0.0,0.0,1.5521532,488.12402,0.0,0.0,0.0,0.0,0.0,inf,inf,inf,inf,1,1,1,1,0,0,0,0,1,1,0
30812000,0,47.3977419,8.545594,-7.372577,355.1845,-52.744995,0.0,0.0,0.0,0.31,19.26,-2.12,0.0,0.0,0.0,0.0,0.0,0.0,0.0,1.5579065,488.12402,0.0,0.0,0.0,0.0,0.0,inf,inf,inf,inf,1,1,1,1,0,0,0,0,1,1,0
30916000,0,47.3977419,8.545594,-7.339096,357.2017,-52.987,0.0,0.0,0.0,0.19999999,19.34,-2.5,0.0,0.0,0.0,0.0,0.0,0.0,0.0,1.5635484,488.12402,0.0,0.0,0.0,0.0,0.0,inf,inf,inf,inf,1,1,1,1,0,0,0,0,1,1,0
31020000,0,47.3977419,8.545594,-7.327853,359.21887,-53.26599,0.0,0.0,0.0,0.099999994,19.39,-2.85,0.0,0.0,0.0,0.0,0.0,0.0,0.0,1.5683618,488.12402,0.0,0.0,0.0,0.0,0.0,inf,inf,inf,inf,1,1,1,1,0,0,0,0,1,1,0
31120000,0,47.3977419,8.545594,-7.3166137,361.16833,-53.567993,0.0,0.0,0.0,0.0,19.41,-3.1499999,0.0,0.0,0.0,0.0,0.0,0.0,0.0,1.5722362,488.12402,0.0,0.0,0.0,0.0,0.0,inf,inf,inf,inf,1,1,1,1,0,0,0,0,1,1,0
31224000,0,47.3977419,8.545594,-7.327608,363.19305,-53.91101,0.0,0.0,0.0,-0.08,19.42,-3.4199998,0.0,0.0,0.0,0.0,0.0,0.0,0.0,1.5758713,488.12402,0.0,0.0,0.0,0.0,0.0,inf,inf,inf,inf,1,1,1,1,0,0,0,0,1,1,0
31328000,0,47.3977419,8.545594,-7.3386016,365.21777,-54.28003,0.0,0.0,0.0,-0.16,19.42,-3.6499999,0.0,0.0,0.0,0.0,0.0,0.0,0.0,1.5794216,488.12402,0.0,0.0,0.0,0.0,0.0,inf,inf,inf,inf,1,1,1,1,0,0,0,0,1,1,0
