timestamp,error_count,device_id,pressure,temperature
180000,0,6620172,955.98413,11.828796
280000,0,6620172,955.9681,11.828796
380000,0,6620172,955.9654,11.828796
480000,0,6620172,955.9556,11.828796
580000,0,6620172,955.9686,11.828796
680000,0,6620172,955.9642,11.828796
780000,0,6620172,955.978,11.828796
880000,0,6620172,955.9686,11.828796
980000,0,6620172,955.95996,11.828796
1080000,0,6620172,955.975,11.828796
1180000,0,6620172,955.9624,11.828796
1280000,0,6620172,955.9664,11.828796
1380000,0,6620172,955.9717,11.828796
1480000,0,6620172,955.9786,11.828796
1580000,0,6620172,955.97266,11.828796
1680000,0,6620172,955.95776,11.828796
1780000,0,6620172,955.9841,11.828796
1880000,0,6620172,955.98364,11.828796
1980000,0,6620172,955.96606,11.828796
2076000,0,6620172,955.9653,11.828796
2176000,0,6620172,955.9658,11.828796
2280000,0,6620172,955.96466,11.828796
2384000,0,6620172,955.9847,11.828796
2488000,0,6620172,955.9748,11.828796
2588000,0,6620172,955.9794,11.828796
2688000,0,6620172,955.9489,11.828796
2788000,0,6620172,955.95496,11.828796
2888000,0,6620172,955.95984,11.828796
2988000,0,6620172,955.9647,11.828796
3088000,0,6620172,955.9725,11.828796
3188000,0,6620172,955.95776,11.828796
3288000,0,6620172,955.9667,11.828796
3388000,0,6620172,955.9693,11.828796
3488000,0,6620172,955.96265,11.828796
3588000,0,6620172,955.9805,11.828796
3688000,0,6620172,955.9733,11.828796
3788000,0,6620172,955.96014,11.828796
3888000,0,6620172,955.96454,11.828796
3988000,0,6620172,955.9718,11.828796
4088000,0,6620172,955.9695,11.828796
4188000,0,6620172,955.9781,11.828796
4288000,0,6620172,955.96405,11.828796
4388000,0,6620172,955.96185,11.828796
4488000,0,6620172,955.9693,11.828796
4588000,0,6620172,955.9785,11.828796
4688000,0,6620172,955.9655,11.828796
4788000,0,6620172,955.95917,11.828796
4888000,0,6620172,955.95825,11.828796
4988000,0,6620172,955.9696,11.828796
5088000,0,6620172,955.94354,11.828796
5188000,0,6620172,955.97,11.828796
5288000,0,6620172,955.9487,11.828796
5388000,0,6620172,955.96454,11.828796
5488000,0,6620172,955.9556,11.828796
5588000,0,6620172,955.95544,11.828796
5688000,0,6620172,955.9587,11.828796
5788000,0,6620172,955.9746,11.828796
5888000,0,6620172,955.9571,11.828796
5988000,0,6620172,955.97754,11.828796
6088000,0,6620172,955.9803,11.828796
6188000,0,6620172,955.9551,11.828796
6288000,0,6620172,955.9748,11.828796
6388000,0,6620172,955.972,11.828796
6488000,0,6620172,955.9759,11.828796
6588000,0,6620172,955.9739,11.828796
6692000,0,6620172,955.9709,11.828796
6792000,0,6620172,955.9509,11.828796
6892000,0,6620172,955.959,11.828796
6992000,0,6620172,955.94684,11.828796
7092000,0,6620172,955.973,11.828796
7192000,0,6620172,955.98773,11.828796
7292000,0,6620172,955.967,11.828796
7392000,0,6620172,955.9615,11.828796
7492000,0,6620172,955.95953,11.828796
7592000,0,6620172,955.98175,11.828796
7692000,0,6620172,955.9624,11.828796
7792000,0,6620172,955.9691,11.828796
7892000,0,6620172,955.98254,11.828796
7992000,0,6620172,955.9611,11.828796
8092000,0,6620172,955.9552,11.828796
8192000,0,6620172,955.9763,11.828796
8292000,0,6620172,955.9491,11.828796
8392000,0,6620172,955.9694,11.828796
8492000,0,6620172,955.9858,11.828796
8592000,0,6620172,955.95215,11.828796
8692000,0,6620172,955.95984,11.828796
8792000,0,6620172,955.9679,11.828796
8892000,0,6620172,955.9679,11.828796
8992000,0,6620172,955.95953,11.828796
9092000,0,6620172,955.96124,11.828796
9192000,0,6620172,955.97107,11.828796
9292000,0,6620172,955.9642,11.828796
9392000,0,6620172,955.96655,11.828796
9492000,0,6620172,955.96265,11.828796
9592000,0,6620172,955.9646,11.828796
9692000,0,6620172,955.97614,11.828796
9792000,0,6620172,955.9611,11.828796
9892000,0,6620172,955.97943,11.828796
9992000,0,6620172,955.9825,11.828796
10092000,0,6620172,955.94714,11.828796
10192000,0,6620172,955.9644,11.828796
10292000,0,6620172,955.9745,11.828796
10392000,0,6620172,955.95264,11.828796
10492000,0,6620172,955.9593,11.828796
10592000,0,6620172,955.9619,11.828796
10692000,0,6620172,955.9477,11.828796
10792000,0,6620172,955.9749,11.828796
10892000,0,6620172,955.9605,11.828796
10992000,0,6620172,955.96857,11.828796
11092000,0,6620172,955.98334,11.828796
11192000,0,6620172,955.9658,11.828796
11292000,0,6620172,955.96027,11.828796
11392000,0,6620172,955.97833,11.828796
11492000,0,6620172,955.97406,11.828796
11592000,0,6620172,955.95123,11.828796
11692000,0,6620172,955.983,11.828796
11792000,0,6620172,955.95795,11.828796
11892000,0,6620172,955.97235,11.828796
11992000,0,6620172,955.97235,11.828796
12092000,0,6620172,955.95764,11.828796
12192000,0,6620172,955.9774,11.828796
12292000,0,6620172,955.95624,11.828796
12392000,0,6620172,955.963,11.828796
12492000,0,6620172,955.958,11.828796
12592000,0,6620172,955.9657,11.828796
12692000,0,6620172,955.9713,11.828796
12792000,0,6620172,955.9665,11.828796
12892000,0,6620172,955.95264,11.828766
12992000,0,6620172,955.9693,11.828735
13092000,0,6620172,955.9674,11.828674
13192000,0,6620172,955.95465,11.828613
13292000,0,6620172,955.96545,11.828583
13392000,0,6620172,955.9583,11.828522
13492000,0,6620172,955.95703,11.828278
13592000,0,6620172,955.9445,11.827789
13692000,0,6620172,955.92084,11.826935
13792000,0,6620172,955.9188,11.825897
13892000,0,6620172,955.86945,11.824585
13992000,0,6620172,955.86676,11.823151
14092000,0,6620172,955.8419,11.821442
14192000,0,6620172,955.8107,11.819519
14292000,0,6620172,955.7694,11.817383
14396000,0,6620172,955.7195,11.814911
14496000,0,6620172,955.6792,11.812347
14600000,0,6620172,955.6221,11.809479
14700000,0,6620172,955.58044,11.806488
14800000,0,6620172,955.5243,11.803314
14900000,0,6620172,955.459,11.799896
15004000,0,6620172,955.3869,11.796143
15104000,0,6620172,955.32935,11.792328
15204000,0,6620172,955.2467,11.78833
15304000,0,6620172,955.1727,11.78421
15404000,0,6620172,955.0907,11.779816
15504000,0,6620172,955.03436,11.775696
15604000,0,6620172,954.94476,11.771332
15704000,0,6620172,954.8788,11.766907
15804000,0,6620172,954.805,11.762451
15904000,0,6620172,954.72235,11.757996
16004000,0,6620172,954.6541,11.753326
16104000,0,6620172,954.54584,11.748993
16204000,0,6620172,954.4733,11.744354
16304000,0,6620172,954.39777,11.740082
16404000,0,6620172,954.3195,11.736145
16504000,0,6620172,954.26324,11.732208
16604000,0,6620172,954.1934,11.728455
16704000,0,6620172,954.12195,11.7247925
16804000,0,6620172,954.0768,11.721191
16904000,0,6620172,954.01904,11.717529
17004000,0,6620172,953.941,11.714203
17104000,0,6620172,953.88043,11.710632
17204000,0,6620172,953.82477,11.707245
17304000,0,6620172,953.75165,11.703888
17404000,0,6620172,953.71735,11.700684
17504000,0,6620172,953.66925,11.697357
17604000,0,6620172,953.5776,11.693909
17704000,0,6620172,953.5604,11.690613
17804000,0,6620172,953.4769,11.6874695
17904000,0,6620172,953.4074,11.684174
18004000,0,6620172,953.35077,11.680908
18104000,0,6620172,953.2923,11.67749
18204000,0,6620172,953.2328,11.674347
18304000,0,6620172,953.18005,11.671082
18404000,0,6620172,953.1296,11.667816
18504000,0,6620172,953.0662,11.664429
18604000,0,6620172,953.02594,11.661316
18704000,0,6620172,952.9692,11.657928
18804000,0,6620172,952.8966,11.654816
18904000,0,6620172,952.8361,11.651459
19004000,0,6620172,952.7917,11.648346
19104000,0,6620172,952.7468,11.645111
19204000,0,6620172,952.6843,11.641754
19304000,0,6620172,952.5918,11.638672
19404000,0,6620172,952.55505,11.635315
19504000,0,6620172,952.5021,11.63208
19604000,0,6620172,952.4558,11.628967
19704000,0,6620172,952.3751,11.625641
19804000,0,6620172,952.34015,11.622528
19904000,0,6620172,952.2662,11.619324
20004000,0,6620172,952.2135,11.615967
20104000,0,6620172,952.17084,11.6128845
20204000,0,6620172,952.1102,11.609558
20304000,0,6620172,952.0473,11.606476
20404000,0,6620172,951.99396,11.6032715
20504000,0,6620172,951.9373,11.600067
20604000,0,6620172,951.8979,11.596863
20704000,0,6620172,951.8279,11.593536
20804000,0,6620172,951.77484,11.590485
20904000,0,6620172,951.7178,11.587189
21004000,0,6620172,951.6574,11.584137
21104000,0,6620172,951.59906,11.580963
21204000,0,6620172,951.5391,11.577667
21304000,0,6620172,951.5017,11.5746155
21404000,0,6620172,951.4153,11.57132
21504000,0,6620172,951.3983,11.568298
21604000,0,6620172,951.3282,11.565033
21704000,0,6620172,951.27527,11.56189
21804000,0,6620172,951.2113,11.558868
21904000,0,6620172,951.15204,11.555603
22004000,0,6620172,951.1153,11.55246
22104000,0,6620172,951.0405,11.549347
22204000,0,6620172,950.99023,11.546356
22304000,0,6620172,950.9311,11.543091
22404000,0,6620172,950.8935,11.539978
22504000,0,6620172,950.8182,11.536865
22604000,0,6620172,950.76544,11.533905
22704000,0,6620172,950.73016,11.530792
22804000,0,6620172,950.674,11.527588
22904000,0,6620172,950.6098,11.524475
23004000,0,6620172,950.55133,11.521515
23104000,0,6620172,950.5197,11.518433
23204000,0,6620172,950.4276,11.51535
23304000,0,6620172,950.39325,11.512299
23404000,0,6620172,950.3602,11.509216
23504000,0,6620172,950.2992,11.506012
23604000,0,6620172,950.2247,11.503082
23704000,0,6620172,950.17474,11.5
23804000,0,6620172,950.11865,11.496948
23904000,0,6620172,950.0673,11.493744
24004000,0,6620172,950.0204,11.490692
24104000,0,6620172,949.9551,11.487732
24204000,0,6620172,949.9306,11.484985
24304000,0,6620172,949.87024,11.482239
24404000,0,6620172,949.8216,11.479614
24504000,0,6620172,949.7724,11.477325
24604000,0,6620172,949.7537,11.475281
24704000,0,6620172,949.68835,11.47345
24804000,0,6620172,949.67365,11.471832
24904000,0,6620172,949.653,11.470398
25004000,0,6620172,949.6249,11.469238
25104000,0,6620172,949.6231,11.46814
25204000,0,6620172,949.60156,11.467285
25304000,0,6620172,949.61255,11.466553
25404000,0,6620172,949.5984,11.465973
25504000,0,6620172,949.5682,11.465546
25604000,0,6620172,949.5588,11.4652405
25704000,0,6620172,949.5588,11.465057
25804000,0,6620172,949.56055,11.464996
25904000,0,6620172,949.5564,11.464996
26004000,0,6620172,949.5685,11.465088
26104000,0,6620172,949.5713,11.465271
26204000,0,6620172,949.56793,11.465546
26304000,0,6620172,949.5843,11.465851
26404000,0,6620172,949.5802,11.466187
26504000,0,6620172,949.6069,11.466614
26604000,0,6620172,949.61847,11.467102
26704000,0,6620172,949.62054,11.46756
26804000,0,6620172,949.62036,11.468109
26904000,0,6620172,949.6316,11.468658
27004000,0,6620172,949.6547,11.469238
27104000,0,6620172,949.653,11.469849
27204000,0,6620172,949.6617,11.4704895
27304000,0,6620172,949.6724,11.47113
27404000,0,6620172,949.7045,11.471741
27504000,0,6620172,949.6828,11.472412
27604000,0,6620172,949.6967,11.4730835
27704000,0,6620172,949.71844,11.473755
27804000,0,6620172,949.7308,11.474426
27904000,0,6620172,949.73145,11.475067
28004000,0,6620172,949.7571,11.475739
28104000,0,6620172,949.7704,11.47644
28204000,0,6620172,949.77203,11.477081
28304000,0,6620172,949.7797,11.477722
28404000,0,6620172,949.7987,11.478424
28504000,0,6620172,949.8252,11.479065
28604000,0,6620172,949.8363,11.479736
28704000,0,6620172,949.8279,11.480377
28804000,0,6620172,949.85114,11.480988
28904000,0,6620172,949.84546,11.481628
29004000,0,6620172,949.8726,11.482239
29104000,0,6620172,949.86865,11.482849
29204000,0,6620172,949.9013,11.483429
29304000,0,6620172,949.9035,11.48407
29404000,0,6620172,949.91675,11.48465
29504000,0,6620172,949.9119,11.4852295
29604000,0,6620172,949.9281,11.485748
29704000,0,6620172,949.94147,11.486328
29804000,0,6620172,949.9453,11.486877
29904000,0,6620172,949.95483,11.487427
30004000,0,6620172,949.9665,11.487915
30104000,0,6620172,949.9706,11.488434
30204000,0,6620172,949.9708,11.488861
30304000,0,6620172,949.98676,11.489136
30404000,0,6620172,950.00085,11.489136
30508000,0,6620172,949.97186,11.488861
30608000,0,6620172,949.983,11.48819
30712000,0,6620172,949.9708,11.487244
30812000,0,6620172,949.9315,11.485992
30916000,0,6620172,949.9044,11.484436
31020000,0,6620172,949.8781,11.4826355
31120000,0,6620172,949.8267,11.480682
31224000,0,6620172,949.8073,11.478363
31328000,0,6620172,949.7502,11.475983
31428000,0,6620172,949.7188,11.473633
31532000,0,6620172,949.6695,11.470978
31636000,0,6620172,949.61786,11.468201
31736000,0,6620172,949.5581,11.465332
31840000,0,6620172,949.5169,11.462372
31936000,0,6620172,949.47784,11.459686
32040000,0,6620172,949.4171,11.4565735
32140000,0,6620172,949.3874,11.453552
32240000,0,6620172,949.2981,11.450348
32340000,0,6620172,949.2523,11.447357
32440000,0,6620172,949.1925,11.444214
32540000,0,6620172,949.155,11.4410095
32640000,0,6620172,949.08026,11.437805
32740000,0,6620172,949.04474,11.434418
32840000,0,6620172,948.9763,11.431152
32940000,0,6620172,948.91864,11.427856
33040000,0,6620172,948.8583,11.42453
33140000,0,6620172,948.81165,11.421326
33240000,0,6620172,948.7389,11.417877
33340000,0,6620172,948.6698,11.41452
33440000,0,6620172,948.6175,11.411133
33540000,0,6620172,948.5609,11.407898
33640000,0,6620172,948.4975,11.4045105
33740000,0,6620172,948.45905,11.401001
33840000,0,6620172,948.4011,11.397736
33940000,0,6620172,948.33124,11.394196
34040000,0,6620172,948.2589,11.390778
34140000,0,6620172,948.1931,11.387512
34240000,0,6620172,948.14594,11.383972
34340000,0,6620172,948.0573,11.380554
34440000,0,6620172,948.029,11.377258
34540000,0,6620172,947.95465,11.37384
34640000,0,6620172,947.9219,11.370422
34740000,0,6620172,947.8555,11.367004
34840000,0,6620172,947.7964,11.363464
34940000,0,6620172,947.728,11.360168
35040000,0,6620172,947.6588,11.356628
35140000,0,6620172,947.612,11.3533325
35240000,0,6620172,947.54755,11.3497925
35340000,0,6620172,947.48,11.346497
35440000,0,6620172,947.4318,11.342957
35540000,0,6620172,947.377,11.339661
35640000,0,6620172,947.3024,11.336243
35740000,0,6620172,947.2532,11.332825
35840000,0,6620172,947.1836,11.329437
35940000,0,6620172,947.1452,11.326019
36040000,0,6620172,947.0628,11.322479
36140000,0,6620172,947.0078,11.319183
36240000,0,6620172,946.9415,11.315643
36340000,0,6620172,946.8906,11.312378
36440000,0,6620172,946.82684,11.308838
36540000,0,6620172,946.7839,11.3055725
36640000,0,6620172,946.70856,11.302185
36740000,0,6620172,946.64667,11.298645
36840000,0,6620172,946.59406,11.295258
36940000,0,6620172,946.5154,11.29184
37040000,0,6620172,946.47406,11.288605
37140000,0,6620172,946.4187,11.285065
37240000,0,6620172,946.3644,11.281677
37340000,0,6620172,946.29474,11.278442
37440000,0,6620172,946.2205,11.274902
37540000,0,6620172,946.1864,11.271545
37640000,0,6620172,946.10254,11.268158
37740000,0,6620172,946.0574,11.2647705
37840000,0,6620172,946.01965,11.261536
37940000,0,6620172,945.9249,11.258148
38040000,0,6620172,945.8901,11.254761
38140000,0,6620172,945.824,11.251404
38240000,0,6620172,945.7589,11.248016
38340000,0,6620172,945.70874,11.244507
38440000,0,6620172,945.63727,11.241272
38540000,0,6620172,945.5918,11.237762
38640000,0,6620172,945.5222,11.234528
38740000,0,6620172,945.4691,11.231018
38840000,0,6620172,945.4044,11.227661
38940000,0,6620172,945.32715,11.224426
39040000,0,6620172,945.3058,11.221069
39140000,0,6620172,945.252,11.217712
39240000,0,6620172,945.18286,11.214203
39340000,0,6620172,945.11584,11.210999
39440000,0,6620172,945.06146,11.207611
39540000,0,6620172,944.9842,11.204254
39640000,0,6620172,944.9457,11.200775
39740000,0,6620172,944.8955,11.197418
39840000,0,6620172,944.8124,11.194061
39940000,0,6620172,944.76996,11.190857
40040000,0,6620172,944.7204,11.187378
40140000,0,6620172,944.6539,11.184113
40240000,0,6620172,944.62006,11.180939
40340000,0,6620172,944.53406,11.17804
40440000,0,6620172,944.47363,11.175201
40540000,0,6620172,944.4499,11.172516
40640000,0,6620172,944.39545,11.170166
40740000,0,6620172,944.3649,11.16806
40840000,0,6620172,944.3431,11.16629
40940000,0,6620172,944.3101,11.164642
41040000,0,6620172,944.274,11.1631775
41140000,0,6620172,944.2707,11.161926
41240000,0,6620172,944.2298,11.160828
41340000,0,6620172,944.2124,11.159943
41440000,0,6620172,944.2249,11.15918
41540000,0,6620172,944.2081,11.158569
41640000,0,6620172,944.1966,11.158051
41740000,0,6620172,944.18066,11.157684
41840000,0,6620172,944.17224,11.15741
41940000,0,6620172,944.17035,11.157227
42040000,0,6620172,944.1696,11.157135
42140000,0,6620172,944.16943,11.1571045
42240000,0,6620172,944.19006,11.157166
42340000,0,6620172,944.18146,11.157257
42440000,0,6620172,944.18207,11.15741
42540000,0,6620172,944.177,11.157623
42640000,0,6620172,944.1892,11.157867
42740000,0,6620172,944.1999,11.158142
42840000,0,6620172,944.2024,11.158447
42940000,0,6620172,944.1993,11.158752
43040000,0,6620172,944.2146,11.159119
43140000,0,6620172,944.2032,11.159485
43240000,0,6620172,944.2197,11.159882
43340000,0,6620172,944.23773,11.160278
43440000,0,6620172,944.2272,11.160706
43540000,0,6620172,944.25446,11.161102
43640000,0,6620172,944.25287,11.16153
43740000,0,6620172,944.2858,11.161957
43840000,0,6620172,944.2578,11.162384
43940000,0,6620172,944.2827,11.162811
44040000,0,6620172,944.2974,11.163239
44140000,0,6620172,944.2863,11.163666
44240000,0,6620172,944.3,11.164093
44340000,0,6620172,944.3008,11.16449
44440000,0,6620172,944.28894,11.1649475
44540000,0,6620172,944.32764,11.165344
44640000,0,6620172,944.3199,11.165741
44740000,0,6620172,944.33594,11.166138
44840000,0,6620172,944.3424,11.166534
44940000,0,6620172,944.356,11.166901
45040000,0,6620172,944.3771,11.167267
45140000,0,6620172,944.3558,11.167633
45240000,0,6620172,944.36414,11.16803
45340000,0,6620172,944.3943,11.1683655
45440000,0,6620172,944.37866,11.168701
45540000,0,6620172,944.3763,11.169037
45640000,0,6620172,944.3876,11.169373
45740000,0,6620172,944.3901,11.169647
45840000,0,6620172,944.39526,11.169983
45940000,0,6620172,944.3965,11.170258
46040000,0,6620172,944.4156,11.170563
46140000,0,6620172,944.42664,11.170837
46240000,0,6620172,944.4088,11.171082
46340000,0,6620172,944.4191,11.171356
46440000,0,6620172,944.4278,11.1716
46540000,0,6620172,944.42914,11.1718445
46640000,0,6620172,944.42914,11.172089
46740000,0,6620172,944.4304,11.172302
46840000,0,6620172,944.4739,11.172516
46940000,0,6620172,944.442,11.1727295
47040000,0,6620172,944.44965,11.172943
47140000,0,6620172,944.46124,11.173126
47240000,0,6620172,944.4557,11.173309
47340000,0,6620172,944.46265,11.173492
47440000,0,6620172,944.4588,11.173676
47540000,0,6620172,944.465,11.173828
47640000,0,6620172,944.4738,11.174011
47740000,0,6620172,944.4722,11.174164
47840000,0,6620172,944.4734,11.174286
47940000,0,6620172,944.4844,11.174438
48040000,0,6620172,944.48706,11.174561
48140000,0,6620172,944.47656,11.174683
48240000,0,6620172,944.4869,11.174835
48340000,0,6620172,944.4914,11.174927
48440000,0,6620172,944.4767,11.175049
48540000,0,6620172,944.4954,11.175171
48640000,0,6620172,944.5004,11.175262
48740000,0,6620172,944.5071,11.175354
48840000,0,6620172,944.4742,11.175446
48940000,0,6620172,944.4892,11.175537
49040000,0,6620172,944.4894,11.175629
49140000,0,6620172,944.50696,11.17569
49240000,0,6620172,944.52747,11.175781
49340000,0,6620172,944.4933,11.175842
49440000,0,6620172,944.496,11.175903
49540000,0,6620172,944.513,11.175964
49640000,0,6620172,944.50555,11.176025
49740000,0,6620172,944.5068,11.176086
49840000,0,6620172,944.50604,11.176117
49940000,0,6620172,944.5013,11.176178
50040000,0,6620172,944.4993,11.1762085
50140000,0,6620172,944.52515,11.176239
50240000,0,6620172,944.4909,11.17627
50340000,0,6620172,944.52246,11.1763
50440000,0,6620172,944.5087,11.176331
50540000,0,6620172,944.499,11.176361
50640000,0,6620172,944.5129,11.176392
50740000,0,6620172,944.51105,11.176422
50840000,0,6620172,944.5109,11.176453
50940000,0,6620172,944.5292,11.176453
51040000,0,6620172,944.51184,11.176483
51140000,0,6620172,944.53076,11.176514
51240000,0,6620172,944.5118,11.176514
51340000,0,6620172,944.54865,11.176514
51440000,0,6620172,944.51624,11.176514
51540000,0,6620172,944.51874,11.176514
51640000,0,6620172,944.52997,11.176514
51740000,0,6620172,944.5074,11.176514
51840000,0,6620172,944.512,11.176514
51940000,0,6620172,944.5206,11.176514
52040000,0,6620172,944.5065,11.176514
52140000,0,6620172,944.5112,11.176514
52240000,0,6620172,944.50726,11.176514
52340000,0,6620172,944.5127,11.176514
52440000,0,6620172,944.5036,11.176483
52540000,0,6620172,944.49554,11.176483
52640000,0,6620172,944.5081,11.176483
52740000,0,6620172,944.52136,11.176483
52840000,0,6620172,944.51764,11.176453
52940000,0,6620172,944.5171,11.176453
53040000,0,6620172,944.5325,11.176422
53140000,0,6620172,944.51636,11.176422
53240000,0,6620172,944.5105,11.176392
53340000,0,6620172,944.5068,11.176392
53440000,0,6620172,944.5146,11.176361
53540000,0,6620172,944.5077,11.176361
53640000,0,6620172,944.52295,11.176331
53740000,0,6620172,944.50836,11.176331
53840000,0,6620172,944.5099,11.1763
53940000,0,6620172,944.5051,11.1763
54040000,0,6620172,944.5104,11.17627
54140000,0,6620172,944.50604,11.17627
54240000,0,6620172,944.5054,11.176239
54340000,0,6620172,944.5093,11.1762085
54440000,0,6620172,944.50964,11.1762085
54540000,0,6620172,944.49695,11.176178
54640000,0,6620172,944.50085,11.176178
54740000,0,6620172,944.5098,11.176147
54840000,0,6620172,944.50586,11.176147
54940000,0,6620172,944.4934,11.176117
55040000,0,6620172,944.50446,11.176117
55140000,0,6620172,944.5043,11.176117
55240000,0,6620172,944.51013,11.176086
55340000,0,6620172,944.51086,11.176086
55440000,0,6620172,944.4978,11.176056
55540000,0,6620172,944.48956,11.176056
55640000,0,6620172,944.5291,11.176056
55740000,0,6620172,944.53,11.176025
55840000,0,6620172,944.49536,11.176025
55940000,0,6620172,944.5267,11.176025
56040000,0,6620172,944.4962,11.175995
56140000,0,6620172,944.5077,11.175995
56240000,0,6620172,944.51074,11.175995
56340000,0,6620172,944.512,11.175964
56440000,0,6620172,944.49365,11.175964
56540000,0,6620172,944.4889,11.175964
56640000,0,6620172,944.4904,11.175964
56740000,0,6620172,944.4996,11.175964
56840000,0,6620172,944.5081,11.175964
56940000,0,6620172,944.50305,11.175964
57040000,0,6620172,944.4965,11.175964
57140000,0,6620172,944.4995,11.175964
57240000,0,6620172,944.495,11.175964
57340000,0,6620172,944.4884,11.175964
57440000,0,6620172,944.4933,11.175964
57540000,0,6620172,944.5025,11.175964
57640000,0,6620172,944.5288,11.175964
57740000,0,6620172,944.50336,11.175964
57840000,0,6620172,944.49664,11.175964
57940000,0,6620172,944.4798,11.175964
58040000,0,6620172,944.5091,11.175964
58140000,0,6620172,944.5043,11.175964
58240000,0,6620172,944.5145,11.175964
58340000,0,6620172,944.4962,11.175964
58440000,0,6620172,944.5056,11.175964
58540000,0,6620172,944.49585,11.175964
58640000,0,6620172,944.51324,11.175964
58740000,0,6620172,944.4996,11.175964
58840000,0,6620172,944.52734,11.175964
58940000,0,6620172,944.48755,11.175964
59040000,0,6620172,944.4923,11.175964
59140000,0,6620172,944.5027,11.175964
59240000,0,6620172,944.4958,11.175964
59340000,0,6620172,944.51245,11.175964
59440000,0,6620172,944.50934,11.175964
59540000,0,6620172,944.51044,11.175964
59640000,0,6620172,944.50433,11.175964
59740000,0,6620172,944.49176,11.175964
59840000,0,6620172,944.4942,11.175964
59940000,0,6620172,944.51776,11.175964
60040000,0,6620172,944.52765,11.175964
60140000,0,6620172,944.50366,11.175964
60240000,0,6620172,944.50195,11.175964
60340000,0,6620172,944.502,11.175995
60440000,0,6620172,944.49786,11.175995
60540000,0,6620172,944.5088,11.175995
60640000,0,6620172,944.50977,11.175995
60740000,0,6620172,944.5009,11.176025
60840000,0,6620172,944.5105,11.176025
60940000,0,6620172,944.495,11.176025
61040000,0,6620172,944.5232,11.176025
61140000,0,6620172,944.51624,11.176056
61240000,0,6620172,944.5045,11.176056
61340000,0,6620172,944.5159,11.176056
61440000,0,6620172,944.5293,11.176056
61540000,0,6620172,944.5057,11.176056
61640000,0,6620172,944.5118,11.176086
61740000,0,6620172,944.5104,11.176086
61840000,0,6620172,944.5056,11.176086
61940000,0,6620172,944.51575,11.176086
62040000,0,6620172,944.5162,11.176086
62140000,0,6620172,944.5166,11.176086
62240000,0,6620172,944.518,11.176086
62340000,0,6620172,944.5118,11.176086
62440000,0,6620172,944.51495,11.176086
62540000,0,6620172,944.4962,11.176086
62640000,0,6620172,944.51904,11.176086
62740000,0,6620172,944.51685,11.176086
62844000,0,6620172,944.50574,11.176086
62948000,0,6620172,944.4904,11.176086
63052000,0,6620172,944.51385,11.176086
63152000,0,6620172,944.4943,11.176086
63252000,0,6620172,944.52625,11.176086
63356000,0,6620172,944.4954,11.176086
63460000,0,6620172,944.50574,11.176086
63564000,0,6620172,944.5176,11.176086
63668000,0,6620172,944.50555,11.176086
63768000,0,6620172,944.50867,11.176086
63868000,0,6620172,944.5045,11.176086
63972000,0,6620172,944.50684,11.176086
64076000,0,6620172,944.50446,11.176086
64180000,0,6620172,944.50684,11.176086
64280000,0,6620172,944.50867,11.176086
64380000,0,6620172,944.5064,11.176086
64484000,0,6620172,944.5126,11.176086
64588000,0,6620172,944.50366,11.176086
64692000,0,6620172,944.5032,11.176086
64796000,0,6620172,944.5057,11.176056
64896000,0,6620172,944.4908,11.176056
64996000,0,6620172,944.5051,11.176056
65100000,0,6620172,944.5066,11.176056
65204000,0,6620172,944.51263,11.176056
65308000,0,6620172,944.4987,11.176056
65412000,0,6620172,944.5035,11.176056
65512000,0,6620172,944.50555,11.176056
65612000,0,6620172,944.49396,11.176056
65712000,0,6620172,944.49146,11.176056
65812000,0,6620172,944.5082,11.176056
65912000,0,6620172,944.505,11.176086
66012000,0,6620172,944.5034,11.176086
66112000,0,6620172,944.5063,11.176086
66212000,0,6620172,944.5131,11.176086
66312000,0,6620172,944.5156,11.176086
66412000,0,6620172,944.5036,11.176086
66512000,0,6620172,944.5159,11.176117
66612000,0,6620172,944.4961,11.176117
66712000,0,6620172,944.5003,11.176117
66812000,0,6620172,944.51215,11.176117
66912000,0,6620172,944.5163,11.176147
67012000,0,6620172,944.49,11.176147
67112000,0,6620172,944.5114,11.176178
67212000,0,6620172,944.5152,11.176178
67312000,0,6620172,944.505,11.176178
67412000,0,6620172,944.4953,11.1762085
67512000,0,6620172,944.51843,11.1762085
67612000,0,6620172,944.5221,11.1762085
67712000,0,6620172,944.51715,11.176239
67812000,0,6620172,944.50464,11.176239
67912000,0,6620172,944.51337,11.176239
68012000,0,6620172,944.5187,11.17627
68112000,0,6620172,944.51776,11.17627
68212000,0,6620172,944.5064,11.1763
68312000,0,6620172,944.5052,11.1763
68412000,0,6620172,944.50726,11.1763
68512000,0,6620172,944.5219,11.176331
68612000,0,6620172,944.51117,11.176331
68712000,0,6620172,944.52234,11.176361
68812000,0,6620172,944.5183,11.176361
68912000,0,6620172,944.49445,11.176361
69012000,0,6620172,944.5123,11.176392
69112000,0,6620172,944.5215,11.176392
69212000,0,6620172,944.5165,11.176392
69312000,0,6620172,944.5054,11.176422
69412000,0,6620172,944.51404,11.176422
69512000,0,6620172,944.5159,11.176422
69612000,0,6620172,944.5162,11.176453
69712000,0,6620172,944.52264,11.176453
69812000,0,6620172,944.51715,11.176483
69912000,0,6620172,944.5102,11.176483
70012000,0,6620172,944.5135,11.176514
70112000,0,6620172,944.4997,11.176514
70212000,0,6620172,944.5167,11.176544
70312000,0,6620172,944.5168,11.176575
70412000,0,6620172,944.5256,11.176575
70512000,0,6620172,944.52527,11.176605
70612000,0,6620172,944.51227,11.176636
70712000,0,6620172,944.53,11.176636
70812000,0,6620172,944.5146,11.176666
70912000,0,6620172,944.5215,11.176666
71012000,0,6620172,944.52374,11.176697
71112000,0,6620172,944.5244,11.176697
71212000,0,6620172,944.51935,11.176697
71312000,0,6620172,944.49927,11.176727
71412000,0,6620172,944.51404,11.176727
71512000,0,6620172,944.5025,11.176727
71612000,0,6620172,944.5272,11.176727
71712000,0,6620172,944.51733,11.176727
71812000,0,6620172,944.53156,11.176727
71912000,0,6620172,944.5137,11.176727
72012000,0,6620172,944.5163,11.176727
72112000,0,6620172,944.5057,11.176727
72212000,0,6620172,944.511,11.176727
72312000,0,6620172,944.53015,11.176727
72412000,0,6620172,944.5374,11.176727
72512000,0,6620172,944.50586,11.176727
72612000,0,6620172,944.519,11.176727
72712000,0,6620172,944.5098,11.176697
72812000,0,6620172,944.5308,11.176697
72912000,0,6620172,944.5321,11.176697
73012000,0,6620172,944.5194,11.176697
73112000,0,6620172,944.5045,11.176697
73212000,0,6620172,944.50903,11.176697
73312000,0,6620172,944.4999,11.176697
73412000,0,6620172,944.5066,11.176697
73512000,0,6620172,944.53143,11.176666
73612000,0,6620172,944.5148,11.176666
73712000,0,6620172,944.5173,11.176666
73812000,0,6620172,944.50165,11.176666
73912000,0,6620172,944.5269,11.176666
74012000,0,6620172,944.517,11.176666
74112000,0,6620172,944.51965,11.176666
74212000,0,6620172,944.5194,11.176666
74312000,0,6620172,944.5353,11.176666
74412000,0,6620172,944.4995,11.176666
74512000,0,6620172,944.52356,11.176666
74612000,0,6620172,944.5293,11.176666
74712000,0,6620172,944.52344,11.176636
74812000,0,6620172,944.5221,11.176636
74912000,0,6620172,944.53296,11.176636
75012000,0,6620172,944.5162,11.176636
75112000,0,6620172,944.52747,11.176636
75212000,0,6620172,944.5242,11.176636
75312000,0,6620172,944.5204,11.176636
75412000,0,6620172,944.51514,11.176636
75512000,0,6620172,944.52435,11.176636
75612000,0,6620172,944.5176,11.176605
75712000,0,6620172,944.50574,11.176605
75812000,0,6620172,944.5056,11.176605
75912000,0,6620172,944.51746,11.176605
76012000,0,6620172,944.5265,11.176605
76112000,0,6620172,944.50903,11.176605
76212000,0,6620172,944.4964,11.176575
76312000,0,6620172,944.50867,11.176575
76412000,0,6620172,944.51825,11.176575
76512000,0,6620172,944.52344,11.176575
76612000,0,6620172,944.53375,11.176575
76712000,0,6620172,944.5157,11.176544
76812000,0,6620172,944.5222,11.176544
76912000,0,6620172,944.52966,11.176544
77012000,0,6620172,944.51636,11.176544
77112000,0,6620172,944.516,11.176544
77212000,0,6620172,944.5275,11.176514
77312000,0,6620172,944.5063,11.176514
77412000,0,6620172,944.52496,11.176514
77512000,0,6620172,944.5177,11.176514
77612000,0,6620172,944.5208,11.176514
77712000,0,6620172,944.5099,11.176483
77812000,0,6620172,944.5129,11.176483
77912000,0,6620172,944.52747,11.176483
78012000,0,6620172,944.52356,11.176483
78112000,0,6620172,944.5208,11.176453
78212000,0,6620172,944.5082,11.176453
78312000,0,6620172,944.5148,11.176453
78412000,0,6620172,944.5048,11.176453
78512000,0,6620172,944.53436,11.176422
78612000,0,6620172,944.50183,11.176422
78712000,0,6620172,944.5316,11.176422
78812000,0,6620172,944.5037,11.176422
78912000,0,6620172,944.52826,11.176422
79012000,0,6620172,944.5034,11.176392
79112000,0,6620172,944.5191,11.176392
79212000,0,6620172,944.50507,11.176392
79312000,0,6620172,944.50836,11.176392
79412000,0,6620172,944.50323,11.176361
79512000,0,6620172,944.51685,11.176361
79612000,0,6620172,944.5089,11.176361
79712000,0,6620172,944.5355,11.176331
79812000,0,6620172,944.51776,11.176331
79912000,0,6620172,944.51715,11.176331
80012000,0,6620172,944.517,11.1763
80112000,0,6620172,944.5071,11.1763
80212000,0,6620172,944.5169,11.1763
80312000,0,6620172,944.50653,11.17627
80412000,0,6620172,944.5244,11.17627
80512000,0,6620172,944.50165,11.17627
80612000,0,6620172,944.50946,11.17627
80712000,0,6620172,944.5031,11.17627
80812000,0,6620172,944.4901,11.17627
80912000,0,6620172,944.52167,11.17627
81012000,0,6620172,944.5078,11.17627
81112000,0,6620172,944.5185,11.17627
81212000,0,6620172,944.5151,11.17627
81312000,0,6620172,944.5092,11.176239
81412000,0,6620172,944.49335,11.176239
81512000,0,6620172,944.5246,11.176239
81612000,0,6620172,944.51105,11.176239
81712000,0,6620172,944.51984,11.176239
81812000,0,6620172,944.50037,11.1762085
81912000,0,6620172,944.5077,11.1762085
82012000,0,6620172,944.50757,11.1762085
82112000,0,6620172,944.5009,11.1762085
82212000,0,6620172,944.5141,11.1762085
82312000,0,6620172,944.5085,11.1762085
82412000,0,6620172,944.5003,11.1762085
82512000,0,6620172,944.5281,11.1762085
82612000,0,6620172,944.512,11.1762085
82712000,0,6620172,944.5124,11.1762085
82812000,0,6620172,944.5141,11.1762085
82912000,0,6620172,944.5185,11.1762085
83012000,0,6620172,944.4979,11.1762085
83112000,0,6620172,944.5017,11.1762085
83212000,0,6620172,944.51843,11.1762085
83312000,0,6620172,944.5057,11.1762085
83412000,0,6620172,944.50977,11.1762085
83512000,0,6620172,944.5104,11.1762085
83612000,0,6620172,944.51324,11.176239
83712000,0,6620172,944.5087,11.176239
83812000,0,6620172,944.50867,11.176239
83912000,0,6620172,944.52026,11.176239
84012000,0,6620172,944.5121,11.17627
84112000,0,6620172,944.52936,11.17627
84212000,0,6620172,944.49786,11.17627
84312000,0,6620172,944.5194,11.1763
84412000,0,6620172,944.5137,11.1763
84512000,0,6620172,944.5054,11.176331
84612000,0,6620172,944.4951,11.176331
84712000,0,6620172,944.49927,11.176331
84812000,0,6620172,944.5049,11.176361
84912000,0,6620172,944.52313,11.176361
85012000,0,6620172,944.5141,11.176392
85112000,0,6620172,944.51086,11.176392
85212000,0,6620172,944.52515,11.176392
85312000,0,6620172,944.53394,11.176422
85412000,0,6620172,944.5085,11.176422
85512000,0,6620172,944.52466,11.176422
85612000,0,6620172,944.5187,11.176453
85712000,0,6620172,944.4962,11.176453
85812000,0,6620172,944.52344,11.176483
85912000,0,6620172,944.53156,11.176483
86012000,0,6620172,944.521,11.176514
86112000,0,6620172,944.52203,11.176514
86212000,0,6620172,944.5219,11.176544
86312000,0,6620172,944.5032,11.176544
86412000,0,6620172,944.52026,11.176575
86512000,0,6620172,944.51105,11.176575
86612000,0,6620172,944.52234,11.176605
86712000,0,6620172,944.5325,11.176636
86812000,0,6620172,944.50854,11.176636
86912000,0,6620172,944.5059,11.176666
87012000,0,6620172,944.5085,11.176666
87112000,0,6620172,944.5317,11.176697
87212000,0,6620172,944.54047,11.176697
87312000,0,6620172,944.5251,11.176727
87412000,0,6620172,944.52496,11.176758
87512000,0,6620172,944.52277,11.176758
87612000,0,6620172,944.5187,11.176788
87712000,0,6620172,944.52136,11.176819
87812000,0,6620172,944.52325,11.176849
87912000,0,6620172,944.51337,11.17691
88012000,0,6620172,944.5224,11.176941
88112000,0,6620172,944.5319,11.177032
88212000,0,6620172,944.53406,11.177124
88312000,0,6620172,944.50433,11.177246
88412000,0,6620172,944.5101,11.177368
88512000,0,6620172,944.53015,11.177551
88612000,0,6620172,944.541,11.177704
88712000,0,6620172,944.5414,11.1779175
88812000,0,6620172,944.5206,11.178131
88912000,0,6620172,944.55896,11.178345
89012000,0,6620172,944.5597,11.178558
89112000,0,6620172,944.5724,11.1788025
89212000,0,6620172,944.55536,11.179016
89312000,0,6620172,944.56433,11.17923
89412000,0,6620172,944.5793,11.179474
89512000,0,6620172,944.5709,11.1796875
89612000,0,6620172,944.5716,11.179901
89712000,0,6620172,944.5774,11.180145
89812000,0,6620172,944.59357,11.180389
89912000,0,6620172,944.58014,11.180603
90012000,0,6620172,944.58905,11.180847
90112000,0,6620172,944.5959,11.181122
90212000,0,6620172,944.59644,11.181366
90312000,0,6620172,944.5957,11.181641
90412000,0,6620172,944.6048,11.181946
90512000,0,6620172,944.61774,11.182251
90612000,0,6620172,944.61316,11.182556
90712000,0,6620172,944.6085,11.182892
90812000,0,6620172,944.6063,11.183228
90912000,0,6620172,944.6443,11.183594
91012000,0,6620172,944.627,11.1839905
91112000,0,6620172,944.6527,11.184418
91212000,0,6620172,944.6673,11.184814
91312000,0,6620172,944.661,11.185272
91412000,0,6620172,944.6857,11.1857605
91512000,0,6620172,944.68665,11.186249
91612000,0,6620172,944.71063,11.186768
91712000,0,6620172,944.71136,11.187317
91812000,0,6620172,944.70544,11.187897
91912000,0,6620172,944.7211,11.188477
92012000,0,6620172,944.7342,11.189117
92112000,0,6620172,944.7297,11.189758
92212000,0,6620172,944.7509,11.19043
92312000,0,6620172,944.76605,11.191132
92412000,0,6620172,944.78687,11.1918335
92512000,0,6620172,944.80334,11.192566
92612000,0,6620172,944.81177,11.193298
92712000,0,6620172,944.7956,11.194031
92812000,0,6620172,944.83795,11.194824
92912000,0,6620172,944.8284,11.195587
93012000,0,6620172,944.8746,11.19635
93112000,0,6620172,944.8777,11.197144
93212000,0,6620172,944.89795,11.197937
93312000,0,6620172,944.9005,11.198761
93412000,0,6620172,944.9184,11.199554
93512000,0,6620172,944.9264,11.200348
93612000,0,6620172,944.944,11.201141
93712000,0,6620172,944.95746,11.201935
93812000,0,6620172,944.97546,11.202698
93912000,0,6620172,944.9848,11.20343
94012000,0,6620172,945.0014,11.204193
94112000,0,6620172,945.03046,11.204926
94212000,0,6620172,945.0255,11.205688
94312000,0,6620172,945.04663,11.206421
94412000,0,6620172,945.04565,11.207123
94512000,0,6620172,945.06006,11.207855
94612000,0,6620172,945.07184,11.208588
94712000,0,6620172,945.0841,11.209351
94812000,0,6620172,945.08264,11.210022
94912000,0,6620172,945.119,11.210785
95012000,0,6620172,945.1402,11.211517
95112000,0,6620172,945.1406,11.212189
95212000,0,6620172,945.15656,11.212921
95312000,0,6620172,945.17163,11.213623
95412000,0,6620172,945.1906,11.214325
95512000,0,6620172,945.1667,11.215027
95612000,0,6620172,945.21094,11.215729
95712000,0,6620172,945.2341,11.2164
95812000,0,6620172,945.206,11.217041
95912000,0,6620172,945.23254,11.217651
96012000,0,6620172,945.23584,11.218262
96112000,0,6620172,945.2537,11.218842
96212000,0,6620172,945.25854,11.219299
96312000,0,6620172,945.2517,11.219788
96412000,0,6620172,945.28644,11.220184
96512000,0,6620172,945.2964,11.2204895
96612000,0,6620172,945.2799,11.220734
96712000,0,6620172,945.2828,11.220886
96812000,0,6620172,945.2897,11.220947
96912000,0,6620172,945.2964,11.220886
97012000,0,6620172,945.2771,11.220734
97112000,0,6620172,945.28156,11.220428
97212000,0,6620172,945.25214,11.220032
97312000,0,6620172,945.2619,11.219513
97412000,0,6620172,945.2702,11.218842
97512000,0,6620172,945.24255,11.218048
97612000,0,6620172,945.226,11.217072
97712000,0,6620172,945.1934,11.216095
97812000,0,6620172,945.2051,11.214935
97912000,0,6620172,945.1557,11.213654
98012000,0,6620172,945.1572,11.212372
98112000,0,6620172,945.10565,11.210968
98212000,0,6620172,945.0993,11.209473
98312000,0,6620172,945.0551,11.207947
98412000,0,6620172,945.03894,11.20639
98512000,0,6620172,945.0202,11.204773
98612000,0,6620172,944.9599,11.203125
98712000,0,6620172,944.9416,11.201508
98812000,0,6620172,944.93066,11.19986
98912000,0,6620172,944.8801,11.198151
99012000,0,6620172,944.87805,11.196594
99112000,0,6620172,944.843,11.194977
99212000,0,6620172,944.8262,11.19342
99312000,0,6620172,944.77045,11.191895
99412000,0,6620172,944.74615,11.190399
99512000,0,6620172,944.731,11.188934
99612000,0,6620172,944.6942,11.187561
99712000,0,6620172,944.6699,11.186188
99812000,0,6620172,944.6581,11.184967
99912000,0,6620172,944.6539,11.183746
100012000,0,6620172,944.60223,11.182617
100112000,0,6620172,944.6031,11.181549
100212000,0,6620172,944.5981,11.180511
100312000,0,6620172,944.56323,11.179626
100412000,0,6620172,944.546,11.178741
100512000,0,6620172,944.53754,11.177948
100612000,0,6620172,944.5091,11.177216
100712000,0,6620172,944.50867,11.176514
100812000,0,6620172,944.4953,11.175934
100912000,0,6620172,944.49255,11.1753845
101012000,0,6620172,944.50006,11.174896
101112000,0,6620172,944.47406,11.174469
101212000,0,6620172,944.4661,11.174072
101312000,0,6620172,944.4581,11.173737
101412000,0,6620172,944.4567,11.173431
101512000,0,6620172,944.45654,11.173187
101612000,0,6620172,944.4635,11.172974
101712000,0,6620172,944.44006,11.172791
101812000,0,6620172,944.4494,11.172668
101912000,0,6620172,944.44403,11.172546
102012000,0,6620172,944.44147,11.172455
102112000,0,6620172,944.4402,11.172394
102212000,0,6620172,944.4361,11.172333
102312000,0,6620172,944.4506,11.172302
102412000,0,6620172,944.4413,11.172272
102512000,0,6620172,944.4478,11.172272
102612000,0,6620172,944.42755,11.172272
102712000,0,6620172,944.4372,11.172272
102812000,0,6620172,944.4406,11.172302
102912000,0,6620172,944.4476,11.172302
103012000,0,6620172,944.44073,11.172333
103112000,0,6620172,944.4388,11.172363
103212000,0,6620172,944.4395,11.172363
103312000,0,6620172,944.4364,11.172394
103412000,0,6620172,944.43866,11.172394
103512000,0,6620172,944.45496,11.172394
103612000,0,6620172,944.44055,11.172394
103712000,0,6620172,944.4459,11.172394
103812000,0,6620172,944.4258,11.172363
103912000,0,6620172,944.43414,11.172333
104012000,0,6620172,944.4439,11.172272
104112000,0,6620172,944.4388,11.172211
104212000,0,6620172,944.43524,11.17215
104312000,0,6620172,944.43726,11.172058
104412000,0,6620172,944.4418,11.171967
104512000,0,6620172,944.46436,11.171875
104612000,0,6620172,944.4264,11.171753
104712000,0,6620172,944.4223,11.1716
104812000,0,6620172,944.4359,11.171478
104912000,0,6620172,944.43506,11.171326
105012000,0,6620172,944.4365,11.171143
105112000,0,6620172,944.425,11.17099
105212000,0,6620172,944.40875,11.170807
105312000,0,6620172,944.3985,11.170624
105412000,0,6620172,944.4188,11.170441
105512000,0,6620172,944.40765,11.170227
105612000,0,6620172,944.41583,11.170044
105712000,0,6620172,944.39594,11.16983
105812000,0,6620172,944.40875,11.169647
105912000,0,6620172,944.38855,11.169434
106012000,0,6620172,944.38367,11.1692505
106112000,0,6620172,944.40753,11.169037
106212000,0,6620172,944.3793,11.168854
106312000,0,6620172,944.398,11.168671
106412000,0,6620172,944.3749,11.168488
106512000,0,6620172,944.37024,11.168304
106612000,0,6620172,944.377,11.168121
106712000,0,6620172,944.3854,11.167969
106812000,0,6620172,944.36395,11.167816
106912000,0,6620172,944.36224,11.167664
107012000,0,6620172,944.33575,11.167511
107112000,0,6620172,944.3523,11.167389
107212000,0,6620172,944.3715,11.167267
107312000,0,6620172,944.3787,11.167145
107412000,0,6620172,944.35266,11.167053
107512000,0,6620172,944.3335,11.166962
107612000,0,6620172,944.35144,11.16687
107712000,0,6620172,944.3484,11.166779
107812000,0,6620172,944.3361,11.166718
107912000,0,6620172,944.3231,11.166626
108012000,0,6620172,944.34656,11.166565
108112000,0,6620172,944.34576,11.166534
108212000,0,6620172,944.3531,11.166473
108312000,0,6620172,944.3344,11.166443
108412000,0,6620172,944.3456,11.166412
108512000,0,6620172,944.32465,11.166382
108612000,0,6620172,944.32074,11.166321
108712000,0,6620172,944.31415,11.16629
108812000,0,6620172,944.33246,11.16626
108912000,0,6620172,944.3355,11.16626
109012000,0,6620172,944.35266,11.166229
109112000,0,6620172,944.3365,11.166199
109212000,0,6620172,944.3453,11.166168
109312000,0,6620172,944.3131,11.166138
109412000,0,6620172,944.3306,11.166107
109512000,0,6620172,944.333,11.166077
109612000,0,6620172,944.3369,11.166046
109712000,0,6620172,944.32336,11.166016
109812000,0,6620172,944.31165,11.165985
109912000,0,6620172,944.32623,11.165985
110012000,0,6620172,944.3502,11.165955
110112000,0,6620172,944.32825,11.165924
110212000,0,6620172,944.3231,11.165894
110312000,0,6620172,944.34937,11.165863
110412000,0,6620172,944.3377,11.1658325
110512000,0,6620172,944.33606,11.165802
110612000,0,6620172,944.33606,11.1657715
110712000,0,6620172,944.3188,11.165741
110812000,0,6620172,944.31476,11.16571
110912000,0,6620172,944.33496,11.16568
111012000,0,6620172,944.34326,11.165649
111112000,0,6620172,944.3184,11.165619
111212000,0,6620172,944.33136,11.165619
111312000,0,6620172,944.31335,11.165588
111412000,0,6620172,944.32544,11.165558
111512000,0,6620172,944.32153,11.165527
111612000,0,6620172,944.33075,11.165527
111712000,0,6620172,944.30896,11.165497
111812000,0,6620172,944.3239,11.165497
111912000,0,6620172,944.32043,11.165497
112012000,0,6620172,944.31726,11.165466
112112000,0,6620172,944.34,11.165466
112212000,0,6620172,944.3083,11.165466
112312000,0,6620172,944.3092,11.165466
112412000,0,6620172,944.31805,11.165466
112512000,0,6620172,944.315,11.165466
112612000,0,6620172,944.32904,11.165466
112712000,0,6620172,944.32874,11.165466
112812000,0,6620172,944.3207,11.165466
112912000,0,6620172,944.326,11.165466
113012000,0,6620172,944.32794,11.165497
113112000,0,6620172,944.3317,11.165527
113212000,0,6620172,944.3135,11.165527
113312000,0,6620172,944.3255,11.165558
113412000,0,6620172,944.3096,11.165619
113512000,0,6620172,944.3282,11.165649
113612000,0,6620172,944.3338,11.16568
113712000,0,6620172,944.3234,11.165741
113812000,0,6620172,944.33215,11.165802
113912000,0,6620172,944.33655,11.165863
114012000,0,6620172,944.3414,11.165955
114112000,0,6620172,944.32635,11.166016
114212000,0,6620172,944.345,11.166107
114312000,0,6620172,944.3469,11.166199
114412000,0,6620172,944.33655,11.16629
114512000,0,6620172,944.3489,11.166382
114612000,0,6620172,944.33746,11.166504
114712000,0,6620172,944.3516,11.166626
114812000,0,6620172,944.33746,11.166748
114912000,0,6620172,944.3404,11.16687
115012000,0,6620172,944.3507,11.166992
115112000,0,6620172,944.3355,11.167175
115212000,0,6620172,944.35516,11.167297
115312000,0,6620172,944.35156,11.16748
115412000,0,6620172,944.36523,11.167664
115512000,0,6620172,944.3701,11.167847
115612000,0,6620172,944.3644,11.16803
115712000,0,6620172,944.37805,11.168213
115812000,0,6620172,944.3762,11.1684265
115912000,0,6620172,944.3737,11.16864
116012000,0,6620172,944.37897,11.168854
116112000,0,6620172,944.3941,11.169098
116212000,0,6620172,944.3879,11.169342
116312000,0,6620172,944.38837,11.169586
116412000,0,6620172,944.396,11.16983
116512000,0,6620172,944.39246,11.170105
116612000,0,6620172,944.39404,11.17038
116712000,0,6620172,944.4284,11.170654
116812000,0,6620172,944.4401,11.170959
116912000,0,6620172,944.42395,11.171234
117012000,0,6620172,944.4227,11.17157
117112000,0,6620172,944.4354,11.1719055
117212000,0,6620172,944.46027,11.172211
117312000,0,6620172,944.4554,11.172546
117412000,0,6620172,944.444,11.172913
117512000,0,6620172,944.4412,11.173279
117612000,0,6620172,944.4565,11.173645
117712000,0,6620172,944.4713,11.174042
117812000,0,6620172,944.49036,11.174438
117912000,0,6620172,944.4709,11.174805
118012000,0,6620172,944.5099,11.175232
118112000,0,6620172,944.5009,11.17569
118212000,0,6620172,944.4967,11.176117
118312000,0,6620172,944.50946,11.176575
118412000,0,6620172,944.50793,11.177063
118512000,0,6620172,944.52496,11.177521
118612000,0,6620172,944.546,11.17804
118712000,0,6620172,944.5603,11.178558
118812000,0,6620172,944.5458,11.179047
118912000,0,6620172,944.5626,11.179596
119012000,0,6620172,944.5652,11.180145
119112000,0,6620172,944.60016,11.180695
119212000,0,6620172,944.5993,11.181274
119312000,0,6620172,944.58685,11.181854
119412000,0,6620172,944.6281,11.182434
119512000,0,6620172,944.64105,11.183014
119612000,0,6620172,944.65265,11.183624
119712000,0,6620172,944.6346,11.184265
119812000,0,6620172,944.65045,11.184845
119912000,0,6620172,944.69086,11.185486
120012000,0,6620172,944.691,11.186096
120112000,0,6620172,944.70123,11.186707
120212000,0,6620172,944.69196,11.187347
120312000,0,6620172,944.7306,11.187958
120412000,0,6620172,944.72723,11.188599
120512000,0,6620172,944.73615,11.189209
120612000,0,6620172,944.7575,11.18985
120712000,0,6620172,944.7556,11.19046
120812000,0,6620172,944.77686,11.19104
120912000,0,6620172,944.78937,11.19165
121012000,0,6620172,944.7873,11.192261
121112000,0,6620172,944.7792,11.192841
121212000,0,6620172,944.81964,11.19339
121312000,0,6620172,944.82855,11.193939
121412000,0,6620172,944.8349,11.194489
121512000,0,6620172,944.83563,11.195007
121612000,0,6620172,944.83636,11.195557
121712000,0,6620172,944.8623,11.196075
121812000,0,6620172,944.86615,11.196533
121912000,0,6620172,944.87054,11.196869
122012000,0,6620172,944.87585,11.1970825
122112000,0,6620172,944.8753,11.197174
122212000,0,6620172,944.8871,11.197144
122312000,0,6620172,944.87476,11.196991
122412000,0,6620172,944.8762,11.196747
122512000,0,6620172,944.8648,11.196411
122612000,0,6620172,944.8493,11.195984
122712000,0,6620172,944.838,11.195435
122812000,0,6620172,944.8279,11.194824
122912000,0,6620172,944.8266,11.194122
123012000,0,6620172,944.81976,11.19342
123112000,0,6620172,944.8093,11.192657
123212000,0,6620172,944.77155,11.191864
123312000,0,6620172,944.77094,11.1910095
123412000,0,6620172,944.7538,11.190186
123512000,0,6620172,944.7321,11.189331
123612000,0,6620172,944.7317,11.188477
123712000,0,6620172,944.71063,11.187653
123812000,0,6620172,944.69,11.186859
123912000,0,6620172,944.68054,11.186066
124012000,0,6620172,944.6723,11.185303
124112000,0,6620172,944.6655,11.184601
124212000,0,6620172,944.6525,11.183929
124312000,0,6620172,944.6494,11.183319
124412000,0,6620172,944.62585,11.182739
124512000,0,6620172,944.61,11.18219
124612000,0,6620172,944.6036,11.181732
124712000,0,6620172,944.6183,11.181274
124812000,0,6620172,944.5939,11.180908
124912000,0,6620172,944.5788,11.180542
125012000,0,6620172,944.5844,11.180267
125112000,0,6620172,944.5704,11.180023
125212000,0,6620172,944.57294,11.17981
125312000,0,6620172,944.5774,11.179657
125412000,0,6620172,944.5779,11.179535
125512000,0,6620172,944.57434,11.179443
125612000,0,6620172,944.5712,11.179382
125712000,0,6620172,944.57855,11.179352
125812000,0,6620172,944.56757,11.179352
125912000,0,6620172,944.5625,11.179413
126012000,0,6620172,944.57117,11.179474
126112000,0,6620172,944.58905,11.179565
126212000,0,6620172,944.5435,11.179657
126312000,0,6620172,944.5611,11.17981
126412000,0,6620172,944.58466,11.179962
126512000,0,6620172,944.56647,11.180115
126612000,0,6620172,944.58203,11.180328
126712000,0,6620172,944.58344,11.180511
126816000,0,6620172,944.5829,11.180756
126916000,0,6620172,944.5916,11.180969
127016000,0,6620172,944.6165,11.181244
127120000,0,6620172,944.6027,11.181488
127220000,0,6620172,944.6052,11.181732
127320000,0,6620172,944.6173,11.182007
127420000,0,6620172,944.62177,11.1822815
127524000,0,6620172,944.6394,11.182556
127624000,0,6620172,944.6242,11.1828
127724000,0,6620172,944.6133,11.183075
127828000,0,6620172,944.6402,11.18335
127928000,0,6620172,944.6312,11.183624
128028000,0,6620172,944.64575,11.183838
128132000,0,6620172,944.6433,11.184113
128232000,0,6620172,944.6552,11.184326
128332000,0,6620172,944.65796,11.18457
128432000,0,6620172,944.6591,11.184784
128536000,0,6620172,944.66406,11.184998
128636000,0,6620172,944.66614,11.185181
128736000,0,6620172,944.6865,11.185364
128840000,0,6620172,944.6623,11.185516
128940000,0,6620172,944.6635,11.185669
129040000,0,6620172,944.6759,11.185791
129144000,0,6620172,944.67865,11.185913
129244000,0,6620172,944.6683,11.186005
129344000,0,6620172,944.684,11.186066
129444000,0,6620172,944.71216,11.186127
129548000,0,6620172,944.6899,11.186157
129648000,0,6620172,944.67554,11.186157
129748000,0,6620172,944.6809,11.186127
129852000,0,6620172,944.6932,11.186096
129952000,0,6620172,944.70624,11.186035
130052000,0,6620172,944.66656,11.185944
130152000,0,6620172,944.6822,11.185822
130256000,0,6620172,944.6928,11.185699
130356000,0,6620172,944.6722,11.185547
130456000,0,6620172,944.6649,11.185364
130560000,0,6620172,944.6735,11.185181
130660000,0,6620172,944.65906,11.184967
130760000,0,6620172,944.65625,11.184753
130864000,0,6620172,944.66144,11.184509
130964000,0,6620172,944.6716,11.184265
131064000,0,6620172,944.6491,11.1839905
131164000,0,6620172,944.6554,11.183716
131268000,0,6620172,944.61444,11.183441
131368000,0,6620172,944.61395,11.183136
131468000,0,6620172,944.6145,11.182861
131572000,0,6620172,944.61975,11.182556
131672000,0,6620172,944.61053,11.182251
131772000,0,6620172,944.62177,11.181976
131876000,0,6620172,944.5906,11.181671
131976000,0,6620172,944.5999,11.181366
132076000,0,6620172,944.61053,11.181091
132176000,0,6620172,944.5822,11.180786
132280000,0,6620172,944.58514,11.180511
132380000,0,6620172,944.58124,11.180237
132480000,0,6620172,944.5702,11.179993
132580000,0,6620172,944.5601,11.179749
132680000,0,6620172,944.56696,11.179504
132780000,0,6620172,944.55804,11.179291
132880000,0,6620172,944.567,11.179077
132980000,0,6620172,944.5654,11.178894
133080000,0,6620172,944.5559,11.178711
133180000,0,6620172,944.5587,11.178528
133280000,0,6620172,944.5475,11.178375
133380000,0,6620172,944.56177,11.178223
133480000,0,6620172,944.5265,11.178101
133580000,0,6620172,944.5374,11.1779785
133680000,0,6620172,944.5352,11.177856
133780000,0,6620172,944.5277,11.177734
133880000,0,6620172,944.51385,11.177643
133980000,0,6620172,944.54944,11.177582
134080000,0,6620172,944.5145,11.17749
134180000,0,6620172,944.54675,11.177429
134280000,0,6620172,944.5322,11.177368
134380000,0,6620172,944.5181,11.177338
134480000,0,6620172,944.5048,11.177277
134580000,0,6620172,944.51953,11.177277
134680000,0,6620172,944.5424,11.177246
134780000,0,6620172,944.52155,11.177216
134880000,0,6620172,944.5371,11.177216
134980000,0,6620172,944.5174,11.177216
135080000,0,6620172,944.5208,11.177216
135180000,0,6620172,944.5249,11.177216
135280000,0,6620172,944.5222,11.177216
135380000,0,6620172,944.5153,11.177216
135480000,0,6620172,944.5374,11.177246
135580000,0,6620172,944.5123,11.177246
135680000,0,6620172,944.5481,11.177277
135780000,0,6620172,944.53546,11.177307
135880000,0,6620172,944.5148,11.177307
135980000,0,6620172,944.5272,11.177338
136080000,0,6620172,944.5169,11.177338
136180000,0,6620172,944.53,11.177368
136280000,0,6620172,944.5342,11.177399
136380000,0,6620172,944.54016,11.177429
136480000,0,6620172,944.5156,11.177429
136580000,0,6620172,944.5275,11.17746
136680000,0,6620172,944.5339,11.17749
136780000,0,6620172,944.5357,11.17749
136880000,0,6620172,944.5382,11.177521
136980000,0,6620172,944.53296,11.177551
137080000,0,6620172,944.5059,11.177582
137180000,0,6620172,944.5374,11.177582
137280000,0,6620172,944.5406,11.177612
137380000,0,6620172,944.54694,11.177643
137480000,0,6620172,944.5194,11.177673
137580000,0,6620172,944.5506,11.177673
137680000,0,6620172,944.5233,11.177704
137780000,0,6620172,944.5581,11.177734
137880000,0,6620172,944.54083,11.177734
137980000,0,6620172,944.53644,11.177765
138080000,0,6620172,944.5342,11.177795
138180000,0,6620172,944.5281,11.177795
138280000,0,6620172,944.52606,11.177826
138380000,0,6620172,944.5356,11.177826
138480000,0,6620172,944.52795,11.177856
138580000,0,6620172,944.5417,11.177856
138680000,0,6620172,944.55,11.177856
138780000,0,6620172,944.535,11.177887
138880000,0,6620172,944.5318,11.177887
138980000,0,6620172,944.5452,11.177887
139080000,0,6620172,944.5328,11.177887
139180000,0,6620172,944.5625,11.177887
139280000,0,6620172,944.5359,11.177887
139380000,0,6620172,944.5424,11.177887
139480000,0,6620172,944.53046,11.177887
139580000,0,6620172,944.52325,11.177887
139680000,0,6620172,944.5361,11.177887
139780000,0,6620172,944.5358,11.177887
139880000,0,6620172,944.5317,11.177887
139980000,0,6620172,944.5358,11.177887
140080000,0,6620172,944.5447,11.177856
140180000,0,6620172,944.5498,11.177856
140280000,0,6620172,944.53644,11.177856
140380000,0,6620172,944.52606,11.177856
140480000,0,6620172,944.5522,11.177826
140580000,0,6620172,944.53143,11.177826
140680000,0,6620172,944.5128,11.177826
140780000,0,6620172,944.5436,11.177826
140880000,0,6620172,944.54614,11.177795
140980000,0,6620172,944.53796,11.177795
141080000,0,6620172,944.536,11.177795
141180000,0,6620172,944.52136,11.177765
141280000,0,6620172,944.5162,11.177765
141380000,0,6620172,944.519,11.177734
141480000,0,6620172,944.5382,11.177734
141580000,0,6620172,944.5367,11.177734
141680000,0,6620172,944.5304,11.177704
141780000,0,6620172,944.52277,11.177704
141880000,0,6620172,944.52167,11.177673
141980000,0,6620172,944.53577,11.177673
142080000,0,6620172,944.5416,11.177643
142180000,0,6620172,944.53577,11.177643
142280000,0,6620172,944.5395,11.177612
142380000,0,6620172,944.5355,11.177582
142480000,0,6620172,944.5199,11.177582
142580000,0,6620172,944.53046,11.177551
142680000,0,6620172,944.5176,11.177551
142780000,0,6620172,944.53076,11.177521
142880000,0,6620172,944.5498,11.177521
142980000,0,6620172,944.54254,11.177521
143080000,0,6620172,944.53357,11.17749
143180000,0,6620172,944.52295,11.17749
143280000,0,6620172,944.526,11.17746
143380000,0,6620172,944.5385,11.17746
143480000,0,6620172,944.52856,11.17746
143580000,0,6620172,944.52386,11.177429
143680000,0,6620172,944.5369,11.177429
143780000,0,6620172,944.53973,11.177429
143880000,0,6620172,944.55096,11.177399
143980000,0,6620172,944.53546,11.177399
144080000,0,6620172,944.5363,11.177399
144180000,0,6620172,944.5233,11.177368
144280000,0,6620172,944.5307,11.177368
144380000,0,6620172,944.54565,11.177368
144480000,0,6620172,944.5409,11.177368
144580000,0,6620172,944.53485,11.177338
144680000,0,6620172,944.5311,11.177338
144780000,0,6620172,944.5255,11.177338
144880000,0,6620172,944.53754,11.177338
144980000,0,6620172,944.5405,11.177338
145080000,0,6620172,944.512,11.177338
145180000,0,6620172,944.53394,11.177338
145280000,0,6620172,944.526,11.177338
145380000,0,6620172,944.54816,11.177338
145480000,0,6620172,944.53613,11.177338
145580000,0,6620172,944.50574,11.177338
145680000,0,6620172,944.52765,11.177368
145780000,0,6620172,944.5233,11.177368
145880000,0,6620172,944.5188,11.177368
145980000,0,6620172,944.54395,11.177368
146080000,0,6620172,944.5357,11.177338
146180000,0,6620172,944.5272,11.177307
146280000,0,6620172,944.5385,11.177216
146380000,0,6620172,944.5392,11.177124
146480000,0,6620172,944.51764,11.177002
146580000,0,6620172,944.5079,11.176941
146680000,0,6620172,944.5204,11.17688
146780000,0,6620172,944.51636,11.17691
146880000,0,6620172,944.4978,11.176971
146980000,0,6620172,944.52686,11.177063
147080000,0,6620172,944.51965,11.177246
147180000,0,6620172,944.5241,11.177429
147280000,0,6620172,944.5414,11.177673
147380000,0,6620172,944.5207,11.1779175
147480000,0,6620172,944.538,11.178223
147580000,0,6620172,944.5483,11.178528
147680000,0,6620172,944.55414,11.178864
147780000,0,6620172,944.569,11.17923
147880000,0,6620172,944.5773,11.179565
147980000,0,6620172,944.5741,11.179901
148080000,0,6620172,944.5897,11.180267
148180000,0,6620172,944.5806,11.180603
148280000,0,6620172,944.60406,11.180939
148380000,0,6620172,944.59546,11.181274
148480000,0,6620172,944.6034,11.18158
148580000,0,6620172,944.6271,11.181854
148680000,0,6620172,944.6248,11.182129
148780000,0,6620172,944.6053,11.182404
148880000,0,6620172,944.62616,11.182648
148980000,0,6620172,944.6042,11.182831
149080000,0,6620172,944.6365,11.183044
149180000,0,6620172,944.62933,11.183197
149280000,0,6620172,944.63324,11.183319
149380000,0,6620172,944.6352,11.183411
149480000,0,6620172,944.6345,11.183502
149580000,0,6620172,944.63184,11.183533
149680000,0,6620172,944.661,11.183563
149780000,0,6620172,944.6293,11.183563
149880000,0,6620172,944.6197,11.183533
149980000,0,6620172,944.6469,11.183502
150080000,0,6620172,944.6335,11.183441
150180000,0,6620172,944.63904,11.18335
150280000,0,6620172,944.6401,11.183228
150380000,0,6620172,944.6367,11.183105
150480000,0,6620172,944.63086,11.182953
150580000,0,6620172,944.63403,11.1828
150680000,0,6620172,944.62054,11.182648
150780000,0,6620172,944.61694,11.182465
150880000,0,6620172,944.63763,11.1822815
150980000,0,6620172,944.61676,11.182098
151080000,0,6620172,944.62006,11.181885
151180000,0,6620172,944.6005,11.181702
151280000,0,6620172,944.6174,11.181488
151380000,0,6620172,944.58685,11.181274
151480000,0,6620172,944.58984,11.181061
151580000,0,6620172,944.5932,11.180847
151680000,0,6620172,944.579,11.180634
151780000,0,6620172,944.5739,11.18045
151880000,0,6620172,944.59576,11.180237
151980000,0,6620172,944.5553,11.180054
152080000,0,6620172,944.56793,11.17984
152180000,0,6620172,944.5829,11.179657
152280000,0,6620172,944.56177,11.179474
152380000,0,6620172,944.5419,11.179291
152480000,0,6620172,944.5459,11.179108
152580000,0,6620172,944.562,11.178955
152680000,0,6620172,944.5526,11.178772
152780000,0,6620172,944.5498,11.178619
152880000,0,6620172,944.5202,11.178497
152980000,0,6620172,944.54224,11.178345
153080000,0,6620172,944.547,11.178223
153180000,0,6620172,944.53296,11.178101
153280000,0,6620172,944.55304,11.1779785
153380000,0,6620172,944.5441,11.177887
153480000,0,6620172,944.5289,11.177765
153580000,0,6620172,944.531,11.177704
153680000,0,6620172,944.5265,11.177612
153780000,0,6620172,944.5406,11.177521
153880000,0,6620172,944.5141,11.17746
153980000,0,6620172,944.5171,11.177399
154080000,0,6620172,944.5556,11.177338
154180000,0,6620172,944.51636,11.177307
154280000,0,6620172,944.5224,11.177246
154380000,0,6620172,944.5311,11.177216
154480000,0,6620172,944.5364,11.177185
154580000,0,6620172,944.5244,11.177124
154680000,0,6620172,944.5233,11.1770935
154780000,0,6620172,944.5295,11.177063
154880000,0,6620172,944.5256,11.177032
154980000,0,6620172,944.5193,11.177032
155080000,0,6620172,944.5235,11.177002
155180000,0,6620172,944.51746,11.176971
155280000,0,6620172,944.5076,11.176971
155380000,0,6620172,944.5075,11.176941
155480000,0,6620172,944.5158,11.176941
155580000,0,6620172,944.5313,11.17691
155680000,0,6620172,944.5206,11.17691
155780000,0,6620172,944.5269,11.17688
