timestamp,states[0],states[1],states[2],states[3],states[4],states[5],states[6],states[7],states[8],states[9],states[10],states[11],states[12],states[13],states[14],states[15],states[16],states[17],states[18],states[19],states[20],states[21],states[22],states[23],vibe[0],vibe[1],vibe[2],covariances[0],covariances[1],covariances[2],covariances[3],covariances[4],covariances[5],covariances[6],covariances[7],covariances[8],covariances[9],covariances[10],covariances[11],covariances[12],covariances[13],covariances[14],covariances[15],covariances[16],covariances[17],covariances[18],covariances[19],covariances[20],covariances[21],covariances[22],covariances[23],output_tracking_error[0],output_tracking_error[1],output_tracking_error[2],control_mode_flags,pos_horiz_accuracy,pos_vert_accuracy,mag_test_ratio,vel_test_ratio,pos_test_ratio,hgt_test_ratio,tas_test_ratio,hagl_test_ratio,beta_test_ratio,time_slip,gps_check_fail_flags,filter_fault_flags,innovation_check_flags,solution_status_flags,n_states,pre_flt_fail_innov_heading,pre_flt_fail_innov_vel_horiz,pre_flt_fail_innov_vel_vert,pre_flt_fail_innov_height,pre_flt_fail_mag_field_disturbed,health_flags,timeout_flags
1692000,0.6894943,0.0015887483,-0.018644664,0.72404945,0.019585874,0.026250206,-0.094299726,0.0034565502,0.003967261,-0.028900653,-1.1651773e-07,-9.9382156e-08,-3.8474562e-07,1.02864615e-05,-1.1421716e-05,-2.0964166e-05,0.20505196,0.009181093,0.43575272,0.0,0.0,0.0,0.0,0.0,5.566345e-10,2.4766963e-05,0.00029094855,0.00019086697,4.1111856e-05,4.0966774e-05,0.0001723788,0.034481164,0.034480922,0.22747754,0.007892214,0.007892214,0.088479206,6.392574e-09,6.3925976e-09,6.364574e-09,2.4694489e-06,2.4694434e-06,2.5216034e-06,0.0,0.0,0.0,0.0,0.0,0.0,0.0,0.0,0.0021297426,0.02883222,0.025355238,131603,0.12563609,0.29745454,0.006139988,0.0,8.062808e-05,8.062808e-05,0.0,0.0,0.0,0.0,0,0,0,229,24,0,0,0,0,0,0,0
1892000,0.688927,0.0018615809,-0.01916232,0.72457504,0.024116741,0.032837097,-0.107717685,0.004712318,0.0060617984,-0.038383074,-3.293114e-07,-3.2330698e-07,-8.78693e-07,2.6515187e-05,-2.5922493e-05,-3.04584e-05,0.20505196,0.009181093,0.43575272,0.0,0.0,0.0,0.0,0.0,5.6231264e-10,2.3256716e-05,0.00029372808,0.00016233802,5.0558876e-05,5.0422826e-05,0.00014659317,0.03150298,0.031502772,0.16897804,0.0070966054,0.0070966007,0.08369863,6.3721495e-09,6.3721863e-09,6.3394405e-09,2.358354e-06,2.3583395e-06,2.493006e-06,0.0,0.0,0.0,0.0,0.0,0.0,0.0,0.0,0.0022912654,0.023024036,0.0244435,131603,0.119135246,0.28930715,0.02425386,0.0,0.0001229942,0.0001229942,0.0,0.0,0.0,0.0,0,0,0,229,24,0,0,0,0,0,0,0
2092000,0.6886614,0.002292994,-0.019659402,0.7248129,0.025235536,0.038935177,-0.097768106,0.005864392,0.008159475,-0.030102698,-7.431907e-07,-8.1844115e-07,-1.199198e-06,5.5219258e-05,-4.936001e-05,-5.987481e-05,0.20505196,0.009181093,0.43575272,0.0,0.0,0.0,0.0,0.0,6.226718e-10,2.4657516e-05,0.0002820254,0.00014063029,6.121266e-05,6.108233e-05,0.00012702496,0.032118212,0.03211765,0.13087283,0.0067717987,0.006771791,0.07821518,6.3221237e-09,6.3221743e-09,6.3015873e-09,2.1821756e-06,2.1821434e-06,2.4543963e-06,0.0,0.0,0.0,0.0,0.0,0.0,0.0,0.0,0.0018934538,0.03214824,0.035673488,131603,0.11637693,0.27966976,0.0095082475,0.0,0.00016544557,0.00016544557,0.0,0.0,0.0,0.0,0,0,0,229,24,0,0,0,0,0,0,0
2292000,0.68830746,0.0026949332,-0.02002492,0.7251377,0.026916347,0.04292795,-0.10306967,0.006840497,0.010123482,-0.031452693,-1.4374427e-06,-1.7063771e-06,-1.6784294e-06,9.788173e-05,-8.201939e-05,-8.419963e-05,0.20505196,0.009181093,0.43575272,0.0,0.0,0.0,0.0,0.0,6.588557e-10,2.4847986e-05,0.00027506298,0.00012649513,7.2511226e-05,7.2384086e-05,0.00011422922,0.033258554,0.033258032,0.10711378,0.0067397896,0.0067397724,0.07301489,6.2253287e-09,6.2253886e-09,6.255552e-09,1.952539e-06,1.9524753e-06,2.4036594e-06,0.0,0.0,0.0,0.0,0.0,0.0,0.0,0.0,0.0013496297,0.027651379,0.033209514,131603,0.11610152,0.27021268,0.0037054836,0.0,0.00020525524,0.00020525524,0.0,0.0,0.0,0.0,0,0,0,229,24,0,0,0,0,0,0,0
2496000,0.68802893,0.002908191,-0.020340113,0.7253924,0.024069438,0.04296587,-0.12226037,0.007153953,0.01124506,-0.049895052,-2.4029798e-06,-3.013721e-06,-2.2762435e-06,0.00015008255,-0.00011990122,-9.306177e-05,0.20505196,0.009181093,0.43575272,0.0,0.0,0.0,0.0,0.0,6.424734e-10,2.4414598e-05,0.00026129332,0.000114896764,8.392308e-05,8.379815e-05,0.00010375878,0.033371173,0.033370692,0.092822626,0.0068255938,0.0068255737,0.068553664,6.0722503e-09,6.072318e-09,6.192462e-09,1.7063221e-06,1.7062148e-06,2.338247e-06,0.0,0.0,0.0,0.0,0.0,0.0,0.0,0.0,0.0013799052,0.019382764,0.021216419,131603,0.11683821,0.26182756,0.016937118,0.0,0.00022803561,0.00022803561,0.0,0.0,0.0,0.0,0,0,0,229,24,0,0,0,0,0,0,0
2696000,0.6876142,0.0032688791,-0.020507818,0.7257793,0.022211913,0.046575196,-0.124237694,0.006916058,0.01211794,-0.051208593,-3.549404e-06,-4.691051e-06,-3.2814955e-06,0.00020359783,-0.00015537337,-0.00013551944,0.20505196,0.009181093,0.43575272,0.0,0.0,0.0,0.0,0.0,6.2510164e-10,2.3999604e-05,0.00026765253,0.00010629523,9.5029696e-05,9.49067e-05,9.598295e-05,0.032061946,0.032061327,0.084420905,0.0069351424,0.0069351187,0.06527345,5.8624883e-09,5.862557e-09,6.1158247e-09,1.4842071e-06,1.4840512e-06,2.2545576e-06,0.0,0.0,0.0,0.0,0.0,0.0,0.0,0.0,0.0019747387,0.023376152,0.025332859,131603,0.11777207,0.2554867,0.0030763487,0.0,0.0002457919,0.0002457919,0.0,0.0,0.0,0.0,0,0,0,229,24,0,0,0,0,0,0,0
2896000,0.6871329,0.0034946944,-0.020656304,0.72622967,0.021312293,0.047033448,-0.12970221,0.006530007,0.012659962,-0.057249323,-4.7357494e-06,-6.619318e-06,-4.188388e-06,0.00025234956,-0.00018446484,-0.00017591726,0.20505196,0.009181093,0.43575272,0.0,0.0,0.0,0.0,0.0,6.4908845e-10,2.4172841e-05,0.00028352576,0.00010074081,0.00010582091,0.000105698,9.086785e-05,0.029821727,0.029821312,0.07986678,0.006889695,0.0068896655,0.062432256,5.614225e-09,5.61429e-09,6.031296e-09,1.3184497e-06,1.3182519e-06,2.152529e-06,0.0,0.0,0.0,0.0,0.0,0.0,0.0,0.0,0.002061814,0.022955688,0.024446862,131603,0.11738552,0.24986447,0.01728205,0.0,0.0002567619,0.0002567619,0.0,0.0,0.0,0.0,0,0,0,229,24,0,0,0,0,0,0,0
3096000,0.6864146,0.0036097793,-0.020681856,0.7269074,0.020569349,0.045612894,-0.13749567,0.006400437,0.012936066,-0.06999307,-5.9707263e-06,-8.721619e-06,-6.007119e-06,0.00029296256,-0.0002069707,-0.00020879065,0.20505196,0.009181093,0.43575272,0.0,0.0,0.0,0.0,0.0,6.493099e-10,2.465742e-05,0.00028848584,9.661801e-05,0.0001161785,0.000116055744,8.7051856e-05,0.027334176,0.02733394,0.07752498,0.006782222,0.0067821993,0.060437977,5.338134e-09,5.3381966e-09,5.93242e-09,1.210441e-06,1.2102133e-06,2.0315474e-06,0.0,0.0,0.0,0.0,0.0,0.0,0.0,0.0,0.0026715833,0.019967979,0.019980146,131603,0.116466396,0.24584137,0.014251323,0.0,0.0002623037,0.0002623037,0.0,0.0,0.0,0.0,0,0,0,229,24,0,0,0,0,0,0,0
3296000,0.68591285,0.0038986143,-0.02046668,0.7273854,0.016118804,0.046325263,-0.13908704,0.0058636446,0.013030958,-0.07424596,-7.1962168e-06,-1.0916871e-05,-7.728142e-06,0.00032274064,-0.00022235417,-0.0002685093,0.20505196,0.009181093,0.43575272,0.0,0.0,0.0,0.0,0.0,5.96837e-10,2.5206467e-05,0.0002999909,9.286793e-05,0.00012588367,0.00012576212,8.3621475e-05,0.02502806,0.025027575,0.07623622,0.0066333767,0.0066333525,0.0591343,5.040373e-09,5.0404427e-09,5.8105436e-09,1.1492716e-06,1.1490297e-06,1.8927236e-06,0.0,0.0,0.0,0.0,0.0,0.0,0.0,0.0,0.0027545146,0.020383092,0.021750055,131603,0.11518129,0.24317545,0.021233618,0.0,0.00026414703,0.00026414703,0.0,0.0,0.0,0.0,0,0,0,229,24,0,0,0,0,0,0,0
3496000,0.6857912,0.003960895,-0.020290691,0.7275047,0.013834001,0.046683304,-0.14365393,0.005242162,0.013503676,-0.08310988,-8.318249e-06,-1.3248467e-05,-8.206856e-06,0.0003432945,-0.00023167217,-0.00032213665,0.20505196,0.009181093,0.43575272,0.0,0.0,0.0,0.0,0.0,6.39119e-10,2.448498e-05,0.00028751572,9.0772635e-05,0.00013459763,0.00013447566,8.168329e-05,0.023102332,0.023101598,0.07519922,0.006470019,0.0064699794,0.058346767,4.723153e-09,4.7232227e-09,5.684835e-09,1.1204962e-06,1.1202562e-06,1.7392099e-06,0.0,0.0,0.0,0.0,0.0,0.0,0.0,0.0,0.0020629673,0.018700987,0.020361101,131603,0.113754116,0.24155076,0.0063873897,0.0,0.00027363756,0.00027363756,0.0,0.0,0.0,0.0,0,0,0,229,24,0,0,0,0,0,0,0
3696000,0.6855233,0.0041119396,-0.020162357,0.72775996,0.0069497144,0.04409497,-0.14031802,0.004146402,0.013781518,-0.08693788,-9.328517e-06,-1.572148e-05,-8.859839e-06,0.00035440538,-0.00023539671,-0.00039035495,0.20505196,0.009181093,0.43575272,0.0,0.0,0.0,0.0,0.0,5.6764304e-10,2.3196026e-05,0.000277105,8.872353e-05,0.00014189015,0.00014176678,7.973083e-05,0.021593746,0.021592595,0.073894516,0.0063129175,0.006312846,0.057897072,4.3869783e-09,4.3870614e-09,5.5352336e-09,1.1107501e-06,1.1105275e-06,1.5759318e-06,0.0,0.0,0.0,0.0,0.0,0.0,0.0,0.0,0.0017955482,0.018375086,0.020788103,131603,0.11236442,0.24061811,0.004916305,0.0,0.0002791777,0.0002791777,0.0,0.0,0.0,0.0,0,0,0,229,24,0,0,0,0,0,0,0
3896000,0.68489856,0.0040664696,-0.019924715,0.7283547,0.006263709,0.046183843,-0.13390242,0.0032064288,0.0141258715,-0.086269,-1.01897385e-05,-1.8302426e-05,-1.0783869e-05,0.00035638353,-0.00023478612,-0.00047129125,0.20505196,0.009181093,0.43575272,0.0,0.0,0.0,0.0,0.0,5.327922e-10,2.3049943e-05,0.00027886778,8.79105e-05,0.00014730822,0.00014718513,7.885238e-05,0.020476796,0.02047539,0.072039224,0.006175346,0.0061752424,0.05761941,4.0329e-09,4.032998e-09,5.3857745e-09,1.1093197e-06,1.109126e-06,1.4088754e-06,0.0,0.0,0.0,0.0,0.0,0.0,0.0,0.0,0.002177827,0.020119725,0.023707563,131603,0.1111332,0.24004044,0.013392804,0.0,0.00028607264,0.00028607264,0.0,0.0,0.0,0.0,0,0,0,229,24,0,0,0,0,0,0,0
4096000,0.6848853,0.00385113,-0.0197628,0.7283727,0.005676696,0.047118228,-0.12956843,0.002639048,0.014567098,-0.08862567,-1.0883673e-05,-2.1045737e-05,-1.0641861e-05,0.00035091187,-0.00023244403,-0.0005379723,0.20505196,0.009181093,0.43575272,0.0,0.0,0.0,0.0,0.0,5.727593e-10,2.3797144e-05,0.00027457235,8.7448585e-05,0.0001504597,0.00015033633,7.834379e-05,0.019649457,0.019647807,0.06954006,0.00606186,0.0060617253,0.057375688,3.6640968e-09,3.6642103e-09,5.22533e-09,1.1083181e-06,1.1081564e-06,1.244142e-06,0.0,0.0,0.0,0.0,0.0,0.0,0.0,0.0,0.001993787,0.016477952,0.019967938,131603,0.11010715,0.23953223,0.00067988766,0.0,0.00029493956,0.00029493956,0.0,0.0,0.0,0.0,0,0,0,229,24,0,0,0,0,0,0,0
4296000,0.68492496,0.0037070904,-0.019512463,0.72834295,0.0045678713,0.047117323,-0.1190876,0.0023255954,0.015009368,-0.084796794,-1.1505687e-05,-2.390905e-05,-1.0132953e-05,0.00033773293,-0.0002282966,-0.0006175332,0.20505196,0.009181093,0.43575272,0.0,0.0,0.0,0.0,0.0,5.95859e-10,2.4129957e-05,0.0002688398,8.665654e-05,0.00015109462,0.00015097216,7.752988e-05,0.019011477,0.019009644,0.06644276,0.0059720897,0.0059719267,0.05706506,3.286562e-09,3.2866843e-09,5.042364e-09,1.1024574e-06,1.1023276e-06,1.0870724e-06,0.0,0.0,0.0,0.0,0.0,0.0,0.0,0.0,0.0021100082,0.017926168,0.02192672,131603,0.109288685,0.23888294,0.010803692,0.0,0.0003038383,0.0003038383,0.0,0.0,0.0,0.0,0,0,0,229,24,0,0,0,0,0,0,0
4496000,0.6848335,0.0035574054,-0.01915207,0.7284392,0.005975954,0.044354565,-0.11118068,0.002054546,0.015115219,-0.08560927,-1.2080159e-05,-2.683466e-05,-1.0137785e-05,0.00031858758,-0.00022356404,-0.0006767281,0.20505196,0.009181093,0.43575272,0.0,0.0,0.0,0.0,0.0,6.457441e-10,2.4582541e-05,0.0002820625,8.671997e-05,0.00014917084,0.00014905073,7.747495e-05,0.018456232,0.018454522,0.06287749,0.005901026,0.00590084,0.056626078,2.9088025e-09,2.9089169e-09,4.866495e-09,1.088788e-06,1.0886852e-06,9.416627e-07,0.0,0.0,0.0,0.0,0.0,0.0,0.0,0.0,0.0022474988,0.013801189,0.016744863,131603,0.108636394,0.23796235,0.0055473433,0.0,0.0003059365,0.0003059365,0.0,0.0,0.0,0.0,0,0,0,229,24,0,0,0,0,0,0,0
4696000,0.6847179,0.0035323943,-0.018759489,0.72855824,0.0042797965,0.036682572,-0.100113474,0.0017435966,0.014261021,-0.08143911,-1.2586132e-05,-2.96613e-05,-9.77016e-06,0.00029485163,-0.0002181362,-0.00074149383,0.20505196,0.009181093,0.43575272,0.0,0.0,0.0,0.0,0.0,5.621955e-10,2.338399e-05,0.0002927655,8.69291e-05,0.00014488149,0.00014476448,7.75099e-05,0.017921254,0.017919574,0.05900907,0.005841856,0.005841656,0.056032073,2.5408335e-09,2.5409164e-09,4.6847117e-09,1.0663958e-06,1.0663149e-06,8.1036376e-07,0.0,0.0,0.0,0.0,0.0,0.0,0.0,0.0,0.0023321304,0.012574869,0.01530918,131603,0.1080903,0.23671095,0.019844202,0.0,0.00028861233,0.00028861233,0.0,0.0,0.0,0.0,0,0,0,229,24,0,0,0,0,0,0,0
4896000,0.6846826,0.0034217434,-0.018254543,0.7286048,0.0022283965,0.034279212,-0.08601778,0.0014286997,0.013266658,-0.07220293,-1.30164035e-05,-3.2217307e-05,-9.609005e-06,0.0002691212,-0.00021257042,-0.0008086316,0.20505196,0.009181093,0.43575272,0.0,0.0,0.0,0.0,0.0,6.107511e-10,2.5445604e-05,0.00028916783,8.65648e-05,0.00013861993,0.00013850736,7.7089964e-05,0.017351214,0.017349461,0.055002276,0.0057872157,0.005787011,0.05528273,2.1924311e-09,2.1924644e-09,4.484453e-09,1.0359669e-06,1.0359024e-06,6.9419553e-07,0.0,0.0,0.0,0.0,0.0,0.0,0.0,0.0,0.002261715,0.011969194,0.015259842,131603,0.10758358,0.2351228,0.0019712113,0.0,0.0002684585,0.0002684585,0.0,0.0,0.0,0.0,0,0,0,229,24,0,0,0,0,0,0,0
5096000,0.68481314,0.0032942872,-0.01780092,0.72849387,-0.0018119898,0.031842213,-0.07654475,0.0007034034,0.012276349,-0.07067754,-1.3305879e-05,-3.45218e-05,-8.337175e-06,0.00024360411,-0.00020827199,-0.00085022475,0.20505196,0.009181093,0.43575272,0.0,0.0,0.0,0.0,0.0,6.282419e-10,2.521405e-05,0.00028919525,8.6864944e-05,0.00013090465,0.00013079641,7.724436e-05,0.016709525,0.016707713,0.050997414,0.0057316013,0.0057313866,0.05439477,1.871642e-09,1.8716086e-09,4.2971626e-09,9.992386e-07,9.991851e-07,5.930509e-07,0.0,0.0,0.0,0.0,0.0,0.0,0.0,0.0,0.0022718266,0.0073029394,0.009278094,131603,0.10706534,0.23322687,0.013389481,0.0,0.00024839072,0.00024839072,0.0,0.0,0.0,0.0,0,0,0,229,24,0,0,0,0,0,0,0
5296000,0.6849489,0.0031069377,-0.017510531,0.7283741,-0.008044752,0.028828735,-0.06933359,-0.0004091231,0.011385019,-0.067873284,-1.3424791e-05,-3.655043e-05,-7.4364075e-06,0.00021862866,-0.00020577907,-0.0008878657,0.20505196,0.009181093,0.43575272,0.0,0.0,0.0,0.0,0.0,5.914387e-10,2.4247076e-05,0.00027803,8.714384e-05,0.00012230038,0.0001221952,7.7422046e-05,0.016016403,0.01601445,0.0471027,0.0056700977,0.005669861,0.05339366,1.5839191e-09,1.5838223e-09,4.1098533e-09,9.584695e-07,9.584201e-07,5.0605433e-07,0.0,0.0,0.0,0.0,0.0,0.0,0.0,0.0,0.0021811551,0.005070474,0.005563578,131603,0.10648924,0.23107068,0.014370017,0.0,0.0002303272,0.0002303272,0.0,0.0,0.0,0.0,0,0,0,229,24,0,0,0,0,0,0,0
5496000,0.68513155,0.003107988,-0.017468996,0.72820324,0.00524159,-0.0043148063,-0.03345553,0.012267953,0.0062794825,-0.053545136,-1.3409204e-05,-3.6850226e-05,-6.711856e-06,0.00021375113,-0.00020469452,-0.0009335304,0.20505196,0.009181093,0.43575272,0.0,0.0,0.0,0.0,0.0,5.6952126e-10,2.4059496e-05,0.00027013928,8.675239e-05,0.00012943168,0.00012932377,7.704347e-05,0.05054177,0.050541647,0.056378387,0.5012837,0.5012837,0.04339627,1.5411497e-09,1.5410697e-09,3.9089962e-09,9.516915e-07,9.5164756e-07,4.414732e-07,0.0,0.0,0.0,0.0,0.0,0.0,0.0,0.0,0.001277221,0.009588035,0.0086842375,131607,1.0012829,0.20831771,0.013146695,0.0,0.0,0.0,0.0,0.0,0.0,0.0,0,0,0,895,24,0,0,0,0,0,0,0
5696000,0.68540764,0.0033316088,-0.017499648,0.72794163,0.0047580563,0.005219266,-0.030374898,0.013350801,0.00438006,-0.046193045,-1.33275635e-05,-3.686471e-05,-5.2231967e-06,0.0002132723,-0.00020484044,-0.0009595054,0.20505196,0.009181093,0.43575272,0.0,0.0,0.0,0.0,0.0,6.1808075e-10,2.3931047e-05,0.00028396974,8.696644e-05,0.0001398247,0.00013971183,7.71822e-05,0.04364266,0.043642227,0.050639644,0.3369568,0.3369568,0.038378134,1.538287e-09,1.5382398e-09,3.7265657e-09,9.509278e-07,9.508867e-07,4.0301842e-07,0.0,0.0,0.0,0.0,0.0,0.0,0.0,0.0,0.0011506137,0.015677957,0.009879356,131607,0.82092243,0.19590338,0.008190633,0.005886237,0.001004006,0.001004006,0.0,0.0,0.0,0.0,0,0,0,895,24,0,0,0,0,0,0,0
5896000,0.6854464,0.0034699964,-0.017623948,0.7279016,0.0020297214,0.011883673,-0.024554377,0.013211495,0.0045008194,-0.038585186,-1.3362622e-05,-3.689651e-05,-5.4949987e-06,0.00021203377,-0.00020386899,-0.0009809472,0.20505196,0.009181093,0.43575272,0.0,0.0,0.0,0.0,0.0,6.265503e-10,2.4394121e-05,0.00029159826,8.707303e-05,0.00014991689,0.00014979877,7.728238e-05,0.039852954,0.039852183,0.044736434,0.25608277,0.25608274,0.036914703,1.5270931e-09,1.5270821e-09,3.5471786e-09,9.480065e-07,9.479652e-07,3.781025e-07,0.0,0.0,0.0,0.0,0.0,0.0,0.0,0.0,0.0003577411,0.016076706,0.013998271,131607,0.7156574,0.192132,4.4159893e-05,0.002714939,0.00080929673,0.00080929673,0.0,0.0,0.0,0.0,0,0,0,895,24,0,0,0,0,0,0,0
6096000,0.6854511,0.0035686314,-0.017633146,0.7278964,-0.00491503,0.018000985,-0.026243193,0.008842617,0.0055214837,-0.039505,-1.3568902e-05,-3.7018897e-05,-5.30773e-06,0.00020997012,-0.00020032386,-0.0009864871,0.20505196,0.009181093,0.43575272,0.0,0.0,0.0,0.0,0.0,6.4192024e-10,2.553919e-05,0.00028302518,8.6504115e-05,0.0001591294,0.00015900724,7.6728356e-05,0.038283903,0.038282387,0.038867753,0.20868905,0.208689,0.036870982,1.5035637e-09,1.5035913e-09,3.3580425e-09,9.4185134e-07,9.418077e-07,3.6133198e-07,0.0,0.0,0.0,0.0,0.0,0.0,0.0,0.0,0.00014118056,0.017596457,0.020780707,131607,0.646048,0.19201818,0.0005524623,0.008236982,0.0023731296,0.0023731296,0.0,0.0,0.0,0.0,0,0,0,895,24,0,0,0,0,0,0,0
6296000,0.68564165,0.0037297017,-0.01748889,0.72771955,-0.008508018,0.022389635,-0.019558577,0.0048522023,0.006996122,-0.031989288,-1.3738912e-05,-3.724717e-05,-4.6497416e-06,0.00020620787,-0.00019702368,-0.0009982337,0.20505196,0.009181093,0.43575272,0.0,0.0,0.0,0.0,0.0,5.835772e-10,2.4753619e-05,0.00026832346,8.647323e-05,0.00016667543,0.00016655067,7.669413e-05,0.038324814,0.038322702,0.033371072,0.17807105,0.17807089,0.037214175,1.4630772e-09,1.4631375e-09,3.1892486e-09,9.311991e-07,9.311508e-07,3.4976028e-07,0.0,0.0,0.0,0.0,0.0,0.0,0.0,0.0,0.00048322266,0.014263304,0.018943138,131607,0.5967763,0.19290976,0.010673272,0.01693279,0.0015510259,0.0015510259,0.0,0.0,0.0,0.0,0,0,0,895,24,0,0,0,0,0,0,0
6495999,0.68571174,0.0037295828,-0.017398555,0.72765577,-0.012890327,0.024269773,-0.022756055,0.0029503785,0.0084547475,-0.030936174,-1.3631069e-05,-3.7596852e-05,-4.6406612e-06,0.0002004494,-0.00019868092,-0.001001773,0.20505196,0.009181093,0.43575272,0.0,0.0,0.0,0.0,0.0,5.306498e-10,2.3772574e-05,0.0002777692,8.574157e-05,0.00017197893,0.00017185326,7.604729e-05,0.03961445,0.039611373,0.028523054,0.15717259,0.15717229,0.03747017,1.4044171e-09,1.4045056e-09,3.0132365e-09,9.156784e-07,9.1562424e-07,3.4151728e-07,0.0,0.0,0.0,0.0,0.0,0.0,0.0,0.0,0.00035105087,0.0142057445,0.020289568,131607,0.56066465,0.19357213,0.016637454,0.015844919,0.0015292098,0.0015292098,0.0,0.0,0.0,0.0,0,0,0,895,24,0,0,0,0,0,0,0
6703999,0.6857186,0.003686055,-0.017179077,0.7276547,-0.013112346,0.03106719,-0.021350773,0.0012074208,0.011335753,-0.03293659,-1.3440366e-05,-3.8061757e-05,-4.7667268e-06,0.00019276336,-0.0002017784,-0.0010036122,0.20505196,0.009181093,0.43575272,0.0,0.0,0.0,0.0,0.0,4.7868387e-10,2.2103475e-05,0.0002776211,8.523794e-05,0.00017477319,0.00017464877,7.558951e-05,0.04199299,0.04198914,0.024367237,0.14276583,0.1427654,0.03749363,1.3257856e-09,1.3258954e-09,2.8447837e-09,8.9473906e-07,8.9467795e-07,3.3509042e-07,0.0,0.0,0.0,0.0,0.0,0.0,0.0,0.0,0.0004586597,0.01554795,0.022766681,131607,0.5343512,0.19363272,0.0012679299,0.01033721,0.0004817379,0.0004817379,0.0,0.0,0.0,0.0,0,0,0,895,24,0,0,0,0,0,0,0
6904000,0.68577945,0.0036372612,-0.016937178,0.72760326,-0.018266056,0.035083923,-0.02095945,-0.00012197724,0.012813834,-0.032673825,-1.3380291e-05,-3.867141e-05,-4.3887335e-06,0.00018286397,-0.0002025005,-0.0010065463,0.20505196,0.009181093,0.43575272,0.0,0.0,0.0,0.0,0.0,5.216982e-10,2.2541992e-05,0.00028413252,8.49965e-05,0.00017407553,0.00017395313,7.534544e-05,0.04447725,0.0444724,0.021169642,0.1321523,0.13215174,0.037184544,1.2312575e-09,1.231374e-09,2.6962435e-09,8.6943373e-07,8.693645e-07,3.3002294e-07,0.0,0.0,0.0,0.0,0.0,0.0,0.0,0.0,0.00062928157,0.01477236,0.022221234,131607,0.5141051,0.19283295,0.00647594,0.012148918,0.0024507982,0.0024507982,0.0,0.0,0.0,0.0,0,0,0,895,24,0,0,0,0,0,0,0
7104000,0.6858495,0.003504872,-0.0169001,0.7275388,-0.02099589,0.03880498,-0.019577187,-0.0016593327,0.014089619,-0.0311397,-1.3033932e-05,-3.9415707e-05,-4.072472e-06,0.00017067906,-0.0002079194,-0.0010103687,0.20505196,0.009181093,0.43575272,0.0,0.0,0.0,0.0,0.0,5.362747e-10,2.332944e-05,0.0002784909,8.408255e-05,0.00017018219,0.00017006129,7.451643e-05,0.04691773,0.046911974,0.018762223,0.12438247,0.12438169,0.036646955,1.1232723e-09,1.123392e-09,2.542985e-09,8.4035315e-07,8.4027585e-07,3.2537926e-07,0.0,0.0,0.0,0.0,0.0,0.0,0.0,0.0,0.0008728283,0.013003344,0.019022921,131607,0.49876264,0.19143394,0.028906466,0.013612753,0.0028408777,0.0028408777,0.0,0.0,0.0,0.0,0,0,0,895,24,0,0,0,0,0,0,0
7304000,0.6860838,0.0033646796,-0.016835798,0.72732,-0.023161821,0.042998597,-0.01860232,-0.0028913443,0.016539538,-0.030811122,-1.2580465e-05,-4.0086645e-05,-3.0658532e-06,0.00015995152,-0.00021482968,-0.0010135011,0.20505196,0.009181093,0.43575272,0.0,0.0,0.0,0.0,0.0,5.561349e-10,2.3736615e-05,0.00028218539,8.370065e-05,0.0001637851,0.0001636678,7.416682e-05,0.049111605,0.049105156,0.017061764,0.118711494,0.11871051,0.03596244,1.0096491e-09,1.009767e-09,2.4086184e-09,8.095773e-07,8.0949115e-07,3.207096e-07,0.0,0.0,0.0,0.0,0.0,0.0,0.0,0.0,0.0012652723,0.012733179,0.017806638,131607,0.4872597,0.18963766,0.018209588,0.011424754,0.0031443145,0.0031443145,0.0,0.0,0.0,0.0,0,0,0,895,24,0,0,0,0,0,0,0
7504000,0.68634826,0.0028820382,-0.016669732,0.72707623,-0.024875624,0.039031543,-0.019831853,-0.0040256106,0.014066439,-0.026667172,-1.2172777e-05,-4.1428673e-05,-2.1420374e-06,0.00013804217,-0.00022093924,-0.0010189159,0.20505196,0.009181093,0.43575272,0.0,0.0,0.0,0.0,0.0,6.0952376e-10,2.3494482e-05,0.0002993246,8.323192e-05,0.00015526106,0.0001551479,7.376347e-05,0.050783616,0.050776828,0.01596371,0.11447592,0.1144747,0.03520842,8.944272e-10,8.945332e-10,2.2806717e-09,7.781725e-07,7.7807823e-07,3.1561723e-07,0.0,0.0,0.0,0.0,0.0,0.0,0.0,0.0,0.0017981431,0.011589877,0.015417973,67240471,0.47848785,0.18763907,0.009989528,0.024037184,0.003735528,0.003735528,0.0,0.0,0.0,0.0,0,0,0,895,24,0,0,0,0,0,0,0
7704000,0.6864311,0.0026778446,-0.016610017,0.7270003,-0.025749495,0.038013503,-0.022183482,-0.004822352,0.015022213,-0.031724747,-1.1723685e-05,-4.2252883e-05,-1.5600247e-06,0.00012459503,-0.00022803918,-0.0010195589,0.20505196,0.009181093,0.43575272,0.0,0.0,0.0,0.0,0.0,5.864922e-10,2.307155e-05,0.00030268094,8.215161e-05,0.00014561691,0.00014550838,7.277971e-05,0.051890984,0.05188414,0.015365214,0.111351766,0.11135036,0.034455117,7.8449747e-10,7.8458706e-10,2.1493938e-09,7.4800715e-07,7.479048e-07,3.0984756e-07,0.0,0.0,0.0,0.0,0.0,0.0,0.0,0.0,0.0016053166,0.012756413,0.017942889,67240471,0.47191325,0.18562089,0.010995706,0.014941675,0.001779343,0.001779343,0.0,0.0,0.0,0.0,0,0,0,895,24,0,0,0,0,0,0,0
7904000,0.6866241,0.002294634,-0.016299685,0.72682625,-0.024322728,0.03387518,-0.020660847,-0.004020084,0.011635036,-0.031017773,-1.1256239e-05,-4.3414566e-05,-7.841917e-07,0.000105504885,-0.00023527279,-0.0010233705,0.20505196,0.009181093,0.43575272,0.0,0.0,0.0,0.0,0.0,5.940992e-10,2.3721357e-05,0.00029777302,8.158511e-05,0.00013528313,0.00013518114,7.227955e-05,0.052324574,0.052317936,0.015162456,0.10893821,0.10893673,0.033755522,6.819457e-10,6.8201406e-10,2.0350586e-09,7.196579e-07,7.1954656e-07,3.0312788e-07,0.0,0.0,0.0,0.0,0.0,0.0,0.0,0.0,0.001732554,0.012423739,0.016775008,67240471,0.46677077,0.18372676,0.0130594345,0.02189711,0.0034421876,0.0034421876,0.0,0.0,0.0,0.0,0,0,0,895,24,0,0,0,0,0,0,0
8104000,0.68686026,0.0019278844,-0.016266653,0.7266049,-0.024410602,0.036812868,-0.019921215,-0.0032050244,0.013186275,-0.030114071,-1.0770533e-05,-4.3940716e-05,3.6708547e-10,9.698333e-05,-0.00024292989,-0.0010248079,0.20505196,0.009181093,0.43575272,0.0,0.0,0.0,0.0,0.0,6.1513394e-10,2.4635783e-05,0.00028492932,8.041948e-05,0.00012507907,0.00012498329,7.126815e-05,0.052285556,0.052278914,0.015262718,0.107120715,0.107119165,0.03315119,5.9036304e-10,5.904114e-10,1.9183408e-09,6.94147e-07,6.940272e-07,2.953216e-07,0.0,0.0,0.0,0.0,0.0,0.0,0.0,0.0,0.0014647535,0.011241087,0.014452117,67240471,0.46286055,0.18207468,0.012332774,0.01268207,0.0032771102,0.0032771102,0.0,0.0,0.0,0.0,0,0,0,895,24,0,0,0,0,0,0,0
8304000,0.6871592,0.0018812845,-0.016329959,0.7263209,-0.02327084,0.036954787,-0.018846761,-0.0022702194,0.017876333,-0.027391862,-1.0319782e-05,-4.4118693e-05,1.1781209e-06,9.4368515e-05,-0.0002497419,-0.0010316741,0.20505196,0.009181093,0.43575272,0.0,0.0,0.0,0.0,0.0,6.356151e-10,2.4995134e-05,0.0002917461,7.977793e-05,0.00011517601,0.00011508551,7.070996e-05,0.051740084,0.05173416,0.015574044,0.10563822,0.105636634,0.032666385,5.09283e-10,5.0930826e-10,1.8169408e-09,6.7136415e-07,6.7123676e-07,2.862607e-07,0.0,0.0,0.0,0.0,0.0,0.0,0.0,0.0,0.0014464476,0.010650814,0.012476281,131607,0.45964646,0.18073845,0.01657707,0.009126202,0.003130349,0.003130349,0.0,0.0,0.0,0.0,0,0,0,895,24,0,0,0,0,0,0,0
8504000,0.6875096,0.0016630052,-0.016368102,0.72598886,-0.022479998,0.03393396,-0.017556245,-0.002995491,0.017448839,-0.026631553,-1.00801235e-05,-4.4759447e-05,2.0705684e-06,8.388154e-05,-0.00025318348,-0.0010355999,0.20505196,0.009181093,0.43575272,0.0,0.0,0.0,0.0,0.0,5.6710303e-10,2.4313045e-05,0.00028903224,7.855748e-05,0.000106040025,0.00010595318,6.968634e-05,0.050899122,0.05089385,0.016019557,0.10449117,0.10448956,0.03231571,4.3960457e-10,4.396096e-10,1.7136346e-09,6.516113e-07,6.5147526e-07,2.759387e-07,0.0,0.0,0.0,0.0,0.0,0.0,0.0,0.0,0.0014734823,0.009157507,0.011907017,131607,0.45714408,0.1797657,0.0055788727,0.014404387,0.0029573434,0.0029573434,0.0,0.0,0.0,0.0,0,0,0,895,24,0,0,0,0,0,0,0
8704000,0.687823,0.0013333794,-0.016367998,0.7256927,-0.020096606,0.033060476,-0.016881816,-0.0019247634,0.017981187,-0.023079759,-9.741902e-06,-4.5185174e-05,2.8923482e-06,7.687517e-05,-0.0002582217,-0.0010454275,0.20505196,0.009181093,0.43575272,0.0,0.0,0.0,0.0,0.0,5.811236e-10,2.446592e-05,0.00029342182,7.784267e-05,9.760134e-05,9.751909e-05,6.910469e-05,0.04975634,0.04975155,0.016523167,0.103490636,0.103489004,0.03209824,3.795964e-10,3.7958015e-10,1.6240325e-09,6.3440905e-07,6.3426563e-07,2.6432636e-07,0.0,0.0,0.0,0.0,0.0,0.0,0.0,0.0,0.0013828839,0.0072929636,0.008664948,131607,0.45495015,0.17915982,0.019347044,0.010418074,0.0039501986,0.0039501986,0.0,0.0,0.0,0.0,0,0,0,895,24,0,0,0,0,0,0,0
8904000,0.6883453,0.0011201102,-0.016299346,0.72519916,-0.019153455,0.02955696,-0.017918339,-0.0008481503,0.016627388,-0.028426586,-9.431303e-06,-4.5697834e-05,4.528612e-06,6.8844456e-05,-0.0002626174,-0.0010452978,0.20505196,0.009181093,0.43575272,0.0,0.0,0.0,0.0,0.0,5.677995e-10,2.3843222e-05,0.00029972306,7.709566e-05,9.0075715e-05,8.999735e-05,6.8493304e-05,0.04847836,0.048473872,0.017025141,0.10269434,0.10269273,0.032006435,3.2896663e-10,3.2893196e-10,1.5394822e-09,6.1973515e-07,6.195836e-07,2.515727e-07,0.0,0.0,0.0,0.0,0.0,0.0,0.0,0.0,0.0019404957,0.008711976,0.0125968335,131607,0.4531965,0.17890343,0.01535696,0.012288054,0.00402321,0.00402321,0.0,0.0,0.0,0.0,0,0,0,895,24,0,0,0,0,0,0,0
9104000,0.6888109,0.00083814445,-0.01609913,0.72476184,-0.0126870815,0.027933247,-0.014346079,0.0019829709,0.013452542,-0.026525194,-9.079514e-06,-4.6283156e-05,5.9404315e-06,5.9312384e-05,-0.00026768283,-0.0010520971,0.20505196,0.009181093,0.43575272,0.0,0.0,0.0,0.0,0.0,6.1200706e-10,2.49016e-05,0.00029046473,7.58373e-05,8.3301115e-05,8.322765e-05,6.742843e-05,0.047032043,0.047028158,0.017469902,0.101950526,0.10194893,0.032020304,2.8589656e-10,2.8584635e-10,1.4533841e-09,6.070896e-07,6.0693026e-07,2.3780335e-07,0.0,0.0,0.0,0.0,0.0,0.0,0.0,0.0,0.0021663327,0.00739725,0.0102563705,131607,0.45155227,0.17894219,0.01191416,0.0159263,0.0037958436,0.0037958436,0.0,0.0,0.0,0.0,0,0,0,895,24,0,0,0,0,0,0,0
9304000,0.6891405,0.0008154111,-0.016107673,0.7244483,-0.010038475,0.024137653,-0.0138542205,0.0016838855,0.012401116,-0.028856656,-8.949827e-06,-4.663944e-05,6.7185456e-06,5.3491895e-05,-0.00026945147,-0.0010528881,0.20505196,0.009181093,0.43575272,0.0,0.0,0.0,0.0,0.0,5.9553673e-10,2.3554769e-05,0.00028736758,7.50387e-05,7.735419e-05,7.728336e-05,6.678622e-05,0.04558613,0.045582946,0.01782095,0.101342656,0.10134107,0.03211821,2.497688e-10,2.4970398e-10,1.3785755e-09,5.9633624e-07,5.961688e-07,2.2330225e-07,0.0,0.0,0.0,0.0,0.0,0.0,0.0,0.0,0.0016412785,0.0068871416,0.009991673,67240471,0.45020407,0.17921554,0.025908817,0.010584232,0.0031321687,0.0031321687,0.0,0.0,0.0,0.0,0,0,0,895,24,0,0,0,0,0,0,0
9504000,0.6893047,0.00053520506,-0.016014127,0.72429436,-0.0072974623,0.018165179,-0.009340919,0.0015064621,0.0095179565,-0.024955522,-8.8704255e-06,-4.700908e-05,6.946907e-06,4.7051664e-05,-0.00027045872,-0.0010612108,0.20505196,0.009181093,0.43575272,0.0,0.0,0.0,0.0,0.0,5.636298e-10,2.3345578e-05,0.00028878252,7.423237e-05,7.206232e-05,7.199469e-05,6.613179e-05,0.044072356,0.044069886,0.018047836,0.10074079,0.10073927,0.032270636,2.1911718e-10,2.1903936e-10,1.3082646e-09,5.870697e-07,5.86894e-07,2.0830517e-07,0.0,0.0,0.0,0.0,0.0,0.0,0.0,0.0,0.0009983846,0.0041450136,0.0056332946,67240471,0.4488653,0.1796403,0.0075302115,0.012776823,0.0028579026,0.0028579026,0.0,0.0,0.0,0.0,0,0,0,895,24,0,0,0,0,0,0,0
9704000,0.6894996,0.00045367586,-0.015887035,0.7241117,-0.0058557605,0.017996699,-0.0067612906,0.0005449761,0.00874716,-0.023047661,-8.892772e-06,-4.721004e-05,7.3905294e-06,4.3703338e-05,-0.0002697103,-0.0010640371,0.20505196,0.009181093,0.43575272,0.0,0.0,0.0,0.0,0.0,6.040716e-10,2.418703e-05,0.00027982332,7.34189e-05,6.744206e-05,6.737739e-05,6.5458094e-05,0.042613957,0.042611852,0.01814055,0.10023781,0.100236356,0.03245259,1.9336445e-10,1.9327509e-10,1.2420629e-09,5.7915224e-07,5.789694e-07,1.9315115e-07,0.0,0.0,0.0,0.0,0.0,0.0,0.0,0.0,0.00072788855,0.0055708145,0.005977117,67240471,0.44774342,0.18014602,0.002564851,0.008292339,0.0022263103,0.0022263103,0.0,0.0,0.0,0.0,0,0,0,895,24,0,0,0,0,0,0,0
9904000,0.6895653,0.00040733532,-0.015994864,0.7240467,-0.00039099902,0.015001371,-0.003190757,0.0022337055,0.007994909,-0.01984475,-8.7899725e-06,-4.738438e-05,7.2988137e-06,4.0500807e-05,-0.00027143018,-0.0010694156,0.20505196,0.009181093,0.43575272,0.0,0.0,0.0,0.0,0.0,5.982354e-10,2.477886e-05,0.00028762608,7.2148134e-05,6.334669e-05,6.328309e-05,6.438681e-05,0.041145418,0.04114382,0.018092282,0.09971633,0.099714965,0.032635923,1.7145228e-10,1.7134319e-10,1.1747125e-09,5.7229005e-07,5.720988e-07,1.7809376e-07,0.0,0.0,0.0,0.0,0.0,0.0,0.0,0.0,0.00040317982,0.0053565507,0.0052840984,67240471,0.4465773,0.18065415,0.0051526325,0.007009395,0.0020849463,0.0020849463,0.0,0.0,0.0,0.0,0,0,0,895,24,0,0,0,0,0,0,0
10104000,0.68981534,0.00027122724,-0.015848584,0.72381186,-0.002672699,0.011925432,-0.0043258024,0.00021075757,0.007446667,-0.022085657,-8.861857e-06,-4.7505353e-05,7.626933e-06,3.8411108e-05,-0.00026983395,-0.0010687446,0.20505196,0.009181093,0.43575272,0.0,0.0,0.0,0.0,0.0,5.6423227e-10,2.5206067e-05,0.00028329194,7.1316805e-05,5.9771737e-05,5.9709873e-05,6.372614e-05,0.03976595,0.039764404,0.01791384,0.09927169,0.099270426,0.032801535,1.5294634e-10,1.5281487e-10,1.1164455e-09,5.6637344e-07,5.6617324e-07,1.6343e-07,0.0,0.0,0.0,0.0,0.0,0.0,0.0,0.0,0.00036866014,0.0075341635,0.009178244,131607,0.44558066,0.18111195,0.023564503,0.0067255287,0.0018464307,0.0018464307,0.0,0.0,0.0,0.0,0,0,0,895,24,0,0,0,0,0,0,0
10304000,0.6901249,0.00013764594,-0.015665418,0.72352076,-0.0023604834,0.0070491377,-0.0034115526,0.0003576038,0.0050415806,-0.018765742,-8.8305e-06,-4.76759e-05,8.0808395e-06,3.5375386e-05,-0.0002698768,-0.0010743525,0.20505196,0.009181093,0.43575272,0.0,0.0,0.0,0.0,0.0,5.41473e-10,2.4578338e-05,0.00027747903,7.006578e-05,5.659286e-05,5.653237e-05,6.269789e-05,0.038401607,0.038400266,0.017615397,0.09879509,0.09879395,0.032929838,1.3708822e-10,1.369302e-10,1.057251e-09,5.611795e-07,5.6096775e-07,1.4934923e-07,0.0,0.0,0.0,0.0,0.0,0.0,0.0,0.0,0.0006971544,0.0059685707,0.006857902,131607,0.4445099,0.1814658,0.014238154,0.0077514695,0.0016824265,0.0016824265,0.0,0.0,0.0,0.0,0,0,0,895,24,0,0,0,0,0,0,0
10504000,0.69041383,0.00017638037,-0.015593033,0.72324663,0.0015322311,0.007037009,-0.0027040348,0.00013789647,0.0054315715,-0.016667074,-8.819373e-06,-4.7741214e-05,8.759189e-06,3.4317556e-05,-0.00026943968,-0.0010785625,0.20505196,0.009181093,0.43575272,0.0,0.0,0.0,0.0,0.0,6.109203e-10,2.5531319e-05,0.0002860031,6.9251764e-05,5.381278e-05,5.3753367e-05,6.202701e-05,0.037124693,0.0371237,0.017218504,0.09838224,0.09838122,0.033011843,1.2359512e-10,1.2341939e-10,1.0058785e-09,5.566557e-07,5.5643426e-07,1.360452e-07,0.0,0.0,0.0,0.0,0.0,0.0,0.0,0.0,0.00094705547,0.007054833,0.008239414,131607,0.44358027,0.18169162,0.0034975598,0.006141561,0.00028157595,0.00028157595,0.0,0.0,0.0,0.0,0,0,0,895,24,0,0,0,0,0,0,0
10704000,0.69070244,0.0002724187,-0.01569461,0.7229688,0.0036866898,0.008114657,-0.0014831295,0.0016719165,0.005727211,-0.01442831,-8.768572e-06,-4.7807294e-05,9.464361e-06,3.3241584e-05,-0.0002697227,-0.0010827954,0.20505196,0.009181093,0.43575272,0.0,0.0,0.0,0.0,0.0,6.2296734e-10,2.5200305e-05,0.00028402737,6.8443245e-05,5.1336505e-05,5.1277602e-05,6.135597e-05,0.03587234,0.035871346,0.016740037,0.097931676,0.09793075,0.03303814,1.1194825e-10,1.1176043e-10,9.575475e-10,5.5264763e-07,5.52418e-07,1.2360954e-07,0.0,0.0,0.0,0.0,0.0,0.0,0.0,0.0,0.001052607,0.007118562,0.0084515605,131607,0.44256347,0.18176396,0.024520166,0.00824389,0.00020139819,0.00020139819,0.0,0.0,0.0,0.0,0,0,0,895,24,0,0,0,0,0,0,0
10904000,0.6908396,0.00016436317,-0.015792288,0.72283554,-0.0019541273,0.01010872,0.0017368775,0.0015852625,0.0059069544,-0.010420565,-8.77493e-06,-4.786471e-05,9.535534e-06,3.212378e-05,-0.0002694124,-0.0010875287,0.20505196,0.009181093,0.43575272,0.0,0.0,0.0,0.0,0.0,6.452047e-10,2.50992e-05,0.00028912572,6.762781e-05,4.916193e-05,4.9103597e-05,6.0694503e-05,0.03470354,0.03470219,0.016203182,0.097534455,0.097533636,0.03300872,1.0195317e-10,1.01759115e-10,9.1202557e-10,5.49113e-07,5.4887647e-07,1.1212695e-07,0.0,0.0,0.0,0.0,0.0,0.0,0.0,0.0,0.0005962886,0.0067319036,0.007841493,131607,0.44166514,0.18168302,0.013684786,0.0038110525,0.0003579364,0.0003579364,0.0,0.0,0.0,0.0,0,0,0,895,24,0,0,0,0,0,0,0
11104000,0.69099796,0.00010372561,-0.015812526,0.7226837,-0.0026892852,0.00887893,0.0047385395,0.0015079993,0.0056278417,-0.005916744,-8.760733e-06,-4.7924073e-05,9.419191e-06,3.091109e-05,-0.00026968203,-0.0010907148,0.20505196,0.009181093,0.43575272,0.0,0.0,0.0,0.0,0.0,6.360579e-10,2.5242889e-05,0.00028833456,6.6795175e-05,4.72167e-05,4.7159414e-05,6.0040376e-05,0.03356603,0.03356486,0.0156237995,0.09709658,0.09709585,0.03292199,9.325523e-11,9.3059116e-11,8.6903035e-10,5.4594597e-07,5.4570256e-07,1.0160377e-07,0.0,0.0,0.0,0.0,0.0,0.0,0.0,0.0,0.00011234698,0.006029097,0.0064663906,131607,0.4406727,0.18144417,0.0005300541,0.008911509,0.001429126,0.001429126,0.0,0.0,0.0,0.0,0,0,0,895,24,0,0,0,0,0,0,0
11304000,0.6912423,0.0001639105,-0.015674755,0.7224531,-0.00196635,0.0054665445,0.0035038244,0.0024359706,0.0036685327,-0.006969233,-8.730337e-06,-4.802595e-05,9.680299e-06,2.9039744e-05,-0.00027005188,-0.0010889973,0.20505196,0.009181093,0.43575272,0.0,0.0,0.0,0.0,0.0,6.466496e-10,2.613194e-05,0.00028082184,6.5959524e-05,4.5499633e-05,4.5444074e-05,5.9367478e-05,0.032516714,0.032515697,0.015021195,0.096706,0.096705355,0.03278352,8.5726294e-11,8.553025e-11,8.283168e-10,5.4311874e-07,5.4286807e-07,9.204344e-08,0.0,0.0,0.0,0.0,0.0,0.0,0.0,0.0,0.00023404005,0.00561052,0.0065380936,131607,0.43978557,0.18106219,0.0023539134,0.00677725,0.001930481,0.001930481,0.0,0.0,0.0,0.0,0,0,0,895,24,0,0,0,0,0,0,0
11504000,0.69141424,0.00011829307,-0.015670005,0.7222886,-0.0009200347,0.00853225,0.0061203055,0.0037552456,0.00498056,-0.00529725,-8.673225e-06,-4.8031594e-05,9.955198e-06,2.9012594e-05,-0.0002709728,-0.001089432,0.20505196,0.009181093,0.43575272,0.0,0.0,0.0,0.0,0.0,5.9144867e-10,2.4076693e-05,0.00026777477,6.51446e-05,4.3956858e-05,4.3902608e-05,5.8686037e-05,0.031492386,0.031491347,0.01440734,0.09627447,0.096273884,0.03259601,7.911965e-11,7.892552e-11,7.899518e-10,5.4055613e-07,5.40299e-07,8.339842e-08,0.0,0.0,0.0,0.0,0.0,0.0,0.0,0.0,0.00039999586,0.0063230405,0.0070930724,131607,0.43880334,0.18054365,0.020252408,0.0043812925,0.0009017187,0.0009017187,0.0,0.0,0.0,0.0,0,0,0,895,24,0,0,0,0,0,0,0
11704000,0.69172007,-3.5407425e-05,-0.015736077,0.72199434,-0.0024750696,0.010662667,0.005138459,0.0032943222,0.007042765,-0.0045438316,-8.655799e-06,-4.8037702e-05,1.0407033e-05,2.9061359e-05,-0.0002709892,-0.0010891372,0.20505196,0.009181093,0.43575272,0.0,0.0,0.0,0.0,0.0,6.2718747e-10,2.426864e-05,0.0002796587,6.432506e-05,4.2589087e-05,4.253558e-05,5.802357e-05,0.030553555,0.030552475,0.013795799,0.09588601,0.09588547,0.032367345,7.335172e-11,7.316096e-11,7.5378637e-10,5.3824016e-07,5.379778e-07,7.5626524e-08,0.0,0.0,0.0,0.0,0.0,0.0,0.0,0.0,0.00068605517,0.007114073,0.008819862,131607,0.4379172,0.17990927,0.012166093,0.0010206087,0.00063598994,0.00063598994,0.0,0.0,0.0,0.0,0,0,0,895,24,0,0,0,0,0,0,0
11904000,0.69176936,-1.47016335e-05,-0.01577695,0.7219462,-0.0028308565,0.012491845,0.0054386025,0.0028766217,0.0072347857,-0.0041753,-8.647921e-06,-4.8091515e-05,1.0360181e-05,2.7930848e-05,-0.00027118542,-0.0010883883,0.20505196,0.009181093,0.43575272,0.0,0.0,0.0,0.0,0.0,6.410285e-10,2.5122055e-05,0.00028655175,6.3195715e-05,4.1351588e-05,4.1299052e-05,5.705116e-05,0.029640185,0.02963901,0.013193732,0.0954565,0.09545602,0.032101806,6.824427e-11,6.805815e-11,7.1697914e-10,5.361116e-07,5.35844e-07,6.865663e-08,0.0,0.0,0.0,0.0,0.0,0.0,0.0,0.0,0.0002615744,0.0060887104,0.008043473,131607,0.43693537,0.17916977,0.0011419568,0.005037959,0.00051338266,0.00051338266,0.0,0.0,0.0,0.0,0,0,0,895,24,0,0,0,0,0,0,0
12104000,0.69183123,-4.3919707e-05,-0.015770195,0.721887,-2.1973367e-05,0.008853284,0.002442765,0.004117789,0.005353123,-0.005568947,-8.618757e-06,-4.8179598e-05,1.0074209e-05,2.5968839e-05,-0.00027202466,-0.0010866132,0.20505196,0.009181093,0.43575272,0.0,0.0,0.0,0.0,0.0,6.0558547e-10,2.4053757e-05,0.00028078703,6.241382e-05,4.0248717e-05,4.0197177e-05,5.641932e-05,0.02880265,0.028801644,0.012609487,0.09506758,0.09506713,0.03180732,6.3749714e-11,6.3568685e-11,6.8505335e-10,5.3416557e-07,5.338932e-07,6.2428434e-08,0.0,0.0,0.0,0.0,0.0,0.0,0.0,0.0,0.0003222085,0.0049115233,0.007594848,131607,0.4360444,0.17834607,0.0006796815,0.008642076,0.001787593,0.001787593,0.0,0.0,0.0,0.0,0,0,0,895,24,0,0,0,0,0,0,0
12304000,0.6919136,-0.00016764145,-0.015769215,0.721808,0.004642548,0.006630476,0.0067787208,0.007792859,0.0020010006,-0.0047200937,-8.562133e-06,-4.8289843e-05,9.964175e-06,2.3531502e-05,-0.00027323066,-0.0010868292,0.20505196,0.009181093,0.43575272,0.0,0.0,0.0,0.0,0.0,6.0676103e-10,2.506458e-05,0.00028365955,6.133303e-05,3.924683e-05,3.9196406e-05,5.550166e-05,0.02797822,0.027977204,0.012046535,0.09463988,0.09463948,0.031488102,5.9739796e-11,5.956388e-11,6.5251327e-10,5.323612e-07,5.3208475e-07,5.686731e-08,0.0,0.0,0.0,0.0,0.0,0.0,0.0,0.0,0.00041119807,0.0035331019,0.0061401115,131607,0.43506247,0.17744887,0.010032517,0.011171792,0.0013253017,0.0013253017,0.0,0.0,0.0,0.0,0,0,0,895,24,0,0,0,0,0,0,0
12504000,0.6919292,-0.0001202265,-0.015684819,0.721795,-0.007875186,0.37759668,0.014716189,0.008061909,0.0043555563,-0.002500853,-8.590772e-06,-4.831675e-05,9.78106e-06,2.2878314e-05,-0.00027270094,-0.001087551,0.20505196,0.009181093,0.43575272,0.0,0.0,0.0,0.0,0.0,5.690365e-10,2.399394e-05,0.0020602508,6.060141e-05,3.8349204e-05,3.830008e-05,5.4884673e-05,0.027288578,0.027204735,0.011536036,0.094249606,0.09424918,0.03115109,5.6182614e-11,5.601222e-11,6.242494e-10,0.0,0.0,0.0,0.0,0.0,0.0,0.0,0.0,0.0,0.0,0.0,0.0003543524,0.0032588716,0.004044579,131735,0.43416446,0.17649671,0.008434686,0.0034294967,0.00063328334,0.00063328334,0.0,0.0,0.0,0.0,0,0,0,895,24,0,0,0,0,0,0,0
12704000,0.69376683,-0.0011876111,-0.015840966,0.72002447,-0.30738318,9.338387,0.1927124,0.021786265,1.0149386,0.014863965,-7.4689865e-06,-4.892413e-05,1.4184275e-05,2.2878314e-05,-0.00027270094,-0.001087551,0.20505196,0.009181093,0.43575272,0.0,0.0,0.0,0.1902343,-3.9337654,5.342171e-10,2.4069333e-05,0.0017075996,5.356498e-05,3.6822647e-05,3.6913003e-05,4.8499445e-05,0.0554628,0.026882403,0.022362988,0.09383121,0.09369095,0.030801598,5.25375e-11,5.2255505e-11,5.525677e-10,0.0,0.0,0.0,0.0,0.0,0.0,0.0,0.0,0.0,4.901919,0.22853482,0.0048764087,0.07063136,0.051241048,656279,0.4330383,0.17550384,0.0058572595,0.12359307,0.006842512,0.006842512,0.18174314,0.0,0.0,0.0,0,0,0,895,24,0,0,0,0,0,0,0
12904000,0.69663274,-0.0024359084,-0.016006086,0.7172452,-0.36091703,15.005304,0.2787983,0.017878102,3.4845912,0.04738653,-6.21532e-06,-4.9601793e-05,2.1352975e-05,2.2878314e-05,-0.00027270094,-0.001087551,0.20505196,0.009181093,0.43575272,0.0,0.0,0.0,0.23520152,-3.1844447,1.3377497e-08,3.4573146e-05,0.0013692398,4.278377e-05,3.480145e-05,3.510048e-05,3.867824e-05,0.07573959,0.026654394,0.036470965,0.09341762,0.092993245,0.030938478,4.99656e-11,4.823715e-11,4.605475e-10,0.0,0.0,0.0,0.0,0.0,0.0,0.0,0.0,0.0,4.9006476,0.11334495,0.012070998,0.18707609,0.10739187,656279,0.43175325,0.17589337,0.0021519486,0.16593736,0.009462431,0.009462431,0.23640807,0.0,0.0,0.0,0,0,0,895,24,0,0,0,0,0,0,0
13104000,0.68246144,0.0053968243,-0.0062532746,0.730875,-0.33238134,18.816938,0.23687896,0.025210496,6.8877387,0.07289923,-5.2627506e-06,-5.0291794e-05,2.7320659e-05,2.3339993e-05,-0.00025777964,-0.0010869157,0.20505196,0.009181093,0.43575272,0.0,0.0,0.0,0.35687384,-2.7076626,3.22706e-08,3.8881437e-05,0.0011016789,3.5365163e-05,3.2891192e-05,3.279642e-05,2.9383278e-05,0.07654386,0.026607897,0.04411236,0.09304454,0.09215007,0.031897794,4.8381535e-11,4.4316297e-11,3.8889877e-10,5.3025195e-07,5.3006914e-07,5.2066103e-08,0.0,0.0,0.0,0.0,0.0,0.0,4.89813,0.081550844,0.014935201,0.25023472,0.15697809,656279,0.43034244,0.17859954,0.016331637,0.16254131,0.013998129,0.013998129,0.29814026,0.0,0.0,0.0,0,0,0,895,24,0,0,0,0,0,0,0
13304000,0.6928639,0.030742167,0.016591277,0.72022176,-0.5526835,21.179771,0.22963424,-0.009660695,10.9132185,0.08405917,-4.6114856e-06,-5.0790753e-05,3.0948355e-05,1.9068748e-05,-0.00023373969,-0.001085527,0.20505196,0.009181093,0.43575272,0.0,0.0,0.0,0.30831417,-2.29491,3.775398e-08,4.17618e-05,0.0010693658,2.841502e-05,3.1125834e-05,3.0398987e-05,2.5874104e-05,0.06842524,0.02673574,0.04432283,0.09283402,0.09132997,0.033333678,4.731562e-11,4.0903607e-11,3.429123e-10,5.283455e-07,5.288284e-07,5.205821e-08,0.0,0.0,0.0,0.0,0.0,0.0,4.7532554,0.06459332,0.012629818,0.22255048,0.17148355,689047,0.4291433,0.18257514,0.019278234,0.13406393,0.015375431,0.015375431,0.33926955,0.0,0.004498899,0.0,0,0,0,895,24,0,0,0,0,0,0,0
13504000,0.6994664,0.0454594,0.03774617,0.71221864,-0.621569,22.50926,0.19865298,-0.0858089,15.299581,0.09636051,-4.2137717e-06,-5.1147887e-05,3.2704833e-05,1.0430879e-05,-0.00021037101,-0.0010836781,0.20505196,0.009181093,0.43575272,0.0,0.0,0.0,0.27430642,-1.9921529,3.4794702e-08,3.704539e-05,0.00083477225,2.4281837e-05,2.9556015e-05,2.8314571e-05,2.4099472e-05,0.05884566,0.026958358,0.039892253,0.09264116,0.090485,0.03465473,4.6469658e-11,3.809554e-11,3.1524183e-10,5.241671e-07,5.2640564e-07,5.2038494e-08,0.0,0.0,0.0,0.0,0.0,0.0,4.628371,0.054727595,0.008168978,0.15188187,0.14965165,689047,0.4279324,0.18615781,0.017357355,0.089776084,0.021011665,0.021011665,0.34231356,0.0,0.0073648235,0.0,0,0,0,895,24,0,0,0,0,0,0,0
13704000,0.6886306,0.04292104,0.06404342,0.7210022,-0.95392334,23.195486,-0.48655206,-0.20947336,19.890293,0.038487084,-3.9081224e-06,-5.141266e-05,3.3625533e-05,-8.461836e-06,-0.00018797549,-0.0010808425,0.20505196,0.009181093,0.43575272,0.0,0.0,0.0,0.11146905,-1.7323817,2.8127827e-08,3.350425e-05,0.0006312628,2.2604236e-05,2.8674802e-05,2.6427257e-05,2.2177317e-05,0.051398605,0.028516717,0.033874508,0.09244869,0.0896833,0.03546523,4.5632543e-11,3.5830935e-11,2.9848204e-10,5.175086e-07,5.227429e-07,5.2002783e-08,0.0,0.0,0.0,0.0,0.0,0.0,4.513829,0.047606297,0.004709841,0.0919261,0.11705401,689047,0.42676926,0.18832214,0.0044983197,0.07299352,0.024970997,0.024970997,0.34685266,0.0,0.0043665958,0.0,0,0,0,895,24,0,0,0,0,0,0,0
13904000,0.68536955,0.036178328,0.08357567,0.7224782,-1.3979913,23.442747,-1.3821872,-0.42980552,24.572945,-0.19650707,-3.6858958e-06,-5.157275e-05,3.376571e-05,-3.5386714e-05,-0.00017126961,-0.0010772572,0.20505196,0.009181093,0.43575272,0.0,0.0,0.0,-0.19219476,-1.550323,2.209796e-08,3.0443496e-05,0.00049174944,2.160844e-05,2.7542654e-05,2.4935178e-05,2.1633243e-05,0.046229538,0.030136764,0.027884662,0.092244245,0.08896962,0.035637416,4.472262e-11,3.4042193e-11,2.8888122e-10,5.0820455e-07,5.176456e-07,5.194489e-08,0.0,0.0,0.0,0.0,0.0,0.0,4.3034153,0.042690367,0.002621288,0.04510064,0.084257066,689047,0.4256922,0.18877874,0.03587872,0.060430493,0.030687677,0.030687677,0.31928214,0.0,0.0028814687,0.0,0,0,0,895,24,0,0,0,0,0,0,0
14104000,0.68058,0.02911461,0.09809338,0.7254935,-1.8059647,23.491205,-2.062897,-0.7492135,29.287672,-0.5788884,-3.6001127e-06,-5.1600287e-05,3.3529017e-05,-7.04198e-05,-0.00016501792,-0.0010733355,0.20505196,0.009181093,0.43575272,0.0,0.0,0.0,-0.5338562,-1.3975879,1.8834521e-08,2.7676648e-05,0.00040534002,2.13635e-05,2.6397342e-05,2.3602506e-05,2.1420043e-05,0.042835034,0.0310415,0.022931738,0.092089646,0.088408045,0.035295513,4.374131e-11,3.269177e-11,2.8253128e-10,4.965544e-07,5.112328e-07,5.185974e-08,0.0,0.0,0.0,0.0,0.0,0.0,4.198177,0.03887863,0.0014061786,0.029066073,0.06156176,689047,0.4248502,0.187871,0.0048292642,0.043308396,0.033992182,0.033992182,0.28801173,0.0,0.0048049185,0.0,0,0,0,895,24,0,0,0,0,0,0,0
14304000,0.67322785,0.019338261,0.11198924,0.73064965,-2.2330027,23.368738,-2.7578309,-1.152612,33.96928,-1.0906895,-3.5576609e-06,-5.1760755e-05,3.332958e-05,-7.904952e-05,-0.0001623133,-0.0010713465,0.20505196,0.009181093,0.43575272,0.0,0.0,0.0,-0.8503226,-1.2964916,1.6208247e-08,2.6362412e-05,0.00036044803,2.1937853e-05,2.6900485e-05,2.3735593e-05,2.133552e-05,0.051266372,0.03806968,0.02061669,0.109058484,0.10177158,0.03599405,4.369733e-11,3.2558636e-11,2.791029e-10,4.959301e-07,5.1100744e-07,5.1827637e-08,0.0,0.0,0.0,0.0,0.0,0.0,4.0945115,0.037203006,0.0010236452,0.03941733,0.04711166,689047,0.45916235,0.18972097,0.02330144,0.043308396,0.033992182,0.033992182,0.25629032,0.0,0.009054733,0.0,0,0,0,895,24,0,0,0,0,0,0,0
14504000,0.6682214,0.008716727,0.12404803,0.733496,-2.6488385,23.177727,-3.4306874,-1.6457889,38.658653,-1.7435185,-3.577624e-06,-5.1642834e-05,3.327781e-05,-0.00013653788,-0.00016138777,-0.0010657164,0.20423554,0.008463517,0.4376923,8.070902e-05,0.0005248512,-0.00021534573,-1.1779406,-1.2018418,1.5003195e-08,2.5909623e-05,0.0003468779,2.2459812e-05,2.5860889e-05,2.2747692e-05,2.1575133e-05,0.050077096,0.03843317,0.017255172,0.1085351,0.10130804,0.03488836,4.2737126e-11,3.160961e-11,2.7716224e-10,4.8166635e-07,5.034583e-07,5.1688744e-08,0.001325242,1.865897e-05,0.0013243154,0.00032395215,0.0013268004,0.0013004527,3.90523,0.03455659,0.0006475459,0.04773146,0.056423407,9077735,0.4580864,0.18678427,0.016449567,0.06625537,0.037487574,0.037487574,0.21465157,0.0,0.01556951,0.0,0,0,0,895,24,0,0,0,0,0,0,0
14704000,0.6623905,-0.002273105,0.13557298,0.736786,-3.038717,22.921747,-4.0659943,-2.2280333,43.29639,-2.5266056,-3.6966937e-06,-5.1597654e-05,3.329908e-05,-0.00018850312,-0.00016783147,-0.00105876,0.20431271,0.008471797,0.43779743,0.0007052604,0.00039544294,0.0002207572,-1.4810393,-1.1336747,1.3757526e-08,2.5223506e-05,0.000333784,2.3393315e-05,2.4895267e-05,2.1884309e-05,2.197884e-05,0.04974989,0.038491808,0.014842039,0.10807161,0.10102615,0.033735327,4.1781772e-11,3.091386e-11,2.7691216e-10,4.657084e-07,4.952477e-07,5.1503054e-08,0.001282121,1.8275867e-05,0.0012787028,0.00017713604,0.001283537,0.001246064,3.8030474,0.032596465,0.00070294813,0.05358527,0.063952155,9077735,0.45727208,0.18367179,0.0143585475,0.04831175,0.039195586,0.039195586,0.18730773,0.0,0.018650964,0.0,0,0,0,895,24,0,0,0,0,0,0,0
14903999,0.65599304,-0.014201169,0.14716016,0.7401456,-3.433023,22.611395,-4.710396,-2.89737,47.877125,-3.4266024,-3.928241e-06,-5.1511906e-05,3.345959e-05,-0.00024318772,-0.0001844728,-0.0010523683,0.20437224,0.008473032,0.4378329,0.0006618028,0.0003898421,0.00010277979,-1.7960619,-1.0767151,1.33668445e-08,2.4141442e-05,0.0003056855,2.4425934e-05,2.3933157e-05,2.1094264e-05,2.2295259e-05,0.049908496,0.03831082,0.0131398365,0.10755576,0.10082117,0.032619696,4.0787734e-11,3.0402222e-11,2.7653416e-10,4.4834823e-07,4.8651424e-07,5.1261576e-08,0.0012684582,1.7958475e-05,0.0012585452,0.00014217169,0.0012707587,0.0012170913,3.6967428,0.030953003,0.0008668454,0.060160276,0.069479264,9077735,0.45648322,0.18060924,0.008723092,0.053019278,0.02599905,0.02599905,0.16919684,0.0,0.021749245,0.0,0,0,0,895,24,0,0,0,0,0,0,0
15104000,0.6500944,-0.02712223,0.15853381,0.74263626,-3.816035,22.250395,-5.379395,-3.6543732,52.404476,-4.468456,-4.2268e-06,-5.1424217e-05,3.3728396e-05,-0.00030917462,-0.00020450036,-0.0010427203,0.20456816,0.008480023,0.43777817,0.0006192499,0.00022127051,-1.278272e-05,-2.034087,-1.0314884,1.6048723e-08,2.8761748e-05,0.0003179342,2.541776e-05,2.2945025e-05,2.0399948e-05,2.2544431e-05,0.05035671,0.037956845,0.011965871,0.107107796,0.100754306,0.031597268,3.9793363e-11,3.0029212e-11,2.7564845e-10,4.3030224e-07,4.7779446e-07,5.0958782e-08,0.001257833,1.7632992e-05,0.0012329109,0.00012875277,0.0012627058,0.0011806932,3.517942,0.029480211,0.0011864109,0.06384226,0.07792678,9077735,0.45591897,0.1777562,0.012068755,0.061099775,0.06346121,0.06346121,0.13577895,0.0,0.027073978,0.0,0,0,0,895,24,0,0,0,0,0,0,0
15304000,0.6443417,-0.043343373,0.1593218,0.74670047,-4.1596937,21.890223,-5.9656687,-4.483945,56.84837,-5.6365438,-4.515058e-06,-5.1378018e-05,3.4075394e-05,-0.0003687882,-0.00022303191,-0.0010331235,0.20472707,0.008480369,0.43796083,0.0005283207,0.00033566315,-0.0004773011,-2.294378,-0.99864227,1.9790834e-08,2.752858e-05,0.00031637147,2.6730206e-05,2.1555858e-05,1.98821e-05,2.2518054e-05,0.050321497,0.037262745,0.011191915,0.10661339,0.10070567,0.030693527,3.880242e-11,2.9754754e-11,2.740265e-10,4.1190867e-07,4.6933403e-07,5.058697e-08,0.0012468951,1.7342223e-05,0.0012018993,0.000123881,0.0012557618,0.0011387903,3.4058714,0.028378956,0.0013124483,0.0628971,0.0767241,9077735,0.455323,0.17519568,0.024202162,0.059142195,0.0457711,0.0457711,0.1056995,0.0,0.0296374,0.0,0,0,0,895,24,0,0,0,0,0,0,0
15504000,0.64070374,-0.066939324,0.14260215,0.7514536,-4.355598,21.641008,-6.3492584,-5.3755107,61.236324,-6.9050007,-4.8628176e-06,-5.1327104e-05,3.458919e-05,-0.0004419202,-0.0002442782,-0.0010211489,0.20421386,0.008452465,0.43693143,0.0003338486,0.0003139871,0.00057594286,-2.4932408,-0.97240794,1.9794552e-08,2.627578e-05,0.0003181575,2.8425397e-05,1.9591515e-05,1.9809337e-05,2.2223696e-05,0.049276892,0.036216155,0.010680743,0.10616218,0.1007175,0.029931955,3.7878697e-11,2.955668e-11,2.717889e-10,3.9368797e-07,4.6146172e-07,5.0143864e-08,0.0012146358,1.7021222e-05,0.0011576044,0.00012066777,0.0012278853,0.0010841772,3.3005235,0.027455641,0.0015695697,0.06291645,0.07698371,9077735,0.45484027,0.17300855,0.020562002,0.073371895,0.048289973,0.048289973,0.10722876,0.0,0.03148584,0.0,0,0,0,895,24,0,0,0,0,0,0,0
15704000,0.63886523,-0.08519188,0.12707423,0.75395346,-4.4077024,21.496136,-6.5688615,-6.293597,65.5787,-8.227827,-5.2272126e-06,-5.130475e-05,3.518581e-05,-0.00051065534,-0.00026737174,-0.0010090135,0.20452036,0.008460533,0.4365829,0.00016907336,0.00047564547,0.00070055004,-2.5955229,-0.9464455,1.7751779e-08,2.5622085e-05,0.00030902005,2.9867679e-05,1.7892236e-05,1.9613428e-05,2.2189852e-05,0.047395226,0.03497205,0.010333219,0.10564986,0.100679874,0.029314408,3.7061215e-11,2.9415272e-11,2.6923025e-10,3.7567045e-07,4.540953e-07,5e-08,0.001151371,1.668836e-05,0.0010957223,0.00011696981,0.0011658152,0.0010177766,3.1471581,0.02640817,0.0018040633,0.061596356,0.07443641,9077735,0.45423532,0.1712145,0.024844939,0.08204362,0.03224961,0.03224961,0.07921153,0.0,0.033888273,0.0,0,0,0,895,24,0,0,0,0,0,0,0
15904000,0.6385443,-0.09864996,0.115115814,0.754505,-4.36116,21.420416,-6.720617,-7.214355,69.91652,-9.5825615,-5.5676305e-06,-5.123925e-05,3.5766294e-05,-0.0005782062,-0.00028893643,-0.0009974055,0.20602122,0.008514931,0.4365307,0.00011617565,0.0016098816,0.00014117286,-2.6777258,-0.9215161,1.7897818e-08,2.9048195e-05,0.00039950968,3.1049385e-05,1.658699e-05,1.9341795e-05,2.2426033e-05,0.045306023,0.033775847,0.010096714,0.10518492,0.100663476,0.028829087,3.6379223e-11,2.9318464e-11,2.6667232e-10,3.5815154e-07,4.4728287e-07,5e-08,0.0010611047,1.630338e-05,0.0010135056,0.00011198789,0.0010735398,0.0009361292,3.0730722,0.02557998,0.0018070656,0.058126096,0.07299957,9077735,0.4537052,0.1697913,0.015439237,0.08057068,0.06766566,0.06766566,0.09639083,0.0,0.034305993,0.0,0,0,0,895,24,0,0,0,0,0,0,0
16104000,0.635758,-0.1180337,0.10030032,0.7561877,-4.2005224,20.909327,-6.783503,-8.106909,74.20424,-10.962265,-5.812967e-06,-5.1203206e-05,3.6166188e-05,-0.00064446236,-0.00030193635,-0.0009850663,0.2057586,0.008502784,0.43631262,-0.0001910018,0.0012513258,0.00036707078,-2.7392788,-0.8825114,2.411442e-08,2.9999792e-05,0.0003792727,3.232621e-05,1.5476377e-05,1.9366045e-05,2.238797e-05,0.044217408,0.032605194,0.009784005,0.104668476,0.1005728,0.02843702,3.5812055e-11,2.925394e-11,2.641984e-10,3.4118577e-07,4.409201e-07,5e-08,0.00096730504,1.5936124e-05,0.00092873897,0.000106623156,0.00097608793,0.00085533364,3.0090263,0.024704142,0.0014375142,0.049363635,0.06282935,9077735,0.45303562,0.16863279,0.006837973,0.06408633,0.049292814,0.049292814,0.15354292,0.0,0.034606457,0.0,0,0,0,895,24,0,0,0,0,0,0,0
16304000,0.6328703,-0.13584189,0.07659024,0.7583905,-3.9592361,20.371874,-6.7604384,-8.958676,78.36456,-12.345629,-6.058694e-06,-5.1163894e-05,3.6615802e-05,-0.00070451794,-0.00031571614,-0.0009742777,0.20613231,0.008520181,0.43699858,-6.664984e-05,0.0011382058,-0.00045943155,-2.6649692,-0.84430087,2.3561514e-08,2.8371021e-05,0.00036610093,3.369743e-05,1.4349844e-05,1.932592e-05,2.224954e-05,0.043026716,0.03153734,0.00954164,0.10420722,0.100484364,0.028085563,3.529766e-11,2.9215682e-11,2.6112248e-10,3.2515132e-07,4.3498306e-07,5e-08,0.0008325786,1.5483063e-05,0.00080991996,9.8956334e-05,0.0008356028,0.00074481923,2.890462,0.023628807,0.0013451634,0.043263543,0.05474828,9077735,0.45242855,0.16758747,0.0058935373,0.066332996,0.04844736,0.04844736,0.11755672,0.0,0.038638707,0.0,0,0,0,895,24,0,0,0,0,0,0,0
16504000,0.6393946,-0.13650383,0.053200938,0.7547921,-3.7158027,20.324026,-6.264598,-9.757145,82.45927,-13.684029,-6.262976e-06,-5.11597e-05,3.697873e-05,-0.00076646736,-0.00032508213,-0.0009609831,0.20586634,0.008504565,0.43556958,-0.000478243,0.0010253506,0.00089191325,-2.5932617,-0.8130456,1.8577685e-08,2.624945e-05,0.00034481924,3.4526485e-05,1.3432592e-05,1.8766945e-05,2.3073591e-05,0.039696347,0.030261943,0.009438346,0.10365615,0.10029165,0.02780099,3.485699e-11,2.9199084e-11,2.5780755e-10,3.0997805e-07,4.2935204e-07,5e-08,0.00071625935,1.5060304e-05,0.0007045957,9.1214155e-05,0.00071356894,0.0006492113,2.8295069,0.022653898,0.001216996,0.03475755,0.043750953,9077735,0.4516058,0.16673629,0.014443042,0.061047155,0.031610474,0.031610474,0.085222974,0.0,0.035175387,0.0,0,0,0,895,24,0,0,0,0,0,0,0
16704000,0.64516485,-0.1350889,0.03997832,0.7509427,-3.4407277,20.471426,-5.717666,-10.500889,86.58381,-14.904112,-6.402316e-06,-5.112147e-05,3.7173577e-05,-0.00082339795,-0.00033082493,-0.0009494186,0.20520148,0.008473363,0.43449137,-0.00082450005,0.00049272383,0.0020093424,-2.4965804,-0.7827903,1.3774791e-08,2.532153e-05,0.00032828437,3.520235e-05,1.3005913e-05,1.8301764e-05,2.4046993e-05,0.036469497,0.029168472,0.009366784,0.10312007,0.100080006,0.027590383,3.4544045e-11,2.92052e-11,2.5505034e-10,2.9554357e-07,4.2374046e-07,5e-08,0.00062679587,1.46705615e-05,0.0006185986,8.3939616e-05,0.0006199957,0.00057189545,2.7669644,0.021668106,0.0008862441,0.026424509,0.03581895,9077735,0.45077717,0.16610353,0.016118567,0.045123145,0.063187,0.063187,0.080283016,0.0,0.032302175,0.0,0,0,0,895,24,0,0,0,0,0,0,0
16904000,0.6492024,-0.13476287,0.034440678,0.74778956,-3.1233056,20.570175,-5.4409175,-11.183564,90.719925,-16.046543,-6.527923e-06,-5.1124465e-05,3.734104e-05,-0.0008738577,-0.00033716668,-0.0009360469,0.2061322,0.00851565,0.43408674,-0.00086566404,0.0013554518,0.0021706587,-2.3538296,-0.75150573,1.0687937e-08,2.4833318e-05,0.0003101548,3.587469e-05,1.2882244e-05,1.8004474e-05,2.5011623e-05,0.034206457,0.028353015,0.009287422,0.10254591,0.09979507,0.027430559,3.4320498e-11,2.9226847e-11,2.5275618e-10,2.8189277e-07,4.1817074e-07,5e-08,0.0005568781,1.4302157e-05,0.0005491472,7.747847e-05,0.00054747757,0.0005093349,2.6988041,0.02058509,0.00072787603,0.019597681,0.025646668,9077735,0.4498233,0.16562173,0.016607193,0.044974145,0.044937633,0.044937633,0.087285444,0.0,0.031459447,0.0,0,0,0,895,24,0,0,0,0,0,0,0
17104000,0.65543556,-0.13353404,0.030989464,0.74270624,-2.7929142,20.648773,-5.261954,-11.798792,94.880005,-17.139439,-6.619383e-06,-5.1105377e-05,3.7377e-05,-0.00092293444,-0.00034165432,-0.0009255221,0.20628376,0.008522422,0.4331549,-0.0012909157,0.0016064303,0.0029648272,-2.1571033,-0.7177712,9.071474e-09,2.4149214e-05,0.00029771516,3.63686e-05,1.2850845e-05,1.7805192e-05,2.6247155e-05,0.032403357,0.027667133,0.009207175,0.10201424,0.09951619,0.027304703,3.4148635e-11,2.9258346e-11,2.5069727e-10,2.6934745e-07,4.1294814e-07,5e-08,0.0005100125,1.400446e-05,0.00050173973,7.264281e-05,0.0004993049,0.00046654683,2.5832682,0.0194117,0.00052008766,0.015120351,0.018837797,9077735,0.4489214,0.16524135,0.02394912,0.04219226,0.046042614,0.046042614,0.10042781,0.0,0.028448122,0.0,0,0,0,895,24,0,0,0,0,0,0,0
17304000,0.6619765,-0.13223113,0.029530073,0.73717713,-2.46014,20.693869,-5.13039,-12.3555355,99.04239,-18.203451,-6.75243e-06,-5.1117848e-05,3.7511858e-05,-0.0009691217,-0.0003537736,-0.00091423735,0.20571092,0.008497896,0.43231642,-0.0016558315,0.0010934393,0.0038065654,-1.9596721,-0.68417895,7.2795676e-09,2.3387109e-05,0.0002900397,3.680557e-05,1.2904534e-05,1.7677688e-05,2.7569127e-05,0.03086236,0.027028332,0.009123203,0.10144553,0.099174574,0.027201222,3.4008702e-11,2.9296364e-11,2.4874441e-10,2.578941e-07,4.0808106e-07,5e-08,0.00047167746,1.3712825e-05,0.00046279246,6.827828e-05,0.0004602511,0.00043142025,2.5110676,0.01833589,0.00067176414,0.014925118,0.016711984,9077735,0.44790637,0.16492793,0.027193712,0.060227178,0.028474836,0.028474836,0.09809044,0.0,0.02529042,0.0,0,0,0,895,24,0,0,0,0,0,0,0
17504000,0.66715455,-0.13099836,0.029950919,0.73269856,-2.1295192,20.722414,-5.058575,-12.837186,103.2296,-19.245111,-6.8233553e-06,-5.1090374e-05,3.745277e-05,-0.0010152068,-0.00035764943,-0.00090413215,0.20524256,0.008476363,0.432099,-0.0018511746,0.00060745596,0.0040519345,-1.7560786,-0.6498173,6.499135e-09,2.3723369e-05,0.00027628205,3.730847e-05,1.3046814e-05,1.7591236e-05,2.8837594e-05,0.029566256,0.026438754,0.009036504,0.100919664,0.09884751,0.027113678,3.389081e-11,2.9339198e-11,2.468434e-10,2.476216e-07,4.0365285e-07,5e-08,0.00044433042,1.3466138e-05,0.00043543577,6.493763e-05,0.0004326068,0.0004067992,2.4399738,0.017340198,0.00045499345,0.011644846,0.01485334,9077735,0.4469532,0.16466232,0.024940882,0.04182355,0.06098511,0.06098511,0.09929946,0.0,0.02279428,0.0,0,0,0,831,24,0,0,0,0,0,0,0
