timestamp,control[0],control[1],control[2],control[3],control[4],output[2],output[3],output[4],output[5],output[6],output[7],indicated_airspeed_m_s,true_airspeed_m_s,indicated_airspeed_m_s.1,equivalent_airspeed_m_s,true_airspeed_m_s.1,equivalent_ground_minus_wind_m_s,true_ground_minus_wind_m_s,differential_pressure_raw_pa,differential_pressure_filtered_pa,temperature,gyro_bias[0],gyro_bias[1],gyro_bias[2],accel_bias[0],accel_bias[1],accel_bias[2],instance_count,seq_reached,seq_current,seq_total,item_changed_index,item_do_jump_remaining,valid,warning,finished,failure,stay_in_failsafe,flight_termination,item_do_jump_changed,execution_mode,nav_roll,nav_pitch,nav_bearing,target_bearing,xtrack_error,wp_dist,acceptance_radius,rollspeed_integ,pitchspeed_integ,yawspeed_integ,additional_integ1,x,y,z,temperature.1,pressure,temperature.2,gyro_rad[0],gyro_rad[1],gyro_rad[2],accelerometer_m_s2[0],accelerometer_m_s2[1],accelerometer_m_s2[2],x.1,y.1,z.1,temperature.3,altitude_sp,altitude_filtered,height_rate_setpoint,height_rate,airspeed_sp,airspeed_filtered,airspeed_derivative_sp,airspeed_derivative,throttle_integ,pitch_integ,baro_alt_meter,baro_temp_celcius,baro_pressure_pa,rho,xyz[0],xyz[1],xyz[2],xyz[0].1,xyz[1].1,xyz[2].1,roll_body,pitch_body,yaw_body,yaw_sp_move_rate,q_d[0],q_d[1],q_d[2],q_d[3],thrust_body[0],lat,lon,alt,vel_m_s,vel_n_m_s,vel_e_m_s,vel_d_m_s,cog_rad,ref_lat,ref_lon,x.2,y.2,z.2,vx,vy,vz,ax,ay,az,yaw,dist_bottom,roll,pitch,yaw.1,thrust_body[0].1,isTakeoff,isClimbing,isDescending,isCruise,isLand
36064096,-0.01658119,-0.052261355,0.082100565,0.24971694,0.0,1541.0,1500.0,1249.0,1508.038608,1490.961392,1472.0,15.95446971,16.34788412,16.16110971,16.13785974,16.53564106,15.95006938,16.34322381,160.0564372,160.0564372,11.73475671,-0.0016544939999999998,-0.006763597,0.001601257,-0.171303058,0.079643328,-0.082099104,2.0,-0.160232046,0.839767954,15,0,0,1,0,0.0,0,0,0,0,0,0.41170211700000003,-0.004800888,1.53011245,1.620709947,5.188192661,248.72238399999998,46.66644325,-0.028258288,-0.045065327,0.00486703,0.0,-0.319278742,0.38408667399999996,-7.863947536,2754.1082,954.2902839,11.73362689,0.0009203389999999999,-0.061346767,0.244574572,-0.305245129,0.42037104700000005,-7.722833317,0.001418645,-0.060422215999999994,0.25745894399999997,2754.1082,100.0069737,103.37236850000001,-0.16618265599999998,-0.011827486000000002,15.36989246,16.02014391,-0.013005032,-0.908817274,-0.270106182,26.7525409,502.9011902,11.73364568,95428.55396,1.1338490479999999,0.032044544,0.729992196,0.17933387,0.003824915,-0.048800985,0.250367406,0.40805679200000006,-0.0058304640000000005,1.548415422,0,0.6997287959999999,0.14686053699999999,0.13961689800000002,0.685067147,0.245327828,398728568.1,327411001.6,503073.8974,16.5211899,8.184998659,14.35174601,-1.55595119,1.052241032,39.8714138,32.7368418,161.7590861,365.8385444,-103.18459920000001,7.579508277,14.53299784,-0.9622859509999999,-3.229276889,1.079247193,3.0195393139999998,1.066332335,103.3429217,-0.007335993000000001,0.088754339,0.24183297399999998,0.24211955,0,0,0,1,0
36102551,-0.022344409,-0.048784808,0.082283405,0.24951172,0.0,1541.0,1500.0,1249.0,1508.0,1491.0,1473.059012,15.95512176,16.34857678,16.09387692,16.07071172,16.46694483,15.87778082,16.26925901,158.667564,158.667564,11.73401902,-0.001653526,-0.006761019,0.0016040229999999998,-0.171205532,0.07981332099999999,-0.082011642,2.0,-0.156831366,0.8431686340000001,15,0,0,1,0,0.0,0,0,0,0,0,0.409048732,-0.005154166,1.5371967480000002,1.6219694869999999,4.857006633999999,248.0981167,46.64305784,-0.028244136,-0.044972508,0.004884052,0.0,-0.30342729399999996,0.40289484299999995,-7.9335244970000005,2754.1082,954.2785072999999,11.73333776,-0.001117705,-0.05842085599999999,0.251365271,-0.281759587,0.49374308,-7.710419213,0.004187493,-0.055851225,0.257250777,2754.1082,100.0070804,103.3755255,-0.166702698,-0.09797831300000001,15.36989686,16.01760036,-0.012954076,-0.85473215,-0.270425015,26.66140371,502.94375999999994,11.73339865,95428.09749,1.1338437,0.118931849,0.8610856729999999,-0.199397921,-0.001734515,-0.038650891,0.250712025,0.399941444,-0.005529109,1.5506216609999999,0,0.699583073,0.143764614,0.137101102,0.6863782620000001,0.24445708600000002,398728600.4,327411074.4,503146.5737,16.48995386,8.053806628,14.39339455,-1.3997699540000001,1.060345985,39.8714138,32.7368418,162.0797338,366.4548852,-103.22465759999999,7.443574699,14.58040908,-0.8400716429999999,-3.262572276,1.128941634,2.92920839,1.0752178909999999,103.38297850000001,-0.019294625,0.093806142,0.233646679,0.24129316,0,0,0,1,0
36141006,-0.018391191,-0.044853667,0.08149376400000001,0.24949697,0.0,1541.0,1500.0,1249.0,1511.0,1488.0,1475.0,16.02503502,16.42019979,16.06703654,16.04406584,16.43967483,15.84964776,16.24046473,158.1169861,158.1169861,11.73378622,-0.00165238,-0.006758615,0.0016062939999999999,-0.171094119,0.079976744,-0.08190583,2.0,-0.15343068599999998,0.846569314,15,0,0,1,0,0.0,0,0,0,0,0,0.406395346,-0.005507444,1.544281046,1.6232290269999998,4.525820608,247.4738494,46.61967243,-0.028228229,-0.044873585,0.00488727,0.0,-0.20313470100000003,0.463184475,-7.96506555,2754.1082,954.2635654999999,11.73315651,-0.0041738109999999995,-0.050504495,0.25560028,-0.23775388,0.39803684,-7.734711999999999,-0.0045937420000000005,-0.048549359,0.257962765,2754.1082,100.00713490000001,103.3673339,-0.16650447,-0.172176804,15.36995283,16.02783921,-0.013157735,-0.8057615140000001,-0.270743845,26.57066592,502.96212310000004,11.73318262,95427.90007999999,1.133841287,0.337531316,0.467425896,-0.077432238,0.000284546,-0.032684169,0.246697727,0.39848941200000004,-0.00509578,1.5592756190000001,0,0.6967416740000001,0.142516151,0.137371796,0.689469855,0.24349664699999998,398728631.4,327411146.6,503208.4943,16.46247842,7.9218623720000005,14.43729946,-1.258631726,1.068634718,39.8714138,32.7368418,162.407718,367.1028865,-103.2592928,7.299805895,14.63158638,-0.7173850909999999,-3.3067017130000003,1.171418536,2.7727643539999995,1.084644367,103.4176158,-0.018226753000000002,0.09897781900000001,0.230346188,0.24081814,0,0,0,1,0
36191461,-0.018123547,-0.041260938,0.080398423,0.24922091,0.0,1540.0,1500.0,1249.0,1508.19964,1490.80036,1477.0,15.90022581,16.29235406,16.06140944,16.03869086,16.43416105,15.84470429,16.2353931,158.0066638,158.0066638,11.73381857,-0.001651139,-0.006756303000000001,0.001608306,-0.170975414,0.080136717,-0.08179038200000001,2.0,-0.150030006,0.8499699940000001,15,0,0,1,0,0.0,0,0,0,0,0,0.402961959,-0.0055206809999999995,1.550821861,1.624408441,4.220653774,246.8393031,46.60946907,-0.02821225,-0.044759785999999996,0.004887417,0.0,-0.102842109,0.5234741070000001,-7.996606602999999,2754.1082,954.2486236,11.73297525,-0.003649404,-0.047548890999999996,0.251025416,-0.242532445,0.49897030200000003,-7.914317302000001,-0.013374978000000001,-0.041247492999999996,0.258674754,2754.1082,100.00718940000002,103.35914220000001,-0.166306242,-0.246375294,15.37000881,16.03807806,-0.013361395,-0.756790878,-0.271062676,26.47992813,502.9890154,11.73300559,95427.55382,1.133837145,0.145003393,-0.386597505,0.016055822,0.002203657,-0.032002145,0.252914184,0.39585610600000004,-0.004581097,1.566825928,0,0.6943549259999999,0.140902514,0.137177363,0.692238496,0.242324445,398728660.1,327411217.7,503251.3921,16.44165405,7.788587718,14.48519504,-1.14409882,1.077248488,39.8714138,32.7368418,162.73307250000002,367.7478407,-103.29302340000001,7.156657326,14.68273598,-0.595865465,-3.349038031,1.2139267759999999,2.624703145,1.094038903,103.4513484,-0.022953252,0.101840865,0.223481089,0.24062884,0,0,0,1,0
36229916,-0.023157357000000003,-0.038300015,0.079315916,0.24875772,0.0,1540.0,1500.0,1249.0,1509.0,1490.0,1479.0,15.95819062,16.35200928,16.05578234,16.03331588,16.42864727,15.83976082,16.23032147,157.8963415,157.8963415,11.73385093,-0.001649899,-0.006753991,0.001610318,-0.170856708,0.08029669099999999,-0.081674934,2.0,-0.146629326,0.8533706740000001,15,0,0,1,0,0.0,0,0,0,0,0,0.39822034100000003,-0.004963597,1.5564511369999998,1.625453469,3.959126726,246.1875168,46.62137484,-0.028199288,-0.044667692,0.004863576,0.0,-0.135859113,0.517519541,-8.14169947,1809.9937289999998,954.2549782,11.732857000000001,8.590000000000001e-05,-0.037918384,0.258828041,-0.19919529,0.472869968,-8.082325302000001,-0.015680825,-0.035632283,0.259721413,1809.9937289999998,100.007244,103.3509505,-0.166108014,-0.320573784,15.37006479,16.04831691,-0.013565053999999998,-0.707820243,-0.271381506,26.38919035,503.1020466,11.73287628,95426.26955,1.13382193,-0.768444735,0.380320194,0.011750787,-0.0059490030000000005,-0.031159675,0.252930582,0.389354598,-0.004084257,1.5706393109999999,0,0.693522615,0.13821681800000002,0.135361676,0.693972513,0.241405623,398728688.9,327411288.7,503294.2899,16.42082967,7.6553130629999995,14.53309062,-1.0295659129999999,1.085862258,39.8714138,32.7368418,163.02201540000002,368.3506045,-103.3142301,7.022096626000001,14.73350219,-0.490503281,-3.3665465589999997,1.256868921,2.592711841,1.102991176,103.4725551,-0.021150348,0.106405498,0.220057306,0.23952818,0,0,0,1,0
36268370,-0.021815123,-0.035220742,0.078340859,0.2480627,0.0,1539.0,1500.0,1248.0,1511.0,1488.0,1480.0,15.99178641,16.38621707,16.05015525,16.02794091,16.42313349,15.83481735,16.22524984,157.78601919999997,157.78601919999997,11.73388329,-0.001648658,-0.006751679,0.00161233,-0.170738003,0.080456664,-0.081559486,2.0,-0.143228646,0.856771354,15,0,0,1,0,0.0,0,0,0,0,0,0.393478722,-0.0044065120000000004,1.562080414,1.626498496,3.697599678,245.5357304,46.63328061,-0.028181202000000002,-0.044558930999999996,0.004818904000000001,0.0,-0.199937795,0.496129806,-8.313250372,645.8967461,954.2662949999999,11.73275342,-0.002041975,-0.044216153,0.255194987,-0.195625233,0.51059133,-8.078660301000001,-0.016477881,-0.030410072000000003,0.260846052,645.8967461,100.0072985,103.3427589,-0.165909786,-0.394772274,15.37012077,16.05855576,-0.013768714,-0.6588496070000001,-0.27170033600000004,26.29845256,502.9821515,11.73276826,95427.63528,1.1338381929999999,-0.061774523,0.36380782700000003,0.627677223,-0.005139668,-0.022221575,0.251629643,0.38926344399999996,-0.003753682,1.58062211,0,0.6900796029999999,0.137392818,0.136132313,0.697409652,0.241041024,398728717.6,327411359.7,503337.1876,16.4000053,7.522038407999999,14.5809862,-0.915033007,1.0944760279999999,39.8714138,32.7368418,163.3109583,368.9533683,-103.3354367,6.887535925,14.78426839,-0.38514109700000004,-3.384055088,1.299811066,2.560720537,1.11194345,103.49376170000001,-0.028584098,0.10867613699999999,0.213382205,0.238785096,0,0,0,1,0
36314825,-0.020355736,-0.030899437999999998,0.079027925,0.24765262899999999,0.0,1539.0,1500.0,1248.0,1510.0,1489.0,1482.0,15.88574863,16.27753878,16.04452815,16.02256593,16.41761971,15.82987387,16.22017821,157.67569699999999,157.67569699999999,11.73391565,-0.0016474179999999999,-0.006749366999999999,0.0016143420000000002,-0.170619297,0.080616637,-0.081444038,2.0,-0.139827966,0.8601720340000001,15,0,0,1,0,0.0,0,0,0,0,0,0.388737104,-0.0038494270000000003,1.56770969,1.627543524,3.436072629,244.88394399999999,46.64518638,-0.028166175,-0.044450904000000006,0.004762447,0.0,-0.210737973,0.490562835,-8.446887658,541.6656307999999,954.2706783,11.73267323,-0.009604076999999999,-0.03581581,0.258848711,-0.175578485,0.44796473,-8.112059682,-0.016294061000000002,-0.022600473,0.26321438,541.6656307999999,100.0073381,103.3260604,-0.165230114,-0.46418408299999997,15.37011837,16.07427166,-0.014083078,-0.611089371,-0.272043085,26.20703679,503.0226555,11.73265994,95427.1777,1.1338327559999999,-0.10881143300000001,-0.059443217,0.623820166,-0.004802799,-0.011955503000000001,0.256987943,0.37947804,-0.003385115,1.5815055759999999,0,0.690460381,0.133827592,0.132905147,0.698348559,0.24063330800000002,398728746.3,327411430.7,503380.0854,16.37918093,7.388763752999999,14.62888178,-0.8005001,1.103089798,39.8714138,32.7368418,163.6070016,369.5962044,-103.35039920000001,6.74279203,14.84015666,-0.28125064,-3.405525261,1.302020884,2.460142664,1.1217267690000001,103.5087245,-0.038427912,0.11089049,0.20565594399999998,0.23792061,0,0,0,1,0
36353280,-0.023907311,-0.028144849,0.078168244,0.24753565,0.0,1539.0,1500.0,1247.0,1509.1814359999998,1489.8185640000002,1484.0,15.88153059,16.27320554,16.03890105,16.01719095,16.41210593,15.8249304,16.21510658,157.5653747,157.5653747,11.733948,-0.0016461779999999999,-0.006747055,0.001616354,-0.170500592,0.08077661,-0.08132859,2.0,-0.136427285,0.863572715,15,0,0,1,0,0.0,0,0,0,0,0,0.383995485,-0.003292342,1.573338966,1.628588551,3.1745455810000003,244.2321576,46.65709215,-0.028147954,-0.044331675999999993,0.004703002,0.0,-0.157780439,0.503930764,-8.535154197999999,1705.762614,954.2667646,11.73262102,-0.009706648,-0.029368828,0.256732991,-0.131762997,0.39590489100000004,-8.214123856,-0.014936437,-0.011694582,0.267071016,1705.762614,100.00736459999999,103.30185959999999,-0.16412584300000002,-0.5293743639999999,15.3700645,16.09481797,-0.014495078,-0.5643966260000001,-0.27240692899999996,26.11502309,502.89986889999994,11.732605,95428.56834,1.133849255,0.081258595,0.728920428,0.13106111199999998,-0.008103266,-0.0069598690000000005,0.257199093,0.37736295,-0.002714935,1.589632057,0,0.6878014920000001,0.13232255099999998,0.132937701,0.7012432479999999,0.239669881,398728774.4,327411504.0,503410.9916,16.36301372,7.249667934,14.67561312,-0.690624125,1.111947393,39.8714138,32.7368418,163.90590759999998,370.2551965,-103.3628441,6.59394255,14.89811002,-0.17795354100000002,-3.42859266,1.287808547,2.3319125730000003,1.131845142,103.5211699,-0.035214723999999996,0.115774611,0.203156211,0.23698041,0,0,0,1,0
36395735,-0.023288323,-0.025219417999999997,0.076468174,0.24729964,0.0,1539.0,1500.0,1247.0,1511.0,1488.0,1485.20184,15.96112764,16.35465915,16.03327396,16.01181597,16.40659215,15.81998693,16.21003495,157.4550524,157.4550524,11.73398036,-0.0016449370000000002,-0.006744743,0.001618366,-0.170381886,0.080936584,-0.081213142,2.0,-0.133026605,0.866973395,15,0,0,1,0,0.0,0,0,0,0,0,0.379253867,-0.002735258,1.578968242,1.629633579,2.9130185330000002,243.58037119999997,46.66899792,-0.028134628,-0.044213849000000006,0.0046197370000000005,0.0,-0.114964101,0.513900997,-8.61918356,2754.1082,954.2636832000001,11.732574000000001,-0.008755716,-0.020492513,0.25705637600000003,-0.151742693,0.474954876,-8.341030491,-0.014275719,-0.0018620370000000002,0.269904739,2754.1082,100.00739109999999,103.2776587,-0.163021571,-0.594564644,15.37001063,16.11536427,-0.014907077,-0.51770388,-0.272770773,26.02300939,503.09328880000004,11.732574000000001,95426.38329,1.1338233340000001,-0.136327312,-0.093915735,-0.308555466,-0.010226038,-0.000416727,0.258930538,0.370042934,-0.0020297329999999997,1.592859445,0,0.687194023,0.129354854,0.130814022,0.7027926309999999,0.23869882899999997,398728801.9,327411579.2,503432.4405,16.35051943,7.105981196,14.72142629,-0.584420884,1.120997283,39.8714138,32.7368418,164.19144550000001,370.89786360000005,-103.3718718,6.44807577,14.95446569,-0.080496708,-3.455483305,1.282581832,2.222534692,1.141766028,103.5301984,-0.042244939,0.118188475,0.196378599,0.236297838,0,0,0,1,0
36434190,-0.023930359,-0.022360602,0.07556931900000001,0.246792381,0.0,1538.0,1500.0,1247.0,1511.0,1488.0,1487.0,15.90251099,16.29477661,16.02764686,16.00644099,16.40107836,15.81504346,16.20496332,157.3447302,157.3447302,11.73401272,-0.0016436970000000002,-0.006742431,0.0016203779999999998,-0.17026318,0.081096557,-0.081097695,2.0,-0.129625925,0.870374075,15,0,0,1,0,0.0,0,0,0,0,0,0.374512248,-0.002178173,1.584597518,1.630678606,2.651491485,242.9285848,46.68090369,-0.02811816,-0.044095398,0.004525932,0.0,-0.163995281,0.49309873299999996,-8.664837335,2754.1082,954.2681402999999,11.732574000000001,-0.015509503000000001,-0.021620472999999998,0.263709976,-0.188967582,0.439840565,-8.495801491,-0.019926783,-0.001750658,0.26347406,2754.1082,100.0074176,103.2534579,-0.16191729900000001,-0.659754925,15.36995675,16.13591057,-0.015319076000000001,-0.471011135,-0.27313461699999997,25.93099569,503.1126597,11.732574000000001,95426.14198,1.133820422,-0.499250911,0.423076346,-0.6117690339999999,-0.008842269,0.002510829,0.260134782,0.36290221,-0.001336451,1.5962367309999999,0,0.68650721,0.126437668,0.128757251,0.704370299,0.23779053100000003,398728829.3,327411654.4,503453.8894,16.33802514,6.962294459,14.76723945,-0.478217644,1.130047174,39.8714138,32.7368418,164.453009,371.51125299999995,-103.3747707,6.307558226,15.00795603,0.006486072,-3.4892306389999996,1.293470116,2.146966764,1.1513327359999999,103.53309899999999,-0.035997101000000004,0.122395169,0.19598010100000002,0.23575553,0,0,0,1,0
36472645,-0.023966692,-0.019691806,0.074641889,0.24632421,0.0,1537.0,1500.0,1246.0,1511.0,1488.0,1488.0,15.90247156,16.2948204,16.02201976,16.00106601,16.39556458,15.81009999,16.19989169,157.2344079,157.2344079,11.73404508,-0.001642456,-0.006740119,0.00162239,-0.170144475,0.08125653,-0.08098224700000001,2.0,-0.126225245,0.873774755,15,0,0,1,0,0.0,0,0,0,0,0,0.36977063,-0.001621088,1.590226795,1.6317236330000002,2.389964436,242.27679840000002,46.69280947,-0.028104051,-0.043977246,0.004407635,0.0,-0.213026462,0.472296469,-8.71049111,2754.1082,954.2725974,11.732574000000001,-0.012286897,-0.011964255,0.254027665,-0.149138346,0.459138447,-8.56249159,-0.025577847999999997,-0.0016392779999999999,0.257043381,2754.1082,100.00744420000001,103.2292571,-0.160813028,-0.7249452059999999,15.36990288,16.15645688,-0.015731075,-0.42431838899999996,-0.273498461,25.83898199,503.05646629999995,11.732574000000001,95426.78852999999,1.1338281190000001,0.448637261,-0.283419676,-0.223116662,-0.014172033,0.010321954,0.259583716,0.36075999299999995,-0.0006520019999999999,1.6042022480000002,0,0.683876501,0.12495140099999999,0.128735471,0.7071965159999999,0.23696017,398728856.8,327411729.6,503475.3383,16.32553085,6.818607722,14.81305261,-0.372014403,1.139097064,39.8714138,32.7368418,164.714595,372.1248293,-103.3776403,6.16699197,15.06146329,0.09345982900000001,-3.522958142,1.304342814,2.0713040940000003,1.160902739,103.5359703,-0.04796348,0.123440903,0.187201865,0.23521772,0,0,0,1,0
36523100,-0.02222431,-0.01630405,0.07287851099999999,0.24549764,0.0,1537.0,1500.0,1246.0,1511.263053,1487.736947,1490.0,15.89871733,16.29080582,16.01639267,15.99569104,16.3900508,15.80515651,16.19482006,157.1240856,157.1240856,11.73407743,-0.001641216,-0.006737806999999999,0.001624402,-0.170025769,0.081416503,-0.080866799,2.0,-0.122824565,0.877175435,15,0,0,1,0,0.0,0,0,0,0,0,0.365029011,-0.001064003,1.595856071,1.6327686609999998,2.128437388,241.625012,46.70471524,-0.028089264,-0.04384534599999999,0.004268432,0.0,-0.244376918,0.463688063,-8.817005369,2754.1082,954.273317,11.73263208,-0.016203073000000002,-0.008435629,0.26205875300000003,-0.205005173,0.42850673799999994,-8.693623599,-0.025983816,0.00383223,0.257836606,2754.1082,100.0074566,103.1991914,-0.15937439,-0.7744593740000001,15.3698705,16.18015933,-0.016205769,-0.38698862700000003,-0.273832848,25.76461199,503.0727081,11.73261892,95426.60637000001,1.133825917,-0.109412475,0.159624668,-0.163891895,-0.017520333,0.010483989,0.257701006,0.350908131,2.8100000000000002e-05,1.6050877319999999,0,0.684212672,0.12128490300000001,0.125536709,0.708083582,0.236146236,398728884.3,327411804.7,503496.7872,16.31303656,6.674920984,14.85886577,-0.265811162,1.148146955,39.8714138,32.7368418,164.98301719999998,372.79488019999997,-103.3716565,6.011700529,15.12008553,0.17770632100000003,-3.550691172,1.3105037179999999,1.967002195,1.1714688999999998,103.52998649999999,-0.04271791,0.127659305,0.18497955,0.23470816,0,0,0,1,0
36561555,-0.02737351,-0.01434992,0.07085346299999999,0.24452409,0.0,1536.0,1500.0,1245.0,1511.0,1488.0,1491.0,16.00011939,16.39489255,16.01076557,15.99031606,16.38453702,15.80021304,16.18974843,157.01376330000002,157.01376330000002,11.73410979,-0.001639976,-0.006735495,0.0016264139999999999,-0.169907064,0.081576476,-0.080751351,2.0,-0.119423885,0.880576115,15,0,0,1,0,0.0,0,0,0,0,0,0.36028739299999996,-0.000506919,1.601485347,1.633813688,1.86691034,240.9732256,46.71662101,-0.028071955,-0.043709207,0.004137489,0.0,-0.269632119,0.45928337,-8.944500681000001,2754.1082,954.2727482,11.73271019,-0.016555781999999998,0.0011844569999999999,0.261755671,-0.172286738,0.382540595,-8.775318661,-0.024581587999999998,0.01115159,0.2611202,2754.1082,100.007465,103.16746640000001,-0.15784115099999999,-0.8195383479999999,15.36984419,16.20475475,-0.016698202,-0.352307903,-0.27415890000000004,25.69523387,502.9785347,11.73267304,95427.69491,1.133838822,-0.36132032399999997,-0.080514157,0.40181180299999997,-0.019133694,0.02296502,0.257512019,0.351087679,0.000693657,1.6150317719999998,0,0.6807144829999999,0.12048359199999999,0.126428467,0.711424908,0.235591556,398728909.1,327411879.9,503502.4729,16.3052709,6.531234247,14.91413683,-0.175371074,1.15758205,39.8714138,32.7368418,165.25143930000002,373.4649311,-103.3656726,5.8564090879999995,15.17870776,0.261952814,-3.578424203,1.3166646229999999,1.8627002959999999,1.1820350609999999,103.52400259999999,-0.052621515,0.129199468,0.176361312,0.23424426,0,0,0,1,0
36608010,-0.026159161,-0.011721013,0.068862767,0.24344200000000002,0.0,1535.0,1500.0,1244.0,1513.0,1486.0,1492.0,15.9007801,16.29289608,16.00513847,15.98494108,16.37902324,15.79526957,16.184676800000002,156.90344109999998,156.90344109999998,11.73414215,-0.001638735,-0.006733183,0.001628426,-0.169788358,0.08173645,-0.080635903,2.0,-0.116023205,0.883976795,15,0,0,1,0,0.0,0,0,0,0,0,0.355545774,5.02e-05,1.6071146230000002,1.6348587159999999,1.605383292,240.3214392,46.72852678,-0.028057376000000002,-0.043575882,0.003987669,0.0,-0.252734594,0.434601685,-9.054794487,2754.1082,954.2694761,11.73279817,-0.020514862,0.0035996540000000003,0.260657467,-0.217544901,0.472405257,-8.860059055,-0.02641043,0.017087522,0.262675345,2754.1082,100.00747340000001,103.13574140000001,-0.156307912,-0.8646173220000001,15.36981789,16.22935017,-0.017190635,-0.31762718,-0.27448495300000003,25.62585574,503.01402570000005,11.73275787,95427.24164,1.133833519,-0.187707677,0.35241500200000003,0.27350226,-0.018610671999999998,0.022711591,0.254164243,0.341304593,0.0013605029999999999,1.616079256,0,0.6809635740000001,0.116850546,0.123235299,0.712352526,0.235134227,398728933.1,327411955.1,503503.0976,16.29902344,6.38754751,14.97244449,-0.089991998,1.16714082,39.8714138,32.7368418,165.5090057,374.1387227,-103.35420450000001,5.6983855189999995,15.23712285,0.34016641799999997,-3.614719177,1.317051685,1.751688945,1.192610919,103.51253179999999,-0.062487318,0.12999946699999998,0.16812107899999998,0.23380321,0,0,0,1,0
36646464,-0.026631969,-0.010303295,0.067043387,0.24275693,0.0,1534.0,1500.0,1243.0,1513.0,1486.0,1494.0,15.92282002,16.31552601,15.99951138,15.9795661,16.37350946,15.7903261,16.17960517,156.7931188,156.7931188,11.73417451,-0.001637495,-0.006730870999999999,0.001630438,-0.169669652,0.081896423,-0.080520455,2.0,-0.112622525,0.887377475,15,0,0,1,0,0.0,0,0,0,0,0,0.35080415600000003,0.000607251,1.612743899,1.635903743,1.3438562440000001,239.6696528,46.74043255,-0.028037701,-0.043437542,0.0038300540000000003,0.0,-0.169304397,0.377915369,-9.137937919,2754.1082,954.2619373,11.73290174,-0.030202971000000002,0.006569275,0.257328853,-0.210565103,0.45720834299999996,-9.018646597,-0.033339104,0.020839893,0.261502353,2754.1082,100.0074818,103.1040164,-0.154774673,-0.909696297,15.36979158,16.25394559,-0.017683068,-0.282946456,-0.274811005,25.55647761,502.8644266,11.73286588,95428.98258,1.133854162,-0.175469359,0.11458969599999999,0.070541176,-0.024921925,0.02474279,0.250863407,0.3419051,0.0020629579999999997,1.626331657,0,0.6773116109999999,0.11616908599999999,0.1242856,0.715755556,0.234682356,398728957.0,327412030.3,503503.7223,16.29277598,6.243860772000001,15.03075215,-0.004612923,1.176699591,39.8714138,32.7368418,165.76069099999998,374.81454080000003,-103.3397652,5.538881797999999,15.29542572,0.41511166,-3.6556526469999997,1.314310726,1.637042699,1.203192029,103.4980882,-0.06572806,0.13101957,0.163843501,0.23359519,0,0,0,1,0
36696919,-0.02654125,-0.006662945,0.067451512,0.241449078,0.0,1533.0,1500.0,1242.0,1513.0,1486.0,1494.0,15.9123695,16.30477446,15.99388428,15.97419112,16.36799568,15.78538263,16.17453354,156.6827965,156.6827965,11.73420687,-0.001636254,-0.006728559,0.00163245,-0.16955094699999998,0.08205639599999999,-0.080405007,2.0,-0.109221844,0.890778156,15,0,0,1,0,0.0,0,0,0,0,0,0.345072616,0.001279164,1.617073455,1.63672966,1.14200034,239.02134980000002,46.76110449,-0.028021493999999997,-0.043296792,0.003657836,0.0,-0.090744684,0.324990865,-9.219442127999999,2754.1082,954.2547074999999,11.73300656,-0.035007269,0.008007408,0.25268127,-0.18863313199999998,0.46231559,-8.98911152,-0.040062912,0.024664744,0.260133899,2754.1082,100.00749,103.0720551,-0.153228155,-0.9545359840000001,15.36976528,16.27836944,-0.018172069,-0.24848291600000003,-0.275137037,25.48746781,503.11756330000003,11.7329739,95426.08654,1.133819763,0.061091367,0.08505532699999999,-0.512761826,-0.028977307999999997,0.027905615,0.251940615,0.332101465,0.0027834440000000004,1.627208455,0,0.677601667,0.112536419,0.121069046,0.716611993,0.23427232399999998,398728981.0,327412105.4,503504.3471,16.28652852,6.100174035,15.08905981,0.080766153,1.186258361,39.8714138,32.7368418,166.0025226,375.4768541,-103.3238318,5.382632302,15.35204783,0.485876216,-3.6960781289999995,1.308868031,1.550918033,1.213569337,103.4821524,-0.06090159,0.134324209,0.162238341,0.23322147,0,0,0,1,0
36735374,-0.025446273999999998,-0.004210314000000001,0.06686505400000001,0.24110043,0.0,1533.0,1500.0,1241.0,1512.730146,1486.269854,1496.0,15.87168134,16.26325837,15.98825718,15.96881615,16.362481900000002,15.78043915,16.16946191,156.5724742,156.5724742,11.73423922,-0.001635014,-0.0067262469999999994,0.0016344620000000002,-0.169432241,0.082216369,-0.08028955900000001,2.0,-0.10582116400000001,0.8941788359999999,15,0,0,1,0,0.0,0,0,0,0,0,0.33854914,0.00204294,1.620363234,1.6373802880000001,0.987881352,238.37583360000002,46.78878937,-0.027997896,-0.043140076,0.003463484,0.0,-0.159302246,0.38569520700000004,-9.251432159,2754.1082,954.2568129000001,11.73314876,-0.02999037,0.015232052,0.250700413,-0.19666238600000002,0.429479335,-9.186628984,-0.040598581,0.030678958,0.252861348,2754.1082,100.00749,103.0317563,-0.151213195,-0.990934595,15.36973919,16.29674082,-0.01854002,-0.221680703,-0.275462315,25.43145107,503.01012869999994,11.73311191,95427.31177999999,1.133834285,-0.341755927,0.218950812,0.18888043399999999,-0.036350684,0.034621257,0.25151501600000004,0.322623623,0.00352354,1.6283964690000001,0,0.67774381,0.108988586,0.117987121,0.71753908,0.233896729,398729004.9,327412180.6,503504.9718,16.28028107,5.956487297000001,15.14736747,0.166145229,1.195817132,39.8714138,32.7368418,166.2206832,376.1067256,-103.304309,5.234200245,15.40463232,0.546597745,-3.7352833010000004,1.2969351059999998,1.5333091509999999,1.223457064,103.4626318,-0.066074859,0.135160034,0.156112334,0.23278824,0,0,0,1,0
36781829,-0.029576533999999998,-0.003154975,0.06384777700000001,0.24062884,0.0,1533.0,1500.0,1241.0,1512.0,1487.0,1497.0,15.81782672,16.20794061,15.98263009,15.96344117,16.35696811,15.77549568,16.16439028,156.462152,156.462152,11.73427158,-0.001633774,-0.006723935,0.001636474,-0.16931353600000001,0.082376343,-0.08017411099999999,2.0,-0.102420484,0.897579516,15,0,0,1,0,0.0,0,0,0,0,0,0.332025663,0.0028067170000000002,1.6236530130000002,1.638030916,0.833762364,237.7303173,46.81647425,-0.027981044,-0.043004401,0.003288223,0.0,-0.227859808,0.446399548,-9.28342219,2754.1082,954.2589184000001,11.73329096,-0.034062804,0.020330179,0.255752352,-0.18453203,0.37002173,-9.254198642999999,-0.04113425,0.036693171000000004,0.245588797,2754.1082,100.00749,102.9914575,-0.149198235,-1.027333205,15.36971309,16.3151122,-0.01890797,-0.19487849100000001,-0.275787593,25.37543434,502.8812295,11.73325335,95428.80028,1.133852034,-0.791714246,0.694525403,0.61202569,-0.03547769,0.039410584,0.250273764,0.317071977,0.004296725,1.6330774030000001,0,0.676404465,0.106554231,0.116508109,0.719404046,0.23352446699999999,398729025.9,327412255.4,503491.6777,16.281987400000002,5.800870174,15.20766353,0.239593919,1.20610465,39.8714138,32.7368418,166.4388439,376.73659710000004,-103.28478630000001,5.085768188,15.457216800000001,0.607319273,-3.774488473,1.2850021809999999,1.51570027,1.233344791,103.4431111,-0.072209518,0.136227375,0.149926163,0.23235828,0,0,0,1,0
36820284,-0.028141061000000002,-0.00173743,0.061478967999999995,0.23952818,0.0,1531.0,1500.0,1240.0,1514.0,1485.0,1498.0,15.96483697,16.35868557,15.97700299,15.95806619,16.35145433,15.77055221,16.15931865,156.35182969999997,156.35182969999997,11.73430394,-0.0016325329999999998,-0.006721623,0.001638486,-0.16919483,0.082536316,-0.080058663,2.0,-0.099019804,0.9009801959999999,15,0,0,1,0,0.0,0,0,0,0,0,0.325502187,0.0035704929999999997,1.626942792,1.638681544,0.6796433759999999,237.08480099999997,46.84415913,-0.027965708,-0.042860604000000004,0.0030809879999999998,0.0,-0.230903498,0.447175726,-9.343824589,1966.889293,954.2733212999999,11.73345986,-0.03704667,0.020333498000000002,0.254279518,-0.151351436,0.403438064,-9.279341103,-0.042204983,0.039252978,0.244675538,1966.889293,100.00749,102.95115859999999,-0.147183275,-1.063731816,15.369686999999999,16.33348359,-0.019275921,-0.168076278,-0.27611287100000004,25.3194176,502.9516232,11.73341534,95428.00377000001,1.13384257,-0.270050898,0.034601015,-0.470050143,-0.036382372999999996,0.036384651000000004,0.246311611,0.313386946,0.005071825,1.6393461230000002,0,0.6743857759999999,0.104668795,0.115771691,0.721695344,0.23316558,398729046.7,327412330.1,503477.7255,16.28406981,5.644688938,15.26805361,0.312478496,1.216426627,39.8714138,32.7368418,166.6431475,377.3710477,-103.2597949,4.935324979,15.50826521,0.662190309,-3.7958694630000003,1.2718597329999999,1.412806784,1.243131362,103.4181218,-0.065598581,0.139132647,0.14825180599999999,0.23177582,0,0,0,1,0
36858739,-0.029165277000000003,-0.000645078,0.059606852,0.23897046,0.0,1530.0,1500.0,1239.0,1513.573715,1485.426285,1499.0,15.94233044,16.33531466,15.97137589,15.95269121,16.34594055,15.76560874,16.15424702,156.2415074,156.2415074,11.7343363,-0.0016312929999999998,-0.0067193109999999995,0.0016404979999999998,-0.169076125,0.082696289,-0.079943215,2.0,-0.095619124,0.904380876,15,0,0,1,0,0.0,0,0,0,0,0,0.31897871,0.004334269,1.6302325709999999,1.6393321719999998,0.525524388,236.4392847,46.87184401,-0.027948186,-0.042711869000000006,0.0028676340000000004,0.0,-0.202582706,0.419261557,-9.417829286,802.7927639,954.2936117,11.73364154,-0.038958718999999996,0.027052376,0.250059118,-0.187987094,0.426152999,-9.34825283,-0.043531877000000004,0.040159002,0.24680676199999999,802.7927639,100.00749,102.9108598,-0.145168315,-1.100130427,15.3696609,16.35185497,-0.019643872,-0.141274066,-0.27643815,25.26340086,502.80761720000004,11.73360825,95429.62219,1.13386179,-0.018453518999999998,0.10758312,-0.26372591,-0.038018702,0.041373323,0.242604021,0.303669904,0.005933602,1.6402129159999999,0,0.674620332,0.10103083,0.11259838,0.7224965309999999,0.232615514,398729067.5,327412404.9,503463.7734,16.28615223,5.488507702000001,15.32844369,0.38536307299999994,1.2267486029999999,39.8714138,32.7368418,166.8465546,378.0057945,-103.2344497,4.78475166,15.55921424,0.716682852,-3.8160973339999997,1.258639036,1.304395889,1.252911389,103.39277879999999,-0.07412389400000001,0.139727376,0.14076175800000001,0.23116726,0,0,0,1,0
36897194,-0.033299215,0.0005921640000000001,0.05687201099999999,0.23792061,0.0,1529.0,1500.0,1238.0,1514.0,1485.0,1499.0,15.95718472,16.35059212,15.965748800000002,15.94731623,16.34042677,15.76066527,16.14917539,156.1311852,156.1311852,11.73436865,-0.001630052,-0.006716999,0.00164251,-0.168957419,0.082856262,-0.07982776700000001,2.0,-0.09221844400000001,0.907781556,15,0,0,1,0,0.0,0,0,0,0,0,0.31245523399999997,0.005098046,1.63352235,1.6399828,0.3714054,235.7937685,46.89952889,-0.027925091000000003,-0.04255413,0.002643193,0.0,-0.204259296,0.380664835,-9.493848954,384.7712957,954.3066246,11.73383138,-0.042241907,0.027507291,0.24747436399999997,-0.265146393,0.42282376899999996,-9.380315007,-0.047383932000000004,0.041034432,0.24727926600000003,384.7712957,100.00749,102.86704259999999,-0.142977446,-1.134728299,15.36963759,16.37182544,-0.020043749,-0.115616232,-0.276773328,25.21025361,502.74875049999997,11.73381296,95430.32363,1.133870087,-0.259938756,0.505421917,-0.0011082169999999999,-0.04158661,0.047609542000000005,0.241195937,0.294526174,0.00677286,1.6415683630000002,0,0.674628782,0.09756757699999999,0.10964309,0.723417835,0.23220237100000002,398729088.4,327412479.7,503449.8212,16.28823465,5.332326465,15.38883377,0.45824765,1.237070579,39.8714138,32.7368418,167.0502869,378.6743306,-103.20486190000001,4.626860265,15.61158424,0.769674766,-3.7933641639999998,1.2428603999999999,1.225920177,1.263127492,103.36318940000001,-0.081858743,0.140721739,0.13457766699999998,0.23073104,0,0,0,1,0
36939649,-0.030848626,0.0025986679999999997,0.056360337,0.23702132399999998,0.0,1528.0,1500.0,1237.0,1516.0,1483.0,1500.0,15.9472671,16.34041327,15.9601217,15.94194125,16.33491299,15.7557218,16.14410376,156.0208629,156.0208629,11.73440101,-0.001628812,-0.0067146869999999996,0.001644522,-0.168838713,0.083016236,-0.079712319,2.0,-0.08881776400000001,0.9111822359999999,15,0,0,1,0,0.0,0,0,0,0,0,0.30593175699999997,0.005861821999999999,1.636812129,1.6406334280000001,0.21728641199999998,235.1482522,46.92721377,-0.027907404,-0.042396500999999996,0.002398161,0.0,-0.269547981,0.319414818,-9.574141546,1548.867825,954.3042051000001,11.73403853,-0.043782124000000006,0.038362211,0.243277622,-0.15374079699999998,0.45284403799999995,-9.42275632,-0.056590817,0.041844987,0.24423430899999998,1548.867825,100.00749,102.8139805,-0.140324361,-1.1645945770000001,15.369621599999999,16.39599766,-0.020527516000000003,-0.092965351,-0.277134518,25.16464618,502.7507312,11.73402899,95430.25957000001,1.133869415,-0.398111667,0.689374602,-0.092123488,-0.045336203,0.048916332,0.24140946800000002,0.295443629,0.007682099,1.65143638,0,0.671054566,0.097002542,0.110761181,0.7266403440000001,0.231624153,398729108.9,327412555.1,503433.5153,16.29063516,5.174872975,15.44858772,0.528269654,1.24744807,39.8714138,32.7368418,167.2542503,379.3668813,-103.1722588,4.463767787,15.66496417,0.8216001559999999,-3.740097843,1.225263792,1.168719915,1.27365352,103.3305821,-0.083144204,0.141103789,0.131161299,0.23076996,0,0,0,1,0
36982104,-0.031140629,0.0036794690000000003,0.054606216,0.23647702,0.0,1528.0,1500.0,1236.0,1515.0,1484.0,1501.0,15.92939041,16.32199098,15.9544946,15.93656628,16.32939921,15.75077832,16.13903213,155.9105406,155.9105406,11.73443337,-0.001627572,-0.006712375,0.0016465339999999998,-0.168720008,0.083176209,-0.079596871,2.0,-0.085417083,0.914582917,15,0,0,1,0,0.0,0,0,0,0,0,0.29940828,0.006625598000000001,1.640101908,1.641284056,0.063167424,234.5027359,46.95489865,-0.027890031000000003,-0.042238131,0.002151811,0.0,-0.334836666,0.25816480199999997,-9.654434137,2712.964355,954.3017855,11.73424568,-0.048721702,0.032647847,0.24289207699999998,-0.234903993,0.396949472,-9.532589405,-0.065797702,0.042655542000000005,0.24118935100000002,2712.964355,100.00749,102.7609183,-0.137671275,-1.194460855,15.369605599999998,16.42016988,-0.021011283,-0.07031447,-0.277495708,25.11903875,502.7551206,11.73424502,95430.23247,1.133869046,-0.075862876,0.162078125,-0.23086353899999998,-0.049846864000000005,0.042090817,0.24061068600000002,0.285950139,0.00858895,1.6524072090000002,0,0.671201092,0.09343391300000001,0.107660244,0.727438905,0.231112686,398729127.6,327412634.5,503404.1532,16.294800199999997,5.0103620719999995,15.50481296,0.5824124820000001,1.2581335120000001,39.8714138,32.7368418,167.45108159999998,380.0482,-103.1392252,4.303667443999999,15.71674762,0.871290652,-3.699626631,1.199400704,1.107476184,1.283953345,103.2975462,-0.074705382,0.143448325,0.131029277,0.23097524,0,0,0,1,0
37024559,-0.02967404,0.00538004,0.053941832,0.23575553,0.0,1526.492098,1500.0,1236.0,1516.015803,1482.984197,1501.0,15.94322061,16.33623629,15.94886751,15.9311913,16.32388543,15.74583485,16.1339605,155.8002183,155.8002183,11.73446573,-0.001626331,-0.0067100630000000005,0.001648546,-0.16860130199999998,0.08333618200000001,-0.079481423,2.0,-0.082016403,0.917983597,15,0,0,1,0,0.0,0,0,0,0,0,0.292884804,0.007389375,1.6433916869999998,1.641934684,-0.090951564,233.8572196,46.98258353,-0.027865379,-0.042077236,0.0019065870000000002,0.0,-0.311855394,0.297426584,-9.687456549,2754.1082,954.3092345000001,11.73447781,-0.056586773,0.037718792,0.239322778,-0.241601487,0.438061524,-9.659375361,-0.067862294,0.040610446,0.237512972,2754.1082,100.00749,102.70785620000001,-0.13501819,-1.224327133,15.36958961,16.4443421,-0.021495051,-0.047663589000000006,-0.277856898,25.07343132,502.72336540000003,11.73448292,95430.61214,1.133873486,0.144730031,0.009807267,0.322117306,-0.055307177,0.048126554,0.23366072300000001,0.276894083,0.009468647,1.6536395369999999,0,0.671212336,0.09000861,0.104715987,0.728290447,0.230731522,398729146.3,327412713.8,503374.7912,16.29896524,4.84585117,15.56103821,0.6365553110000001,1.268818953,39.8714138,32.7368418,167.6240176,380.6918864,-103.1047493,4.153591984,15.76318225,0.9134933359999999,-3.702024274,1.145841521,1.032685175,1.2934952929999999,103.2630745,-0.081391801,0.14285530300000002,0.12316700000000001,0.23070592,0,0,0,1,0
37063013,-0.033649029,0.0060778180000000005,0.05133519,0.23521772,0.0,1526.0,1500.0,1235.0,1514.0,1485.0,1502.0,15.97961392,16.37346482,15.94324041,15.92581632,16.31837165,15.74089138,16.12888887,155.6898961,155.6898961,11.73449808,-0.0016250910000000002,-0.006707751,0.0016505579999999999,-0.16848259699999998,0.083496155,-0.079365975,2.0,-0.078615723,0.921384277,15,0,0,1,0,0.0,0,0,0,0,0,0.286361327,0.008153150999999999,1.6466814669999998,1.6425853119999998,-0.245070553,233.2117034,47.01026841,-0.027843517999999998,-0.041913861000000004,0.0016479860000000002,0.0,-0.28564,0.340371016,-9.718747028,2754.1082,954.3170449999999,11.73471085,-0.054406759000000006,0.032081604,0.235239855,-0.239816666,0.396782058,-9.665890052,-0.0696652,0.038460722,0.23381345899999997,2754.1082,100.00749,102.6547941,-0.132365104,-1.254193411,15.36957362,16.46851432,-0.021978817999999997,-0.025012707999999998,-0.27821808800000003,25.02782389,502.62559730000004,11.73472237,95431.72471000001,1.13388679,-0.155766274,-0.182636021,0.201088026,-0.061575363,0.050514203,0.23173101699999998,0.267537889,0.010187799,1.6544937069999999,0,0.671348415,0.08656192,0.10158583800000001,0.7290249440000001,0.230853523,398729165.1,327412793.1,503345.4291,16.30313028,4.6813402680000005,15.61726345,0.69069814,1.2795043940000002,39.8714138,32.7368418,167.7969536,381.3355729,-103.0702734,4.003516524,15.80961687,0.955696019,-3.704421918,1.092282337,0.957894165,1.303037242,103.22860290000001,-0.08806373099999999,0.142853547,0.116750261,0.23011166,0,0,0,1,0
37109468,-0.030381992000000003,0.007839763000000001,0.050331547000000004,0.23470816,0.0,1525.0,1500.0,1235.0,1515.45129,1483.54871,1503.0,16.04984031,16.44532448,15.93902204,15.92187699,16.31432599,15.73718451,16.12508143,155.6072977,155.6072977,11.734553199999999,-0.001623885,-0.006705435,0.00165263,-0.168363355,0.083660141,-0.079249131,2.0,-0.075215043,0.9247849570000001,15,0,0,1,0,0.0,0,0,0,0,0,0.279837851,0.008916927,1.649971246,1.64323594,-0.39918954100000004,232.56618709999998,47.03795329,-0.027820572000000002,-0.041747294,0.0013839820000000002,0.0,-0.237461212,0.36124776799999997,-9.755177854,2754.1082,954.3188594000001,11.73495991,-0.062373129000000006,0.035574657,0.236527773,-0.24286722,0.38327300200000003,-9.666553683,-0.071632519,0.039478671,0.230758419,2754.1082,100.00749,102.6026525,-0.129758018,-1.2780322179999999,15.36954329,16.48867733,-0.022382684,-0.00701917,-0.27855559,24.99380102,502.52319950000003,11.73499252,95432.89119,1.133900669,-0.1378625,0.15007382800000002,-0.48547155200000003,-0.063386973,0.053586657,0.233680058,0.2693761,0.010884023,1.6645855790000001,0,0.667615199,0.086406693,0.102926356,0.732276345,0.23103625,398729183.8,327412872.5,503316.06700000004,16.30729532,4.5168293660000005,15.673488699999998,0.744840968,1.290189835,39.8714138,32.7368418,167.9681315,382.031383,-103.0287617,3.842915655,15.85667517,0.9975727440000001,-3.7115999630000003,1.057824873,0.954492192,1.313127559,103.187088,-0.091345409,0.14331259999999998,0.112501158,0.229832788,0,0,0,1,0
37159923,-0.034148981,0.008692017,0.047663098,0.23424426,0.0,1525.0,1500.0,1234.0,1514.0,1485.0,1504.0,16.01015039,16.40468826,15.95206062,15.93552429,16.32826481,15.74862607,16.13676043,155.8643177,155.8643177,11.73488708,-0.001623101,-0.006703071,0.001655446,-0.16823754300000002,0.083873277,-0.079115184,2.0,-0.07181436299999999,0.928185637,15,0,0,1,0,0.0,0,0,0,0,0,0.27331437399999997,0.009680703,1.653261025,1.643886568,-0.5533085289999999,231.9206708,47.06563817,-0.02780088,-0.041578084,0.001116346,0.0,-0.17517281199999998,0.367947914,-9.794910912999999,2754.1082,954.3168219,11.73521927,-0.06515834200000001,0.039946151,0.23824926600000002,-0.188143975,0.365155274,-9.72764799,-0.073705459,0.042531581,0.228117397,2754.1082,100.00749,102.551348,-0.127192756,-1.296390513,15.36949994,16.50519493,-0.022713901,0.006739651,-0.27887155199999997,24.97031147,502.59712699999994,11.73526269,95432.0212,1.133890294,0.172796697,-0.263420149,0.35069025299999995,-0.07286266,0.051778437999999996,0.228139973,0.260543869,0.011796775,1.6656595769999998,0,0.667638841,0.083068944,0.10004065,0.7330405609999999,0.230610696,398729201.3,327412951.2,503284.2224,16.31292058,4.358159617,15.72533307,0.7938727720000001,1.3004165109999999,39.8714138,32.7368418,168.1390587,382.7346272,-102.9862465,3.6808135839999996,15.90382242,1.0394029790000001,-3.719459819,1.02609182,0.961272185,1.3232960870000001,103.1445685,-0.093582191,0.143276924,0.10842005099999999,0.22980335,0,0,0,1,0
37198378,-0.033545172000000005,0.008897738,0.046107645999999995,0.23406008,0.0,1523.0,1500.0,1234.0,1516.410482,1482.589518,1504.0,16.035294099999998,16.43049244,15.96509919,15.94917159,16.34220363,15.76006762,16.14843943,156.1213377,156.1213377,11.73522096,-0.0016223160000000002,-0.0067007080000000005,0.001658261,-0.16811173100000001,0.08408641300000001,-0.078981237,2.0,-0.068413683,0.931586317,15,0,0,1,0,0.0,0,0,0,0,0,0.266735195,0.010513223,1.6560155669999999,1.6444668630000001,-0.683890983,231.236754,47.09970897,-0.027771239,-0.041410188,0.0008493810000000001,0.0,-0.14762367699999998,0.375411537,-9.824119567999999,2754.1082,954.3177277000001,11.73550152,-0.073430404,0.037483723999999996,0.233543996,-0.33943919200000006,0.32413802,-9.765820482,-0.07723069099999999,0.044787750999999994,0.22581490199999998,2754.1082,100.00749,102.5000435,-0.124627494,-1.314748807,15.36945659,16.52171253,-0.023045117,0.020498473,-0.27918751399999997,24.94682192,502.56554789999996,11.73553283,95432.39719,1.133894727,-0.306091176,0.00656289,-0.10855546699999999,-0.073171859,0.054794191,0.227562137,0.251490378,0.012760625,1.6665320259999998,0,0.6677311220000001,0.079649556,0.09707757,0.7337347009999999,0.23009621800000002,398729216.5,327413028.6,503247.7802,16.32125025,4.210308005,15.76906381,0.833438679,1.309793528,39.8714138,32.7368418,168.29520459999998,383.41208450000005,-102.9433688,3.52606855,15.94780542,1.077136557,-3.706272973,0.984937987,0.932585807,1.332968991,103.101691,-0.099338066,0.142793522,0.1016312,0.22989964,0,0,0,1,0
37236833,-0.038526835,0.009343694,0.04372879599999999,0.23359519,0.0,1522.390078,1500.0,1233.390078,1517.219844,1481.780156,1504.0,15.98895826,16.38292473,15.97813776,15.962818900000002,16.35614245,15.77150918,16.16011843,156.37835769999998,156.37835769999998,11.73555484,-0.0016215320000000002,-0.006698344,0.0016610770000000002,-0.16798591899999998,0.084299549,-0.07884729,2.0,-0.065013003,0.934986997,15,0,0,1,0,0.0,0,0,0,0,0,0.260136199,0.011370199,1.658579688,1.645022136,-0.8060998629999999,230.5391755,47.13605169,-0.027744162000000003,-0.041249642999999996,0.000593672,0.0,-0.222610365,0.385128624,-9.822264569,2754.1082,954.3273211000001,11.73585129,-0.07812485,0.045397794000000005,0.22766989399999998,-0.299805349,0.35743733,-9.885761134,-0.085042485,0.044692275,0.22451159699999998,2754.1082,100.00749,102.448739,-0.122062233,-1.333107102,15.36941324,16.53823013,-0.023376333,0.034257294,-0.279503475,24.92333238,502.5605615,11.73583354,95432.45712,1.133895433,-0.273666667,-0.49803142100000003,-0.618719927,-0.07254645700000001,0.053553239,0.22269587100000002,0.243060358,0.013644486,1.6678300330000002,0,0.667621838,0.07644824900000001,0.094328342,0.7345325229999999,0.22982315399999997,398729231.7,327413106.1,503211.3379,16.32957992,4.062456393,15.81279456,0.873004586,1.3191705459999998,39.8714138,32.7368418,168.4377332,384.065785,-102.9001571,3.3781013110000004,15.988873300000002,1.111096021,-3.6736964960000003,0.9351050999999999,0.871225433,1.3421852909999998,103.0584835,-0.08912410000000001,0.144932656,0.102817201,0.22950685,0,0,0,1,0
37275288,-0.032924821,0.011038672,0.043342948,0.233256675,0.0,1521.0,1500.0,1233.0,1518.369674,1480.630326,1504.0,16.02678709,16.42172235,15.99117633,15.976466199999999,16.37008127,15.78295073,16.17179743,156.63537769999996,156.63537769999996,11.73588873,-0.001620748,-0.00669598,0.0016638920000000001,-0.16786010699999998,0.084512685,-0.078713343,2.0,-0.061612322000000004,0.938387678,15,0,0,1,0,0.0,0,0,0,0,0,0.253537203,0.012227176000000001,1.6611438090000001,1.64557741,-0.928308743,229.8415969,47.172394399999995,-0.02771792,-0.041071904,0.000311234,0.0,-0.297597052,0.394845712,-9.82040957,2754.1082,954.3369144,11.73620107,-0.075185775,0.038989915,0.224991417,-0.272366544,0.344594006,-9.782440216,-0.092854279,0.044596799000000006,0.223208293,2754.1082,100.00749,102.3974345,-0.119496971,-1.351465396,15.36936989,16.55474773,-0.023707548999999998,0.048016115,-0.279819437,24.89984283,502.48382189999995,11.73613447,95433.3705,1.1339063409999999,-0.7332875759999999,-0.669924775,0.025968446000000003,-0.079743537,0.05509942,0.22265202399999998,0.234274647,0.014455467,1.668668557,0,0.667675984,0.07317800599999999,0.09140174,0.735185663,0.22982497600000001,398729246.9,327413183.6,503174.8956,16.33790958,3.9146047810000004,15.85652531,0.9125704929999999,1.3285475629999999,39.8714138,32.7368418,168.5795885,384.7291619,-102.8557173,3.228222189,16.03019319,1.1445777959999999,-3.646111173,0.889650981,0.8053629840000001,1.3514865040000001,103.01404690000001,-0.092237656,0.14500410800000002,0.097357289,0.22927289999999997,0,0,0,1,0
37313743,-0.035149101,0.011686976000000002,0.041389617999999996,0.23288846,0.0,1521.0,1500.0,1233.0,1516.0,1483.0,1505.0,16.04404301,16.43928087,16.00421491,15.990113500000001,16.38402009,15.79439228,16.18347643,156.8923977,156.8923977,11.73622261,-0.001619964,-0.006693617,0.0016667070000000001,-0.167734295,0.08472582099999999,-0.078579396,2.0,-0.058211642,0.9417883579999999,15,0,0,1,0,0.0,0,0,0,0,0,0.24693820600000002,0.013084152,1.66370793,1.646132683,-1.050517623,229.1440184,47.20873712,-0.027696216,-0.040906363,3.72e-05,0.0,-0.32661333,0.327675021,-9.873724485,2754.1082,954.3398806,11.73650399,-0.083763187,0.051604245,0.22040210000000002,-0.272532225,0.373506054,-9.874991377,-0.092609507,0.046728233,0.222927648,2754.1082,100.00749,102.3444843,-0.116849486,-1.364427894,15.36934278,16.57423313,-0.024097801000000002,0.058927016,-0.28012976300000003,24.88852987,502.2902193,11.73643841,95435.54314,1.133932097,-0.18683306800000002,-0.073883776,-0.39707973399999996,-0.077446146,0.059526913,0.21680179600000002,0.22969635,0.01528302,1.672897809,0,0.6663166970000001,0.071150819,0.090147145,0.736766521,0.229818545,398729262.1,327413261.0,503138.4533,16.34623925,3.766753169,15.90025605,0.9521364,1.33792458,39.8714138,32.7368418,168.71805700000002,385.4412226,-102.80509909999999,3.0687239039999996,16.07278102,1.1756561970000001,-3.643637596,0.8662275429999999,0.71684947,1.361214931,102.9634262,-0.09393473699999999,0.14479597800000002,0.09385650300000001,0.229204827,0,0,0,1,0
37356198,-0.037147339,0.011982194,0.038571287,0.23235828,0.0,1520.0,1500.0,1232.0,1517.671134,1481.328866,1505.0,16.06798325,16.46371378,16.01725348,16.00376081,16.3979589,15.80583384,16.19515543,157.1494177,157.1494177,11.73655649,-0.00161918,-0.006691253,0.0016695229999999998,-0.167608483,0.084938957,-0.078445449,2.0,-0.054810962000000005,0.945189038,15,0,0,1,0,0.0,0,0,0,0,0,0.24033921,0.013941128,1.6662720519999998,1.6466879559999998,-1.172726503,228.44643990000003,47.24507983,-0.027673478999999997,-0.04073565,-0.00024493599999999996,0.0,-0.350366189,0.25170100300000003,-9.933356123,2754.1082,954.3420879,11.73680156,-0.079972641,0.048138854,0.216907921,-0.189914394,0.32576313100000004,-9.833029889,-0.09144229300000001,0.04911464,0.222764094,2754.1082,100.00749,102.2910478,-0.11417769800000001,-1.375795576,15.36932048,16.59459572,-0.024505501000000002,0.068996167,-0.280438423,24.88081591,502.3321909,11.73676246,95435.06415,1.133926467,0.457936048,0.029238523,0.20340634600000002,-0.09305314699999999,0.055777055,0.212968787,0.22855246399999998,0.016232486,1.679777743,0,0.663858528,0.070112557,0.090281165,0.7390701679999999,0.229490575,398729276.1,327413339.9,503096.5283,16.35571114,3.6166171460000003,15.94627125,0.9882756290000001,1.3475009619999998,39.8714138,32.7368418,168.8565256,386.15328339999996,-102.75448100000001,2.909225619,16.11536885,1.206734598,-3.641164018,0.842804105,0.628335956,1.370943359,102.9128054,-0.095441204,0.14453763,0.09015913099999999,0.22921923,0,0,0,1,0
37398653,-0.034358196,0.013030149,0.038067956,0.23177582,0.0,1519.0,1500.0,1232.0,1518.0,1481.0,1506.0,16.10097058,16.49757938,16.03029205,16.01740811,16.41189772,15.81727539,16.20683443,157.4064377,157.4064377,11.73689037,-0.001618395,-0.00668889,0.0016723379999999998,-0.167482671,0.08515209300000001,-0.078311502,2.0,-0.051410282,0.9485897179999999,15,0,0,1,0,0.0,0,0,0,0,0,0.23374021399999997,0.014798105,1.668836173,1.647243229,-1.294935384,227.7488613,47.28142255,-0.027648000000000002,-0.040561656,-0.00052497,0.0,-0.346759873,0.230404252,-9.981683707,2123.785395,954.3451157,11.73711337,-0.095325601,0.041482006,0.21417786800000002,-0.30765769800000003,0.38437187799999994,-9.90589622,-0.094287621,0.049602297000000004,0.220517899,2123.785395,100.00749,102.2376113,-0.111505911,-1.3871632580000002,15.36929817,16.6149583,-0.024913201,0.079065318,-0.280747082,24.87310194,502.43832910000003,11.73705615,95433.87156,1.1339123629999999,-0.135571451,0.19383518,-0.32845450600000003,-0.091296158,0.05487855,0.210785492,0.22015905100000002,0.017140278999999998,1.680604904,0,0.663875756,0.066953555,0.08750726199999999,0.739681155,0.229284215,398729289.0,327413419.8,503050.0904,16.36612322,3.464600785,15.99416683,1.021594299,1.357241444,39.8714138,32.7368418,168.9746394,386.8236083,-102.7051697,2.762925178,16.15090954,1.231830298,-3.60307315,0.821366846,0.590041322,1.379825461,102.86349440000001,-0.10002171300000001,0.144096989,0.08516317400000001,0.22937545,0,0,0,1,0
37441107,-0.035732995,0.013348728999999998,0.036175629,0.231371823,0.0,1518.0,1500.0,1231.0,1516.0,1483.0,1506.0,16.08290675,16.4791787,16.04333062,16.03105542,16.42583654,15.82871694,16.21851343,157.66345769999998,157.66345769999998,11.73722425,-0.0016176110000000001,-0.006686526,0.001675153,-0.167356859,0.085365229,-0.078177555,2.0,-0.048009602,0.951990398,15,0,0,1,0,0.0,0,0,0,0,0,0.227141217,0.015655081,1.6714002940000001,1.6477985019999999,-1.417144264,227.05128280000002,47.31776526,-0.027612821,-0.040369699,-0.000833477,0.0,-0.31998517,0.255409485,-10.02043875,959.690536,954.3488384999999,11.73743725,-0.09697719199999999,0.042794159000000005,0.21673848199999998,-0.2955487,0.293209657,-9.933022167,-0.100530864,0.04848205,0.216508075,959.690536,100.00749,102.18417480000001,-0.108834123,-1.39853094,15.36927586,16.63532089,-0.025320901,0.08913446900000001,-0.281055742,24.86538798,502.3985532,11.73741056,95434.32699999999,1.1339176990000002,0.334143207,-0.01676661,0.318267501,-0.096683014,0.05246048,0.201666347,0.21236297699999998,0.018001344,1.681752001,0,0.663738371,0.063997498,0.084945221,0.740364063,0.229201505,398729301.9,327413499.8,503003.6525,16.37653531,3.312584423,16.04206241,1.054912969,1.3669819269999999,39.8714138,32.7368418,169.08801330000003,387.4842142,-102.6561627,2.619698102,16.18480917,1.2555328140000002,-3.556688126,0.8003921079999999,0.563441096,1.38851048,102.8144883,-0.10266307599999999,0.143430076,0.08077156,0.22967121,0,0,0,1,0
37487562,-0.03578597,0.014242066999999999,0.034460055,0.23093167,0.0,1517.0,1500.0,1231.0,1518.0,1481.0,1506.0,16.19920083,16.59813141,16.0563692,16.04470272,16.43977536,15.8401585,16.23019242,157.92047769999996,157.92047769999996,11.73755814,-0.0016168270000000002,-0.006684163000000001,0.0016779689999999999,-0.167231047,0.085578365,-0.078043608,2.0,-0.044608922,0.955391078,15,0,0,1,0,0.0,0,0,0,0,0,0.220542221,0.016512057,1.673964415,1.648353775,-1.5393531440000001,226.3537043,47.35410798,-0.027584219,-0.040204628,-0.001084123,0.0,-0.303324769,0.267726332,-10.06161471,227.8797247,954.3540949999999,11.73776114,-0.09844720400000001,0.040307367000000004,0.210417049,-0.312565131,0.310777944,-9.935453979,-0.106710654,0.046837715999999995,0.21156066199999998,227.8797247,100.00749,102.1305719,-0.10615401599999999,-1.409770934,15.36925189,16.655687300000004,-0.02572871,0.099162901,-0.281364987,24.85804244,502.2972753,11.737734699999999,95435.493,1.133931599,-0.083674305,0.191238685,0.268145093,-0.10044239599999999,0.054793303,0.20359256899999997,0.20457071,0.018838126,1.6827406569999999,0,0.66364564,0.06105980900000001,0.082367507,0.740986151,0.22923944100000002,398729314.8,327413579.8,502957.2146,16.38694739,3.160568061,16.08995799,1.088231638,1.376722409,39.8714138,32.7368418,169.198751,388.171721,-102.60423109999999,2.472143285,16.21830309,1.278471217,-3.5144882760000002,0.769500903,0.536636165,1.397406784,102.7625568,-0.10083448,0.14280126099999998,0.07888482200000001,0.22987202,0,0,0,1,0
37526017,-0.039477007,0.014741337,0.032779274,0.23076996,0.0,1516.0,1500.0,1230.0,1518.247249,1480.752751,1507.0,16.0341547,16.42895619,16.06940777,16.05835002,16.45371418,15.85160005,16.24187142,158.1774977,158.1774977,11.73789202,-0.001616043,-0.006681799,0.0016807839999999998,-0.167105235,0.08579150199999999,-0.07790966099999999,2.0,-0.041208242,0.9587917579999999,15,0,0,1,0,0.0,0,0,0,0,0,0.213943225,0.017369034,1.6765285369999998,1.648909049,-1.661562024,225.65612569999996,47.39045069,-0.027553351,-0.040016572,-0.0013850879999999998,0.0,-0.331023542,0.22439461600000002,-10.11340823,1391.974583,954.3660782,11.73808502,-0.101588296,0.040934291,0.20670149100000001,-0.298214087,0.341438295,-10.09066834,-0.112612153,0.042894849000000006,0.20250118600000003,1391.974583,100.00749,102.06879980000001,-0.10306542699999999,-1.41474206,15.36914625,16.6762416,-0.02614191,0.10719220300000001,-0.281702974,24.86878509,502.20534560000004,11.73805963,95436.52505,1.133943782,0.098636739,0.442309164,-0.504194292,-0.104843165,0.053888562,0.195445538,0.196740579,0.019649186000000003,1.683656505,0,0.663567456,0.05812351599999999,0.07976116,0.741577645,0.229400622,398729327.7,327413659.7,502910.7768,16.39735947,3.0085517000000004,16.13785357,1.121550308,1.3864628909999999,39.8714138,32.7368418,169.30634919999997,388.89126469999997,-102.5488166,2.31943448,16.25131385,1.300499625,-3.4772726260000004,0.7267999959999999,0.509587446,1.40655471,102.70714129999999,-0.103231868,0.142500841,0.07400101,0.23004466,0,0,0,1,0
37568472,-0.034974199,0.015895226000000002,0.032614838,0.23097524,0.0,1516.0,1500.0,1230.0,1519.0,1480.0,1507.0,16.18419928,16.58269091,16.08244634,16.07199733,16.467653,15.86304161,16.25355042,158.4345177,158.4345177,11.7382259,-0.0016152579999999998,-0.0066794359999999995,0.0016836,-0.16697942300000002,0.08600463800000001,-0.07777571400000001,2.0,-0.037807562,0.962192438,15,0,0,1,0,0.0,0,0,0,0,0,0.20734422800000002,0.01822601,1.679092658,1.6494643219999998,-1.783770904,224.9585472,47.42679341,-0.027526956,-0.03985245,-0.001649755,0.0,-0.358722315,0.18106290100000003,-10.16520175,2556.069442,954.3780614,11.738408900000001,-0.10602243199999999,0.043641498,0.200911476,-0.340080561,0.353551526,-10.05355275,-0.118513652,0.038951981000000004,0.19344171100000002,2556.069442,100.00749,102.0070277,-0.099976837,-1.4197131859999998,15.36904061,16.6967959,-0.026555109,0.115221505,-0.28204096100000003,24.87952774,502.0971044,11.738413699999999,95437.76148,1.133958577,-0.669341471,-0.597461933,0.250269671,-0.110135631,0.058765646,0.197283934,0.1893869,0.020422135,1.684872694,0,0.663350369,0.05534903,0.077323728,0.7422422909999999,0.22966389199999998,398729338.5,327413741.9,502860.4531,16.41088018,2.8518723739999996,16.17642328,1.151760352,1.396230465,39.8714138,32.7368418,169.41170480000002,389.6055024,-102.49369509999998,2.168454035,16.28386945,1.321923293,-3.438021286,0.68710125,0.47666439899999996,1.415596731,102.6520194,-0.106554828,0.142537498,0.069411598,0.23006403,0,0,0,1,0
37610927,-0.036053566,0.015151476,0.02982513,0.23080907399999998,0.0,1516.0,1500.0,1230.0,1517.0,1482.0,1507.0,16.18523621,16.58365599,16.09548491,16.08564463,16.48159182,15.87448316,16.26522942,158.6915377,158.6915377,11.73855978,-0.0016144739999999999,-0.006677071999999999,0.001686415,-0.16685361099999999,0.086217774,-0.077641767,2.0,-0.034406881,0.9655931190000001,15,0,0,1,0,0.0,0,0,0,0,0,0.200745232,0.019082986,1.681656779,1.650019595,-1.9059797840000001,224.26096869999998,47.46313612,-0.027499947,-0.039673869,-0.0019182779999999998,0.0,-0.34960304799999997,0.197090768,-10.171057800000002,2754.1082,954.3792898,11.738743699999999,-0.11058208900000001,0.041983300999999994,0.201923137,-0.33270005199999997,0.24923724100000003,-10.02105096,-0.12062500300000001,0.037206269,0.190051236,2754.1082,100.00749,101.9452556,-0.09688824800000001,-1.424684312,15.36893497,16.7173502,-0.026968308,0.12325080699999999,-0.282378947,24.89027039,502.06795669999997,11.73876875,95438.09701,1.133962474,-0.6455455210000001,0.24665621,0.051396335,-0.112577771,0.053964306,0.19253727,0.181915131,0.021164396000000002,1.685696386,0,0.663268909,0.052563631,0.074817587,0.74277369,0.23003765,398729348.5,327413824.7,502808.8092,16.42545709,2.693608722,16.21182436,1.180914183,1.406007244,39.8714138,32.7368418,169.4972618,390.2728948,-102.44116159999999,2.032732755,16.31240658,1.338007895,-3.3807974539999996,0.6739076909999999,0.391878651,1.4237037540000002,102.59948840000001,-0.109109969,0.142287622,0.065128621,0.23019697,0,0,0,1,0
37657382,-0.037429252,0.015208713,0.028589404,0.230289673,0.0,1514.0,1500.0,1230.0,1518.0,1481.0,1507.0,16.18822452,16.58671214,16.10852349,16.09929194,16.49553064,15.88592471,16.27690842,158.94855769999998,158.94855769999998,11.73889366,-0.00161369,-0.0066747080000000006,0.00168923,-0.166727799,0.08643091,-0.07750782,2.0,-0.031006201,0.968993799,15,0,0,1,0,0.0,0,0,0,0,0,0.19414623600000003,0.019939963,1.6842209,1.650574868,-2.028188664,223.56339010000002,47.49947884,-0.027469909,-0.039497647000000004,-0.002197334,0.0,-0.332936188,0.225287182,-10.1674968,2754.1082,954.3783135,11.73908074,-0.109642807,0.04218567,0.20131496399999999,-0.370341617,0.291652576,-10.05502821,-0.121959384,0.035910969,0.187822889,2754.1082,100.00749,101.8834834,-0.09379965900000001,-1.4296554380000002,15.36882932,16.737904500000003,-0.027381507000000003,0.131280109,-0.282716934,24.90101304,501.9665557,11.739123800000002,95439.25403,1.133976154,-0.574078303,0.614395893,-0.41654634,-0.11771657699999999,0.059530056,0.19225056399999998,0.17515457199999998,0.022038038,1.6870020940000001,0,0.66298288,0.049948792,0.072628185,0.743426382,0.23003796,398729358.5,327413907.6,502757.1652,16.44003401,2.535345069,16.24722545,1.210068014,1.415784023,39.8714138,32.7368418,169.5828189,390.94028710000003,-102.388628,1.8970114759999999,16.34094371,1.354092497,-3.323573622,0.660714131,0.307092902,1.4318107780000002,102.5469574,-0.108713694,0.141528779,0.061677527,0.23041415,0,0,0,1,0
