timestamp,control[0],control[1],control[2],control[3],control[4],output[2],output[3],output[4],output[5],output[6],output[7],indicated_airspeed_m_s,true_airspeed_m_s,indicated_airspeed_m_s.1,equivalent_airspeed_m_s,true_airspeed_m_s.1,equivalent_ground_minus_wind_m_s,true_ground_minus_wind_m_s,differential_pressure_raw_pa,differential_pressure_filtered_pa,temperature,gyro_bias[0],gyro_bias[1],gyro_bias[2],accel_bias[0],accel_bias[1],accel_bias[2],instance_count,seq_reached,seq_current,seq_total,item_changed_index,item_do_jump_remaining,valid,warning,finished,failure,stay_in_failsafe,flight_termination,item_do_jump_changed,execution_mode,nav_roll,nav_pitch,nav_bearing,target_bearing,xtrack_error,wp_dist,acceptance_radius,rollspeed_integ,pitchspeed_integ,yawspeed_integ,additional_integ1,x,y,z,temperature.1,pressure,temperature.2,gyro_rad[0],gyro_rad[1],gyro_rad[2],accelerometer_m_s2[0],accelerometer_m_s2[1],accelerometer_m_s2[2],x.1,y.1,z.1,altitude_sp,altitude_filtered,height_rate_setpoint,height_rate,airspeed_sp,airspeed_filtered,airspeed_derivative_sp,airspeed_derivative,throttle_integ,pitch_integ,baro_alt_meter,baro_temp_celcius,baro_pressure_pa,rho,xyz[0],xyz[1],xyz[2],xyz[0].1,xyz[1].1,xyz[2].1,roll_body,pitch_body,yaw_body,yaw_sp_move_rate,q_d[0],q_d[1],q_d[2],q_d[3],thrust_body[0],lat,lon,alt,vel_m_s,vel_n_m_s,vel_e_m_s,vel_d_m_s,cog_rad,ref_lat,ref_lon,x.2,y.2,z.2,vx,vy,vz,ax,ay,az,yaw,dist_bottom,roll,pitch,yaw.1,thrust_body[0].1,isTakeoff,isClimbing,isDescending,isCruise,isLand,Unnamed: 127,Unnamed: 128,Unnamed: 129,Unnamed: 130,Unnamed: 131
41038586,0.029004417,-0.039484494,-0.08497107,0.26073804,0.0,1459.0,1500.0,1259.0,1485.0,1514.0,1480.9377880000002,16.46279407,16.86839345,16.5739284,16.49475229,16.90113268,16.62062523,17.03010774,168.1321347,168.1321347,11.73658932,-0.0019479389999999999,-0.00569036,0.000462829,-0.16608570000000003,0.16202776800000002,-0.065919651,3.0,-0.068413683,0.931586317,15,0,0,1,0,0.0,0,0,0,0,0,-0.33997471700000004,0.015668336,1.188963377,1.3182739490000002,7.3110682670000005,317.55438960000004,48.18080866,-0.027511094,-0.051116250999999994,-0.027707931,0.0,-0.131522015,0.340086735,-8.492651007000001,-2.46e+27,954.3073678999999,11.73525623,0.205012517,-0.00048279199999999995,-0.27305888100000003,-0.146598893,0.336180441,-8.584207907,0.201605741,0.002170432,-0.282337847,99.93234,102.4987083,-0.128318306,-0.986537615,15.36932176,16.78433809,-0.028300335,-0.243780849,-0.275797134,35.29961445,502.56048530000004,11.73535493,95432.4969,1.133895837,0.132376344,0.333371118,-0.157745202,0.21090740300000002,0.01200722,-0.275477497,-0.329500674,0.012831468,1.1850449109999999,0,0.817697672,-0.139580191,-0.086338253,0.551754882,0.256663731,398700841.8,327413006.0,502996.4435,16.9505021,1.799473895,16.8595039,-0.810017963,1.46417566,39.8714138,32.7368418,-147.51480959999998,383.3497063,-102.98475479999999,2.381203836,16.609108600000003,-0.36661698600000003,3.844671159,-0.8307015959999999,2.28609007,1.423135303,103.22227480000001,0.259466455,0.038181283999999996,-0.241748842,0.25954744,0,0,0,1,0,,,,,
41082646,0.029565833,-0.037943738,-0.08173692099999999,0.25985783,0.0,1459.0,1500.0,1259.0,1485.483097,1513.516903,1481.483097,16.47337799,16.87936127,16.56495591,16.485754699999998,16.89191476,16.61528458,17.02463684,167.956853,167.956853,11.73657936,-0.0019436929999999998,-0.005691966999999999,0.00045798199999999995,-0.166336565,0.162009034,-0.065794372,3.0,-0.065013003,0.934986997,15,0,0,1,0,0.0,0,0,0,0,0,-0.330664152,0.015045693999999998,1.186997641,1.3179403920000001,7.4009914210000005,316.85958210000007,48.15678704,-0.027468492999999997,-0.051049552000000005,-0.027419928,0.0,-0.20793679199999998,0.37947123299999996,-8.533537574,-2.46e+27,954.3159052000001,11.73516882,0.212393878,0.0013109489999999998,-0.26674766699999997,-0.222378622,0.37246229,-8.540868107,0.207418035,0.00027121700000000003,-0.274349146,99.93234,102.4604588,-0.126405828,-1.003792861,15.36929899,16.78878146,-0.028389657000000002,-0.237789608,-0.276133123,35.29140979,502.6613206999999,11.73521998,95431.30692,1.133881852,0.438192894,0.273105783,-0.209142663,0.21557328899999997,0.011794515,-0.27169937,-0.322549986,0.012460144,1.181301631,0,0.81922685,-0.136793177,-0.084316775,0.550494912,0.255533935,398700848.2,327413087.9,503033.8898,16.937983600000003,1.969823965,16.83092619,-0.6983236359999999,1.4540664890000001,39.8714138,32.7368418,-147.4108428,384.00886089999995,-102.9957715,2.5314262469999997,16.58208917,-0.278528729,3.8102741,-0.826062906,2.2070964490000002,1.413883724,103.2332915,0.260581179,0.041899261,-0.23119998100000003,0.25877044,0,0,0,1,0,,,,,
41120060,0.027285321,-0.035488722,-0.080922967,0.259541852,0.0,1461.0,1500.0,1258.0,1485.0960189999998,1513.9039810000002,1483.0,16.47482546,16.88087551,16.55598342,16.47675712,16.88269685,16.60994393,17.01916593,167.78157130000002,167.78157130000002,11.7365694,-0.001939446,-0.005693575,0.000453134,-0.166587431,0.16199029999999998,-0.065669094,3.0,-0.061612322000000004,0.938387678,15,0,0,1,0,0.0,0,0,0,0,0,-0.321353587,0.014423051999999999,1.185031905,1.317606835,7.490914575,316.1647747,48.13276543,-0.027424244,-0.050969715,-0.027090594,0.0,-0.28435156899999997,0.418855731,-8.574424141,-2.46e+27,954.3244424000001,11.7350814,0.20134430399999997,0.006471200999999999,-0.268311532,-0.14935742300000002,0.341114815,-8.670996442,0.213230329,-0.0016279979999999999,-0.266360445,99.93234,102.4222093,-0.12449335,-1.021048107,15.36927623,16.79322483,-0.02847898,-0.231798367,-0.276469111,35.28320513,502.8097927,11.73512683,95429.61192000001,1.1338616940000001,0.054738699999999994,-0.01500287,-0.36053603,0.21437159600000003,0.010799665,-0.264467892,-0.31495672,0.012119313,1.178052155,0,0.820649636,-0.133721953,-0.08214877,0.549456709,0.25456343600000003,398700856.8,327413166.8,503053.3325,16.92996599,2.128171634,16.79484697,-0.612134404,1.4444810430000001,39.8714138,32.7368418,-147.306876,384.66801560000005,-103.0067883,2.681648659,16.55506974,-0.190440473,3.77587704,-0.821424217,2.128102829,1.404632144,103.2443083,0.272074368,0.04335380900000001,-0.21568483600000002,0.2577927,0,0,0,1,0,,,,,
41160797,0.028531105,-0.03382884,-0.077541177,0.25877044,0.0,1463.0,1500.0,1257.0,1483.0,1516.0,1483.0,16.50083973,16.90760428,16.54701093,16.46775953,16.87347894,16.60460329,17.01369503,167.6062897,167.6062897,11.73655944,-0.0019352,-0.005695181999999999,0.00044828699999999996,-0.166838296,0.16197156599999998,-0.065543815,3.0,-0.058211642,0.9417883579999999,15,0,0,1,0,0.0,0,0,0,0,0,-0.31204302300000003,0.013800409,1.1830661690000002,1.317273278,7.580837729,315.4699672,48.10874382,-0.027386472000000002,-0.050890695,-0.026778525,0.0,-0.294397165,0.40050401700000005,-8.613201046,-2.46e+27,954.3218724,11.73503117,0.21519061399999997,0.000386695,-0.250513046,-0.200884769,0.393092237,-8.688241841,0.215418159,-0.002655963,-0.259651091,99.93234,102.3830248,-0.122534121,-1.037425005,15.36925275,16.79717042,-0.028558361,-0.22608670000000003,-0.276808128,35.27599829,502.53783930000003,11.73504407,95432.70755,1.133898514,-0.20866363100000002,-0.18812706399999998,0.157562689,0.22158158600000002,0.011938367,-0.260978023,-0.306314555,0.011856573,1.1758040920000001,0,0.821848308,-0.130193015,-0.079734133,0.5488666170000001,0.253594433,398700865.4,327413245.8,503072.7752,16.92194839,2.286519304,16.75876775,-0.525945173,1.434895597,39.8714138,32.7368418,-147.1886131,385.35648430000003,-103.0130495,2.8357611119999997,16.52538358,-0.10365491800000001,3.721743973,-0.817767847,2.080456452,1.3952643390000001,103.2505686,0.270565083,0.048457169,-0.20570301,0.256773576,0,0,0,1,0,,,,,
41201534,0.033342782,-0.033723131,-0.073138093,0.2577927,0.0,1465.0,1500.0,1256.0,1483.0,1516.0,1484.0,16.53225826,16.93964817,16.53803844,16.45876194,16.86426103,16.59926264,17.00822412,167.43100800000002,167.43100800000002,11.73654949,-0.001930954,-0.005696789,0.000443439,-0.16708916099999999,0.161952831,-0.065418536,3.0,-0.054810962000000005,0.945189038,15,0,0,1,0,0.0,0,0,0,0,0,-0.302732458,0.013177767,1.181100432,1.316939721,7.670760883,314.7751597,48.08472221,-0.027349276000000002,-0.050796109000000006,-0.026417652000000003,0.0,-0.259268017,0.342853664,-8.650541991,-2.46e+27,954.311742,11.73500626,0.21025037100000002,0.0017982879999999999,-0.242310815,-0.213370043,0.43095150600000004,-8.826230444,0.21513896600000001,-0.0030909040000000002,-0.253812535,99.93234,102.3363684,-0.12020131099999999,-1.046782954,15.36922354,16.79713818,-0.0285583,-0.222609136,-0.277171351,35.27676518,502.71183499999995,11.735016,95430.7645,1.133875285,-0.513509317,0.327474977,0.46690923,0.215695325,0.008906569,-0.24689420899999998,-0.290271561,0.011714496000000001,1.179808389,0,0.8217713879999999,-0.12340567599999999,-0.075635909,0.551126962,0.252575359,398700874.0,327413324.8,503092.2178,16.91393079,2.4448669730000003,16.72268854,-0.43975594100000004,1.425310151,39.8714138,32.7368418,-147.0606195,386.064906,-103.01607390000001,2.992521355,16.49388229,-0.017756057,3.654177424,-0.814780101,2.054146841,1.385817424,103.2535913,0.26640174,0.053750179,-0.19788494199999998,0.25597706,0,0,0,1,0,,,,,
41246271,0.032554387000000004,-0.031763188,-0.06988805,0.2566352,0.0,1465.0,1500.0,1255.0,1484.0,1515.0,1485.0,16.49719098,16.90380633,16.52906594,16.44976435,16.85504312,16.593922,17.00275322,167.2557263,167.2557263,11.73653953,-0.0019267070000000002,-0.005698396999999999,0.00043859199999999996,-0.167340027,0.161934097,-0.06529325799999999,3.0,-0.051410282,0.9485897179999999,15,0,0,1,0,0.0,0,0,0,0,0,-0.293421893,0.012555125,1.179134696,1.316606164,7.760684037000001,314.0803523,48.0607006,-0.02731115,-0.050703899999999996,-0.026071836,0.0,-0.23621691399999997,0.30427301,-8.686631147,-2.31e+27,954.3048043,11.73498686,0.21437435,-0.000139617,-0.235361381,-0.249577715,0.384547225,-8.829486711,0.214739116,-0.003007949,-0.24812430300000002,99.93234,102.289712,-0.1178685,-1.056140902,15.36919433,16.79710595,-0.028558238,-0.21913157100000002,-0.277534574,35.27753206,502.6351462,11.734985,95431.59135,1.133885239,-0.181083634,0.282602447,0.846502663,0.21951754899999998,0.010433956999999999,-0.243864785,-0.282316573,0.01165452,1.177106454,0,0.8230022109999999,-0.120218669,-0.073305644,0.5503086189999999,0.250849361,398700882.6,327413403.8,503111.6605,16.90591318,2.6032146430000003,16.68660932,-0.353566709,1.415724706,39.8714138,32.7368418,-146.9318805,386.7649493,-103.018008,3.146704779,16.46247287,0.065839189,3.585444908,-0.817765629,2.011240634,1.376541885,103.2555243,0.262314641,0.059767672,-0.189302423,0.25476646,0,0,0,1,0,,,,,
41283008,0.030249205,-0.029634697999999998,-0.068025152,0.25597706,0.0,1466.412482,1500.0,1254.0,1485.0,1514.0,1486.0,16.50237857,16.90917923,16.52009345,16.44076676,16.84582521,16.58858135,16.99728231,167.0804447,167.0804447,11.73652957,-0.001922461,-0.005700004,0.000433744,-0.167590892,0.161915363,-0.065167979,3.0,-0.048009602,0.951990398,15,0,0,1,0,0.0,0,0,0,0,0,-0.28411132899999997,0.011932483,1.17716896,1.316272607,7.850607191,313.38554480000005,48.03667899,-0.027266864,-0.050599139,-0.025669847000000003,0.0,-0.283298997,0.376423745,-8.715451573,-1.31e+27,954.3164052000001,11.73499952,0.20943741600000002,0.003218147,-0.233073311,-0.270883878,0.40401820299999996,-8.874959647999999,0.21363865899999998,8.23e-05,-0.243308945,99.93234,102.2430556,-0.115535689,-1.0654988509999999,15.36916512,16.79707372,-0.028558176,-0.21565400699999998,-0.277897797,35.27829894,502.74212,11.734985,95430.3708,1.133870702,0.231991205,0.308409833,0.501810024,0.21871637100000002,0.016919928,-0.235457009,-0.276369431,0.011687368,1.172840559,0,0.824527424,-0.117932626,-0.07140386900000001,0.548768715,0.247979557,398700892.0,327413482.9,503126.0,16.89894779,2.759983997,16.65263453,-0.268955791,1.406249447,39.8714138,32.7368418,-146.7988135,387.41634280000005,-103.01361109999999,3.285925471,16.43159697,0.13605812,3.509942009,-0.855435962,1.87196353,1.3682614709999998,103.251129,0.26186574100000004,0.064116075,-0.17960972,0.2536329,0,0,0,1,0,,,,,
41331745,0.028491203,-0.027168065,-0.065696762,0.25476646,0.0,1468.0,1500.0,1253.0,1484.991598,1514.008402,1486.991598,16.51816511,16.92533623,16.51112096,16.43176918,16.8366073,16.58324071,16.99181141,166.905163,166.905163,11.73651961,-0.001918214,-0.005701611,0.00042889699999999997,-0.16784175699999998,0.16189662900000001,-0.065042701,3.0,-0.044608922,0.955391078,15,0,0,1,0,0.0,0,0,0,0,0,-0.273959441,0.011823924,1.176380294,1.316108483,7.885500111,312.68942020000003,48.01949048,-0.027228004,-0.050493881,-0.025317129,0.0,-0.33038107899999997,0.44857447899999997,-8.744271999,-3.03e+26,954.3280061,11.73501219,0.218738109,0.001490431,-0.226866289,-0.27005253,0.41723159,-8.96778123,0.212538201,0.003172468,-0.23849358699999998,99.93234,102.1963992,-0.113202879,-1.0748568,15.36913592,16.79704149,-0.028558115,-0.21217644300000002,-0.27826102,35.27906583,502.67891710000004,11.73501231,95431.10429,1.133879383,-0.155890834,0.3714525,0.223474509,0.223161275,0.016724976000000003,-0.226943547,-0.25929942899999997,0.011842792,1.177835725,0,0.8241203490000001,-0.110768209,-0.066927451,0.55142483,0.244944671,398700903.4,327413562.7,503126.0,16.89493899,2.9123184639999997,16.62457291,-0.18877975600000002,1.3970838030000001,39.8714138,32.7368418,-146.6657465,388.06773639999994,-103.0092142,3.4251461639999996,16.40072106,0.20627705100000002,3.43443911,-0.893106295,1.732686426,1.3599810559999999,103.24673370000001,0.274985152,0.06489997900000001,-0.166401536,0.25254360800000003,0,0,0,1,0,,,,,
41376482,0.028873015,-0.025058554,-0.062775973,0.2536329,0.0,1470.0,1500.0,1253.0,1483.0,1516.0,1487.0,16.45125451,16.85666987,16.50214847,16.42277159,16.82738939,16.57790006,16.9863405,166.72988130000002,166.72988130000002,11.73650966,-0.0019139679999999998,-0.005703219,0.00042405,-0.168092623,0.161877895,-0.064917422,3.0,-0.041208242,0.9587917579999999,15,0,0,1,0,0.0,0,0,0,0,0,-0.263098872,0.012148398999999999,1.176583125,1.316087079,7.874038735,311.992186,48.00805779,-0.0271935,-0.050373775999999995,-0.024944699,0.0,-0.36041164200000003,0.424821357,-8.834636689,-7.02e+26,954.3273608999999,11.73505939,0.21967451,0.005898275,-0.219004124,-0.363107825,0.389981653,-8.987503716,0.215136262,0.007694846,-0.232007409,99.93234,102.1502096,-0.110893401,-1.08319492,15.36910585,16.79557574,-0.028529400000000003,-0.20859938600000003,-0.278615606,35.2808468,502.59581389999994,11.73503355,95432.07923999999,1.133890903,-0.128578506,0.12055782400000001,0.7768356409999999,0.222894604,0.011009867,-0.22287011199999998,-0.25040007,0.012066596,1.176181292,0,0.8250556,-0.107213375,-0.064294993,0.5510474639999999,0.242029579,398700914.8,327413642.5,503126.0,16.89093019,3.0646529310000004,16.5965113,-0.108603721,1.387918159,39.8714138,32.7368418,-146.5149383,388.7532448,-102.9994787,3.568611546,16.36582735,0.274783231,3.3605017139999998,-0.9198430679999999,1.653040395,1.351484294,103.2369976,0.273198324,0.069691605,-0.15699348300000002,0.250234263,0,0,0,1,0,,,,,
41414437,0.033719737,-0.024595759,-0.058692296,0.25243673,0.0,1471.0,1500.0,1251.0,1483.0,1516.0,1488.0,16.42705937,16.83193515,16.49317598,16.413774,16.81817148,16.57255941,16.980869600000002,166.5545997,166.5545997,11.7364997,-0.0019097220000000002,-0.005704826,0.000419202,-0.168343488,0.16185916,-0.064792143,3.0,-0.037807562,0.962192438,15,0,0,1,0,0.0,0,0,0,0,0,-0.252238303,0.012472873999999998,1.176785956,1.316065676,7.862577357999999,311.2949519,47.996625099999996,-0.027148269,-0.050262588,-0.024543636,0.0,-0.383093442,0.359736159,-8.95152536,-1.71e+27,954.3214379000001,11.73512148,0.220576208,0.007222465,-0.215904548,-0.41895250799999995,0.428614171,-9.084206191,0.21932828899999998,0.012834451,-0.22480115,99.93234,102.1067287,-0.10871934800000001,-1.085613895,15.369070800000001,16.78578978,-0.028334382999999998,-0.204444874,-0.278920056,35.28851362,502.7628874,11.73509464,95430.14773,1.133868044,-0.285093278,-0.18404116899999998,-0.019331812,0.224078915,0.018581977,-0.213636758,-0.244723942,0.012234936,1.171922335,0,0.8265225070000001,-0.10505093199999999,-0.062437682,0.549477248,0.23948618100000002,398700926.3,327413722.3,503126.0,16.88692138,3.216987397,16.56844969,-0.028427686,1.378752515,39.8714138,32.7368418,-146.35648419999998,389.453456,-102.9874424,3.71390628,16.32920206,0.342551259,3.287239011,-0.94186776,1.599093811,1.342894292,103.22495959999999,0.263643295,0.07566089599999999,-0.151075507,0.24830672,0,0,0,1,0,,,,,
41461956,0.032989818,-0.022547635,-0.056206043,0.24995455,0.0,1472.0,1500.0,1248.2710539999998,1484.0,1515.0,1489.0,16.43099403,16.83600707,16.48420349,16.40477641,16.80895357,16.56721877,16.97539869,166.37931799999998,166.37931799999998,11.73648974,-0.001905475,-0.005706433,0.000414355,-0.168594353,0.161840426,-0.064666865,3.0,-0.034406881,0.9655931190000001,15,0,0,1,0,0.0,0,0,0,0,0,-0.24137773399999998,0.012797349,1.176988787,1.316044273,7.8511159820000005,310.59771780000005,47.98519241,-0.027106546000000002,-0.050142432,-0.024139814,0.0,-0.404866069,0.325441274,-9.064615255,-2.46e+27,954.3186387000001,11.73519309,0.222396293,0.0052105170000000004,-0.213921427,-0.386261741,0.433153478,-9.032488042999999,0.22195309100000002,0.015170300000000001,-0.21887489100000002,99.93234,102.0632478,-0.106545294,-1.088032871,15.36903575,16.77600381,-0.028139367000000002,-0.20029036100000003,-0.279224507,35.29618044,502.6294899,11.735167800000001,95431.6962,1.133886455,-0.01003446,-0.335204132,-0.050320053,0.229933074,0.020399208999999998,-0.211830803,-0.226309646,0.01241207,1.17789398,0,0.825802963,-0.09731409099999999,-0.057593032,0.552505285,0.237058748,398700937.7,327413802.0,503126.0,16.88291258,3.3693218639999998,16.54038808,0.05174835,1.36958687,39.8714138,32.7368418,-146.1975118,390.1397369,-102.9741465,3.854724603,16.29321782,0.406933775,3.218330233,-0.963372675,1.532279956,1.334535432,103.21166290000001,0.278958918,0.076091487,-0.136932205,0.2447404,0,0,0,1,0,,,,,
41506693,0.029762461,-0.020303043,-0.05371077900000001,0.24706135399999998,0.0,1473.0,1500.0,1246.0,1485.0,1514.0,1490.0,16.43965341,16.84482511,16.475231,16.39577883,16.79973566,16.56187812,16.96992778,166.2040364,166.2040364,11.73647979,-0.001901229,-0.005708041,0.000409507,-0.168845219,0.161821692,-0.064541586,3.0,-0.031006201,0.968993799,15,0,0,1,0,0.0,0,0,0,0,0,-0.230517165,0.013121823999999999,1.177191618,1.31602287,7.839654606,309.90048360000003,47.97375972,-0.02706963,-0.050013935,-0.023731982000000002,0.0,-0.423921834,0.38315650700000004,-9.166353341,-2.46e+27,954.3251743999999,11.73529317,0.216522973,0.004644342,-0.21382645399999997,-0.37708681,0.502211183,-9.199681018,0.21989458399999998,0.009127736,-0.216773628,99.93234,102.01976690000001,-0.10437124099999999,-1.090451846,15.369000699999999,16.76621784,-0.02794435,-0.19613584899999997,-0.279528958,35.30384725,502.6386866,11.7352724,95431.56644,1.133884834,-0.11597875699999999,0.7461267770000001,-0.20769659,0.222827527,0.017057402,-0.213252031,-0.22033781300000002,0.012653602,1.174140417,0,0.827117578,-0.095018787,-0.055665379,0.5511338370000001,0.23479606100000003,398700949.9,327413882.0,503122.218,16.87890373,3.518367674,16.51013403,0.128635727,1.3605647159999998,39.8714138,32.7368418,-146.0369908,390.7843905,-102.9570867,3.9821661539999997,16.25914923,0.46119942399999997,3.162432209,-0.9833243509999999,1.427015081,1.326867291,103.1946047,0.278894847,0.07958981799999999,-0.129082509,0.24130487,0,0,0,1,0,,,,,
41547429,0.034008565,-0.019983894,-0.050134855,0.2447404,0.0,1475.0,1500.0,1243.0,1482.0,1517.0,1490.0,16.52912505,16.93649092,16.46625851,16.38678124,16.79051775,16.55653748,16.96445688,166.02875469999998,166.02875469999998,11.73646983,-0.0018969829999999999,-0.005709648,0.00040466,-0.16909608399999998,0.161802958,-0.06441630799999999,3.0,-0.027605521,0.9723944790000001,15,0,0,1,0,0.0,0,0,0,0,0,-0.219656595,0.013446298999999998,1.1773944490000001,1.316001467,7.82819323,309.2032495,47.96232702,-0.027024817000000003,-0.049891303,-0.023304932999999996,0.0,-0.442977599,0.440871739,-9.268091426,-2.46e+27,954.3317101,11.73539325,0.22785755300000002,0.008607575,-0.207393226,-0.474768935,0.45234544600000004,-9.158722059,0.21783607800000002,0.003085172,-0.214672366,99.93234,101.976286,-0.10219718800000001,-1.092870822,15.36896565,16.75643187,-0.027749332999999998,-0.191981336,-0.279833409,35.31151407,502.6063166999999,11.7353765,95431.94181,1.133889305,0.352417229,0.37850766700000005,-0.356283864,0.23476361199999998,0.017460532,-0.20874692,-0.209344864,0.012935988,1.174468679,0,0.827520921,-0.09054340699999999,-0.052527059,0.551575102,0.23260575,398700964.4,327413962.6,503108.3877,16.87489472,3.658675735,16.47405481,0.196785357,1.3519238040000001,39.8714138,32.7368418,-145.8764697,391.4290441,-102.9400269,4.109607705,16.22508063,0.515465074,3.1065341839999996,-1.003276026,1.321750206,1.31919915,103.17754649999999,0.26948651,0.084604811,-0.12601822,0.2398924,0,0,0,1,0,,,,,
41588333,0.033067797999999995,-0.018411481,-0.047880978,0.24130487,0.0,1476.0,1500.0,1239.0,1483.0,1516.0,1491.0,16.48959017,16.8958627,16.45728602,16.37778365,16.78129984,16.55119683,16.95898597,165.853473,165.853473,11.73645987,-0.0018927360000000001,-0.005711255,0.000399812,-0.169346949,0.161784224,-0.064291029,3.0,-0.024204841,0.975795159,15,0,0,1,0,0.0,0,0,0,0,0,-0.20879602600000002,0.013770774,1.17759728,1.3159800640000001,7.8167318539999995,308.5060153,47.95089433,-0.026985429,-0.049763838,-0.022866752999999997,0.0,-0.46217488100000004,0.47336768,-9.26107355,-2.46e+27,954.3337016,11.735553,0.22412946600000003,0.010488961000000002,-0.203925975,-0.469913697,0.457243753,-9.153047822000001,0.21928409699999998,0.0040328429999999995,-0.21455704399999997,99.93234,101.9329974,-0.100032753,-1.0939958859999999,15.36893656,16.74691367,-0.027559551,-0.187968849,-0.28013408,35.3200685,502.6163006,11.73551046,95431.80981,1.1338878190000001,-0.23754372899999998,-0.38126251899999997,-0.33620342799999997,0.228632051,0.022905268,-0.206603609,-0.19574467399999998,0.013238075,1.1770020959999998,0,0.827415783,-0.08493256,-0.048763457999999996,0.5529839529999999,0.23045091899999998,398700978.8,327414043.2,503094.5573,16.87088572,3.798983797,16.437975599999998,0.264934987,1.343282892,39.8714138,32.7368418,-145.6950243,392.11230710000007,-102.9175225,4.238692715,16.18635273,0.5670579960000001,2.996981877,-1.013142655,1.22631697,1.311200685,103.15504250000001,0.284742333,0.08462837599999999,-0.112501371,0.23704925,0,0,0,1,0,,,,,
41628903,0.032393648,-0.016187906999999998,-0.046529113,0.23848805,0.0,1476.0,1500.0,1238.0,1484.0,1515.0,1492.0,16.48278901,16.88898543,16.44831353,16.36878606,16.77208192,16.54585619,16.95351507,165.6781914,165.6781914,11.73644991,-0.00188849,-0.005712863,0.000394965,-0.169597815,0.161765489,-0.06416575,3.0,-0.020804161,0.9791958390000001,15,0,0,1,0,0.0,0,0,0,0,0,-0.19793545699999998,0.014095248999999999,1.177800111,1.315958661,7.805270478,307.8087812,47.93946164,-0.02694008,-0.049617942000000005,-0.022362767000000002,0.0,-0.48140695899999997,0.49966266,-9.22731458,-2.46e+27,954.3345757999999,11.73572742,0.22885539800000002,0.007219898000000001,-0.20127361600000002,-0.5297085739999999,0.458873651,-9.279414378,0.22159430600000002,0.006699285,-0.214930029,99.93234,101.8905691,-0.097911339,-1.089333511,15.36893414,16.73859318,-0.027393186,-0.184591618,-0.280417847,35.33259305,502.5565102,11.73563952,95432.50398,1.133896088,0.121336725,0.43930551100000004,-0.206775951,0.232343052,0.020251267,-0.200597406,-0.19049212,0.013723738000000001,1.173035563,0,0.828717123,-0.08298648900000001,-0.046945408,0.551485931,0.228008552,398700993.2,327414123.8,503080.7269,16.86687672,3.9392918580000003,16.40189638,0.33308461699999997,1.33464198,39.8714138,32.7368418,-145.50843390000003,392.80506339999994,-102.89367940000001,4.368181821,16.146479199999998,0.617993744,2.874236967,-1.020529557,1.133301153,1.303120998,103.1311994,0.280996714,0.087985131,-0.106841743,0.23439929,0,0,0,1,0,,,,,
41671281,0.036185195,-0.016038201000000002,-0.043072115999999994,0.23650049899999998,0.0,1478.0,1500.0,1235.0,1481.624525,1517.375475,1492.0,16.43893627,16.84403366,16.43934104,16.35978848,16.76286401,16.54051554,16.94804416,165.50290969999998,165.50290969999998,11.73643996,-0.0018842429999999999,-0.00571447,0.000390117,-0.16984868,0.161746755,-0.064040472,3.0,-0.017403481000000002,0.9825965190000001,15,0,0,1,0,0.0,0,0,0,0,0,-0.187074888,0.014419723999999998,1.178002942,1.315937257,7.793809102000001,307.11154710000005,47.92802895,-0.026902093999999998,-0.049493244000000006,-0.021913954,0.0,-0.505561559,0.5068941770000001,-9.228229837,-2.46e+27,954.3344245,11.73590184,0.23204929,0.011153389,-0.195844287,-0.549221895,0.46869399100000003,-9.354563127999999,0.22416424399999998,0.008429088000000001,-0.21114755600000001,99.93234,101.8481407,-0.095789925,-1.084671135,15.36893172,16.73027269,-0.02722682,-0.181214387,-0.280701614,35.3451176,502.55395980000003,11.735795300000001,95432.54129,1.133896436,0.258378351,-0.204468868,0.305974278,0.235626775,0.02277839,-0.198504675,-0.173006873,0.014372747,1.178756398,0,0.827811375,-0.075796886,-0.04206997,0.554267321,0.22531860199999998,398701007.7,327414204.3,503066.8966,16.86286772,4.07959992,16.36581716,0.40123424700000004,1.326001068,39.8714138,32.7368418,-145.3224794,393.47809700000005,-102.86885290000001,4.491822342,16.10727101,0.665015106,2.7927193889999997,-1.0316638790000001,1.055418197,1.295353346,103.10637290000001,0.274860874,0.09124040300000001,-0.102898876,0.23311198,0,0,0,1,0,,,,,
41710377,0.033127941,-0.014555585,-0.041469194,0.23439929,0.0,1479.0,1500.0,1233.0,1483.0,1516.0,1492.203641,16.42146062,16.82602461,16.43036855,16.35079089,16.7536461,16.53517489,16.94257326,165.327628,165.327628,11.73643,-0.0018799970000000002,-0.005716077,0.00038527,-0.170099545,0.161728021,-0.063915193,3.0,-0.014002801,0.985997199,15,0,0,1,0,0.0,0,0,0,0,0,-0.17621431899999998,0.014744199,1.178205773,1.315915854,7.782347725,306.41431289999997,47.91659626,-0.0268592,-0.049338455,-0.021363521,0.0,-0.5386773260000001,0.479421765,-9.292267512999999,-2.46e+27,954.3324066,11.73607626,0.233218299,0.006444956,-0.19625585899999998,-0.637128656,0.420440256,-9.365385296,0.22720700300000002,0.008453793000000001,-0.19980031399999998,99.93234,101.8057124,-0.093668511,-1.080008759,15.36892931,16.7219522,-0.027060453999999998,-0.17783715600000002,-0.28098538100000003,35.35764215,502.56072120000005,11.73595763,95432.46425,1.133895534,-0.193804298,-0.60069116,0.7709740270000001,0.240066282,0.019017566,-0.19172921899999998,-0.16654039699999998,0.014990203,1.176027555,0,0.828791779,-0.073345482,-0.039921705,0.553290397,0.222906291,398701022.7,327414283.8,503050.7287,16.85828871,4.2176275080000005,16.32859772,0.461972393,1.3174994690000001,39.8714138,32.7368418,-145.13768230000002,394.1152263,-102.8422363,4.604815855,16.06927404,0.704910558,2.7862537780000003,-1.049620162,1.005083734,1.288153734,103.0797563,0.289292753,0.09153856099999999,-0.090146049,0.23057896,0,0,0,1,0,,,,,
41747114,0.037356504,-0.013926228999999998,-0.03809914,0.23213078199999998,0.0,1481.0,1500.0,1231.0,1480.782757,1518.217243,1493.0,16.48132181,16.88740848,16.42139606,16.341793300000003,16.74442819,16.52983425,16.93710235,165.15234640000003,165.15234640000003,11.73642004,-0.0018757510000000002,-0.005717685,0.000380423,-0.17035041,0.16170928699999998,-0.063789914,3.0,-0.01060212,0.98939788,15,0,0,1,0,0.0,0,0,0,0,0,-0.16535375,0.015068673999999999,1.1784086040000001,1.315894451,7.7708863489999995,305.7170788,47.90516357,-0.026817464,-0.049207095,-0.020886108,0.0,-0.5717930920000001,0.45194935299999994,-9.356305188,-2.46e+27,954.3303887,11.73625069,0.236152028,0.012748001,-0.191303213,-0.571455052,0.5215140220000001,-9.378247375,0.230249763,0.008478498000000001,-0.188453073,99.93234,101.763284,-0.091547097,-1.075346383,15.36892689,16.71363171,-0.026894089,-0.174459925,-0.281269148,35.3701667,502.5096143,11.73613786,95433.01435,1.133902065,-0.274091338,-0.029433642000000003,0.028765382000000003,0.240934244,0.019851381,-0.188161496,-0.151707035,0.015366767,1.179920291,0,0.828223533,-0.067231937,-0.035790407999999996,0.555194659,0.221368686,398701039.1,327414360.3,503028.6803,16.85227571,4.349917906,16.2885097,0.504064805,1.309348352,39.8714138,32.7368418,-144.9528851,394.75235560000004,-102.8156196,4.717809367,16.03127707,0.744806009,2.7797881660000003,-1.067576446,0.954749272,1.280954121,103.0531396,0.284253851,0.09499223300000001,-0.083992179,0.22776059,0,0,0,1,0,,,,,
41787851,0.035052982999999996,-0.01274733,-0.035940621,0.23057896,0.0,1483.0,1500.0,1229.0,1482.3618720000002,1516.6381279999998,1493.0,16.47333612,16.87923235,16.41242357,16.33279571,16.73521028,16.5244936,16.93163145,164.9770647,164.9770647,11.73641009,-0.001871504,-0.005719292,0.000375575,-0.17060127600000002,0.161690552,-0.063664636,3.0,-0.00720144,0.99279856,15,0,0,1,0,0.0,0,0,0,0,0,-0.154493181,0.015393148999999998,1.178611434,1.315873048,7.759424973,305.01984460000006,47.89373088,-0.026775866000000002,-0.049061932,-0.020354892,0.0,-0.608767788,0.434553408,-9.353911625,-2.46e+27,954.3326068,11.73644769,0.240093031,0.007369985,-0.181538416,-0.699000857,0.439423115,-9.455903471000001,0.23361655,0.007551299,-0.182606548,99.93234,101.72021070000001,-0.08939343300000001,-1.069849064,15.36891598,16.7052008,-0.026725686000000002,-0.171133951,-0.28155584300000003,35.384440600000005,502.50002130000007,11.73634344,95433.13904,1.1339036409999999,0.329019856,0.17191410399999998,0.146913508,0.23942310600000002,0.024860525,-0.187054341,-0.144877179,0.015751257,1.177744291,0,0.829044146,-0.064545618,-0.033666045,0.554423387,0.219902528,398701055.5,327414436.9,503006.6319,16.84626271,4.482208303999999,16.24842168,0.5461572179999999,1.301197235,39.8714138,32.7368418,-144.74392759999998,395.43260710000004,-102.78336,4.832186112,15.99025534,0.781714045,2.6945015760000004,-1.054038144,0.876494461,1.2735001670000001,103.02087809999999,0.295422183,0.09689830699999999,-0.07142901900000001,0.224626214,0,0,0,1,0,,,,,
41829176,0.032424556,-0.011510276000000002,-0.033198639,0.22768936,0.0,1484.0,1500.0,1226.0,1480.0,1519.0,1494.0,16.43494429,16.83988434,16.40345108,16.32379813,16.72599237,16.51915296,16.92616054,164.801783,164.801783,11.73640013,-0.001867258,-0.005720899999999999,0.000370728,-0.170852141,0.161671818,-0.063539357,3.0,-0.00380076,0.99619924,15,0,0,1,0,0.0,0,0,0,0,0,-0.143997974,0.015760726,1.179164357,1.315909288,7.73131808,304.3343567,47.88131842,-0.026733691,-0.048908109000000005,-0.019808028000000002,0.0,-0.646140677,0.418197229,-9.344663191,-2.46e+27,954.3352618999999,11.73664703,0.23420502699999998,0.002598149,-0.175652239,-0.699103107,0.40248885799999995,-9.474668347,0.237016772,0.006525876,-0.177327629,99.93234,101.6748302,-0.08712439999999999,-1.061364923,15.36887468,16.69637489,-0.026549994,-0.167991337,-0.28185301100000004,35.4049724,502.4481468,11.73655134,95433.73731,1.133910695,-0.065592379,0.140663223,-0.428093945,0.238700527,0.018031824,-0.184428357,-0.13519695,0.016119696,1.177912093,0,0.829286209,-0.060634745,-0.030829061,0.554655214,0.21865185899999998,398701072.0,327414513.5,502984.5835,16.84024971,4.614498702,16.20833367,0.58824963,1.293046119,39.8714138,32.7368418,-144.5324771,396.11730819999997,-102.750518,4.94670559,15.94892148,0.818313817,2.601081648,-1.037249995,0.795358619,1.266019969,102.9880341,0.288928537,0.10044090900000001,-0.069127496,0.22310789999999997,0,0,0,1,0,,,,,
41877325,0.036739961,-0.010671643,-0.029331932999999998,0.22458258,0.0,1485.0,1500.0,1223.479896,1481.479896,1517.520104,1494.0,16.42370827,16.82823505,16.39447859,16.31480054,16.71677446,16.51381231,16.92068964,164.6265014,164.6265014,11.73639017,-0.001863012,-0.005722507,0.00036588,-0.171103006,0.161653084,-0.063414079,3.0,-0.00040008,0.99959992,15,0,0,1,0,0.0,0,0,0,0,0,-0.134278115,0.016219769,1.180460222,1.316067857,7.667887114,303.673796,47.86682678,-0.026692193,-0.048736506,-0.019201047,0.0,-0.670724949,0.411662259,-9.379675443,-2e+27,954.3360895999999,11.73685218,0.246101787,0.013341791,-0.17566849,-0.696360876,0.45298946100000004,-9.528459672,0.23835964899999998,0.005376567,-0.172740597,99.93234,101.6294498,-0.08485536800000001,-1.052880781,15.36883339,16.68754899,-0.026374302999999998,-0.164848724,-0.28215018,35.4255042,502.452038,11.73675925,95433.70457999999,1.13391028,0.035103312000000005,-0.076147294,-0.002831308,0.24167592899999998,0.015550161000000002,-0.17618241899999998,-0.123815534,0.016499685,1.179473228,0,0.829183001,-0.055995364000000006,-0.027563264,0.5554820079999999,0.217563825,398701088.4,327414590.1,502962.5351,16.83423671,4.7467891,16.16824565,0.630342043,1.284895002,39.8714138,32.7368418,-144.3230843,396.776633,-102.7174316,5.053912453,15.90948846,0.850773537,2.512819532,-1.024166995,0.72270089,1.2590294340000001,102.9549468,0.297768093,0.10161250599999999,-0.058562235,0.22130007,0,0,0,1,0,,,,,
41918062,0.035591281,-0.008822568000000001,-0.02831779,0.22218412,0.0,1485.0,1500.0,1222.0,1482.0,1517.0,1495.0,16.44169249,16.84671855,16.38996008,16.31034177,16.71218056,16.51053769,16.91730862,164.5365435,164.5365435,11.73662524,-0.001858805,-0.005724791999999999,0.000363379,-0.171444772,0.161727021,-0.063316867,3.0,0.0030006,1.0030006,15,0,0,1,0,0.0,0,0,0,0,0,-0.12455825699999999,0.016678812,1.1817560870000001,1.316226425,7.6044561470000005,303.0132352,47.85233514,-0.026656104,-0.048593925999999996,-0.018686927,0.0,-0.680197884,0.416732265,-9.46698718,-9.95e+26,954.334758,11.73706418,0.230747375,0.009645374,-0.171755077,-0.59819305,0.454889131,-9.526091447999999,0.23727152,0.004080871,-0.168971116,99.93234,101.5840693,-0.082586335,-1.04439664,15.36879209,16.67872308,-0.026198612000000003,-0.16170611,-0.28244734899999996,35.446036,502.3742131,11.73696752,95434.60832,1.133921014,-0.015484089,-0.6301661120000001,0.433375006,0.236774679,0.019044518,-0.166706406,-0.10990295300000001,0.016948508,1.183197992,0,0.8285024009999999,-0.050309275,-0.023601663,0.5572100010000001,0.21645061300000001,398701105.7,327414667.2,502936.6379,16.82822364,4.871381994,16.12638128,0.674210814,1.277136584,39.8714138,32.7368418,-144.1161229,397.40597260000004,-102.6840562,5.152478555,15.87230152,0.878341272,2.430652009,-1.015462087,0.6600611,1.2526174970000001,102.9215718,0.292765771,0.10478452099999999,-0.053596415999999994,0.21957672,0,0,0,1,0,,,,,
41954799,0.037388721,-0.00813942,-0.025749087,0.22130007,0.0,1487.0,1500.0,1220.0,1480.678336,1518.321664,1496.0,16.37990236,16.78338153,16.38603544,16.30648817,16.70820319,16.50753853,16.91420627,164.457962,164.457962,11.73689299,-0.001854604,-0.005727168,0.00036119099999999996,-0.17179865800000002,0.161813314,-0.063223397,3.0,0.00640128,1.00640128,15,0,0,1,0,0.0,0,0,0,0,0,-0.11483839900000001,0.017137856,1.183051951,1.316384993,7.541025181,302.3526744,47.8378435,-0.026615144,-0.048428505999999996,-0.018111235,0.0,-0.689946278,0.42194776100000003,-9.553862597,-1.03e+25,954.3334846000001,11.73727644,0.23911744199999999,0.013056527,-0.165614743,-0.716961851,0.417125587,-9.627363293,0.236236762,0.002835029,-0.165190963,99.93234,101.53868879999999,-0.08031730299999999,-1.0359124990000002,15.3687508,16.66989718,-0.026022921,-0.158563497,-0.282744518,35.46656779999999,502.4078054,11.73720606,95434.21658,1.133916359,-0.304154303,0.223805655,0.44782892399999996,0.241882211,0.021985445,-0.166073528,-0.101659822,0.01747161,1.182752657,0,0.828822616,-0.047041584000000004,-0.02108205,0.557131058,0.215216768,398701124.9,327414745.5,502901.5609,16.82221044,4.977615301,16.08028006,0.7223164409999999,1.270314806,39.8714138,32.7368418,-143.9088849,398.0357962,-102.65062270000001,5.251038836,15.83509566,0.905870079,2.348170746,-1.007254147,0.597586153,1.246205961,102.8881387,0.301028791,0.106001686,-0.042573774,0.21820706,0,0,0,1,0,,,,,
41999536,0.035189616,-0.006588363000000001,-0.024101904,0.21957672,0.0,1488.0,1500.0,1219.0,1482.0,1517.0,1496.0,16.47457276,16.88049057,16.38211079,16.30263458,16.70422582,16.50453938,16.91110391,164.3793806,164.3793806,11.73716073,-0.0018504029999999998,-0.005729543,0.00035900300000000005,-0.172152544,0.161899607,-0.063129928,3.0,0.00980196,1.00980196,15,0,0,1,0,0.0,0,0,0,0,0,-0.105118541,0.017596899,1.1843478159999998,1.3165435620000001,7.477594214,301.6921137,47.82335186,-0.026570346,-0.048245076,-0.017477409,0.0,-0.726204257,0.441165023,-9.598747382,-1.02e+27,954.3378227,11.73751336,0.242620002,0.006686416999999999,-0.154181261,-0.634835866,0.49036090600000004,-9.60182614,0.240338453,0.006386966,-0.16038381599999998,99.93234,101.4951309,-0.078139403,-1.027272679,15.36870633,16.66129885,-0.025851845,-0.15508439599999999,-0.283028333,35.48778587,502.21751969999997,11.73744496,95436.3717,1.133941985,0.739575962,0.15383851699999998,-0.125606636,0.247782595,0.022529964,-0.153287288,-0.095187108,0.017999293,1.181092553,0,0.82942162,-0.044522954000000003,-0.01902103,0.556515879,0.214122018,398701144.2,327414823.9,502866.4839,16.81619724,5.083848608,16.03417884,0.770422068,1.263493028,39.8714138,32.7368418,-143.6750169,398.71220510000006,-102.6115988,5.349038905,15.79607014,0.929652513,2.235495727,-1.046873563,0.550975344,1.239833116,102.84911640000001,0.290500966,0.109014868,-0.04141144,0.217561292,0,0,0,1,0,,,,,
42048273,0.039008232000000004,-0.006035916999999999,-0.020485768999999997,0.21820706,0.0,1489.0,1500.0,1218.0,1479.836567,1519.163433,1496.0,16.41510373,16.81925172,16.37818615,16.29878098,16.70024846,16.50154022,16.90800155,164.30079919999997,164.30079919999997,11.73742847,-0.001846201,-0.005731919,0.000356815,-0.17250643,0.1619859,-0.063036459,3.0,0.013202641000000001,1.013202641,15,0,0,1,0,0.0,0,0,0,0,0,-0.09539868300000001,0.018055943,1.185643681,1.31670213,7.4141632479999995,301.03155289999995,47.80886022,-0.026531048999999998,-0.048091311,-0.016950306000000002,0.0,-0.762462237,0.46038228600000003,-9.643632168,-2.02e+27,954.3421607999999,11.73775028,0.24322565,0.010821585,-0.149807778,-0.8205129040000001,0.46501181399999997,-9.636736917999999,0.244440145,0.009938903,-0.155576668,99.93234,101.4569197,-0.076228847,-1.018176159,15.36865254,16.65336815,-0.025694309,-0.150618176,-0.283272974,35.51101718,502.2213568,11.73767841,95436.32254,1.133941412,0.129439322,0.05248588,0.00011743100000000001,0.24050177600000003,0.016566113,-0.152851527,-0.08233906099999999,0.018560923,1.184497848,0,0.828735302,-0.039322776000000004,-0.015281371,0.558048129,0.213022732,398701163.4,327414902.3,502831.4069,16.81018404,5.190081915,15.98807762,0.818527695,1.25667125,39.8714138,32.7368418,-143.4411488,399.38861410000004,-102.5725749,5.447038975,15.75704461,0.9534349459999999,2.1228207080000003,-1.086492979,0.504364535,1.23346027,102.81009420000001,0.30222607100000004,0.10956700400000001,-0.030540209,0.21625361,0,0,0,1,0,,,,,
42089010,0.037190147,-0.004681827,-0.019325277,0.21700826,0.0,1490.0,1500.0,1217.0,1481.0,1518.0,1497.0,16.39373994,16.79749691,16.37426151,16.29492738,16.69627109,16.49854107,16.90489919,164.2222178,164.2222178,11.73769621,-0.001842,-0.005734295,0.000354626,-0.172860316,0.162072193,-0.062942989,3.0,0.016603321,1.0166033209999998,15,0,0,1,0,0.0,0,0,0,0,0,-0.085678825,0.018514986,1.1869395459999998,1.316860698,7.350732281,300.3709921,47.79436857,-0.02649261,-0.047919774000000005,-0.016373311,0.0,-0.798554388,0.465189365,-9.654231735,-2.46e+27,954.3530024,11.73799408,0.239280358,0.014243552,-0.136241334,-0.668187592,0.429168262,-9.680524678,0.24614444,0.010841373,-0.149439758,99.93234,101.4187085,-0.07431829200000001,-1.009079639,15.36859876,16.64543744,-0.025536772000000003,-0.146151957,-0.283517615,35.53424848,502.29792549999996,11.73793899,95435.49325,1.133931488,0.376586606,-0.037636451,0.267764351,0.247199399,0.021174499,-0.143775968,-0.071372986,0.019122467,1.186645693,0,0.82832454,-0.03492533,-0.012020711000000002,0.5590159370000001,0.21201235699999998,398701182.7,327414980.6,502796.3299,16.80417083,5.296315221,15.9419764,0.866633322,1.249849472,39.8714138,32.7368418,-143.2119748,400.0340208,-102.5339182,5.536607823,15.720663,0.974621559,2.02673182,-1.055058544,0.480185931,1.227693552,102.77143709999999,0.295792844,0.112456185,-0.026801135,0.21485022,0,0,0,1,0,,,,,
42127493,0.038011736000000004,-0.00441351,-0.015856394,0.21592818600000002,0.0,1491.0,1500.0,1216.0,1480.994799,1518.005201,1497.0,16.42408948,16.82853002,16.37033686,16.29107379,16.69229372,16.49554191,16.90179683,164.14363640000002,164.14363640000002,11.73796395,-0.001837799,-0.00573667,0.000352438,-0.17321420199999998,0.162158486,-0.06284952,3.0,0.020004001,1.020004001,15,0,0,1,0,0.0,0,0,0,0,0,-0.075958966,0.018974029,1.188235411,1.317019266,7.287301315,299.7104313,47.77987693,-0.026455197000000003,-0.047744588,-0.015807826,0.0,-0.834517403,0.458774577,-9.638131838,-2.46e+27,954.3689087000001,11.73824326,0.250892816,0.010076799,-0.141763635,-0.6715183109999999,0.35432608600000004,-9.723070942,0.245981775,0.009680582,-0.14226730199999998,99.93234,101.3804973,-0.072407737,-0.99998312,15.36854497,16.63750674,-0.025379236,-0.141685738,-0.283762256,35.55747978,502.1258294,11.73819873,95437.42679,1.133954519,-0.114585387,-0.596175314,-0.216258087,0.243972742,0.019207191999999998,-0.13730192,-0.062552243,0.019607665,1.187389856,0,0.8282623570000001,-0.031400356000000004,-0.009370951,0.559380972,0.211372155,398701202.4,327415058.3,502760.0246,16.79815763,5.398863754,15.898331599999999,0.9067553509999999,1.2432635109999999,39.8714138,32.7368418,-142.9864561,400.6552847,-102.4955475,5.619610895,15.68634033,0.993786686,1.943559309,-0.9682912309999999,0.473476309,1.2223988540000001,102.7330643,0.288841298,0.11452889699999999,-0.024535671000000002,0.214166429,0,0,0,1,0,,,,,
42170484,0.037135708999999996,-0.003126861,-0.014802733,0.21485022,0.0,1492.0,1500.0,1214.0,1481.0,1518.0,1498.0,16.47570079,16.88139145,16.36641222,16.28722019,16.68831635,16.49254276,16.89869447,164.0650549,164.0650549,11.7382317,-0.0018335979999999999,-0.005739045999999999,0.00035025,-0.173568088,0.162244778,-0.06275605,3.0,0.023404681,1.023404681,15,0,0,1,0,0.0,0,0,0,0,0,-0.066239108,0.019433073000000002,1.1895312759999999,1.317177835,7.223870347999999,299.0498706,47.76538529,-0.026411757,-0.047550712,-0.015190661000000001,0.0,-0.859591109,0.45006536399999997,-9.631750217,-2.46e+27,954.3831771,11.73850101,0.238389877,0.00405151,-0.126779529,-0.8098351490000001,0.415886407,-9.762870807999999,0.24556771300000002,0.008469125,-0.134788151,99.93234,101.3422861,-0.07049718099999999,-0.9908866,15.36849119,16.62957604,-0.0252217,-0.137219519,-0.284006897,35.58071108,502.05815939999997,11.7384585,95438.22614,1.13396402,-0.42361850799999995,-0.426706536,-0.19480934100000002,0.24632262600000002,0.019624162,-0.130096136,-0.048896187,0.020066623999999998,1.191936036,0,0.8271780240000001,-0.025860841000000002,-0.005419183,0.5613165379999999,0.21091447600000002,398701223.2,327415134.2,502720.9388,16.79214443,5.493070536,15.86024779,0.928803761,1.2372114029999999,39.8714138,32.7368418,-142.75787659999997,401.2819278,-102.45659040000001,5.702352909,15.65192863,1.012400456,1.860377901,-0.888726657,0.459596764,1.217130568,102.6941056,0.292556352,0.11596172699999999,-0.016423126,0.21287213600000002,0,0,0,1,0,,,,,
42207221,0.039453355,-0.00285511,-0.011960661000000001,0.21355855,0.0,1494.0,1500.0,1213.0,1480.0,1519.0,1498.0,16.43246874,16.83696341,16.36248758,16.28336659,16.68433899,16.489543599999998,16.89559211,163.98647350000002,163.98647350000002,11.73849944,-0.0018293970000000002,-0.005741421,0.00034806199999999995,-0.17392197399999998,0.162331071,-0.062662581,3.0,0.026805361,1.0268053609999999,15,0,0,1,0,0.0,0,0,0,0,0,-0.05651925,0.019892116,1.19082714,1.3173364029999999,7.160439382000001,298.38930980000004,47.75089365,-0.026377025,-0.047380415,-0.014664348999999998,0.0,-0.80012079,0.42354235700000004,-9.700820795,-2.46e+27,954.3847293,11.73882534,0.247562616,0.002417751,-0.119306828,-0.741298322,0.44048424399999997,-9.734694268,0.243201828,0.006864306,-0.12492784400000001,99.93234,101.3045197,-0.06860886299999999,-0.9819384520000001,15.36844453,16.62471668,-0.025125446,-0.13252365900000002,-0.28424757100000003,35.60582388,502.06893039999994,11.73871919,95438.0937,1.133962497,-0.02461523,-0.042853793,0.5740264860000001,0.25166305699999997,0.015268022,-0.119563436,-0.04471293,0.02053669,1.18954726,0,0.827895959,-0.024266692000000003,-0.0040225,0.560341711,0.2105719,398701244.1,327415210.2,502681.85299999994,16.78613123,5.587277317000001,15.82216397,0.95085217,1.231159295,39.8714138,32.7368418,-142.505533,401.9503345,-102.413081,5.783068075,15.61682575,1.026733507,1.7771274119999998,-0.865083777,0.390050313,1.212067356,102.6505983,0.301170386,0.116808748,-0.007069471999999999,0.21176639,0,0,0,1,0,,,,,
42251958,0.035698539,-0.001373571,-0.011049146000000001,0.212326221,0.0,1494.0,1500.0,1212.0,1482.0,1517.0,1499.0,16.30483161,16.70621081,16.35856293,16.279513,16.68036162,16.48654445,16.89248975,163.9078921,163.9078921,11.73876718,-0.001825195,-0.005743796999999999,0.000345873,-0.17427586,0.162417364,-0.062569111,3.0,0.030206041,1.030206041,15,0,0,1,0,0.0,0,0,0,0,0,-0.046799392,0.020351159,1.192123005,1.317494971,7.097008415,297.72874900000005,47.73640201,-0.026338455,-0.047198665,-0.014104453000000001,0.0,-0.7406504709999999,0.397019351,-9.769891374,-2.46e+27,954.3862816,11.73914968,0.241355906,0.009234226,-0.114312593,-0.724877798,0.36923591299999997,-9.783873684,0.240835943,0.005259486999999999,-0.115067537,99.93234,101.2678425,-0.066774995,-0.973353611,15.36841532,16.627377900000003,-0.025179252000000003,-0.127265493,-0.28447853100000003,35.63554378,502.05519749999996,11.73897893,95438.25395,1.133964365,-0.247751754,-0.185871415,-0.483899684,0.245182702,0.016766788,-0.115646505,-0.029554532,0.021037947,1.19559312,0,0.826354212,-0.018132868,0.00037728699999999997,0.562858259,0.210216173,398701264.9,327415286.2,502642.7672,16.78011802,5.681484097999999,15.78408015,0.97290058,1.225107187,39.8714138,32.7368418,-142.2531893,402.6187413,-102.36957159999999,5.863783241,15.58172288,1.041066558,1.6938769219999998,-0.841440898,0.320503861,1.207004143,102.60709090000002,0.290722755,0.11931008900000001,-0.005979902,0.21115527,0,0,0,1,0,,,,,
42296695,0.039123169,-0.000613029,-0.008406375,0.211711145,0.0,1495.0,1500.0,1211.0,1479.311262,1519.688738,1499.0,16.36345547,16.76627116,16.35463829,16.275659400000002,16.67638425,16.48354529,16.88938739,163.82931069999998,163.82931069999998,11.73903492,-0.001820994,-0.005746173,0.000343685,-0.174629746,0.162503657,-0.062475642000000005,3.0,0.033606721,1.033606721,15,0,0,1,0,0.0,0,0,0,0,0,-0.037079534,0.020810203,1.19341887,1.31765354,7.033577449,297.0681883,47.72191037,-0.026302252999999998,-0.047011835,-0.013548461999999999,0.0,-0.740688208,0.414041046,-9.792274831,-2.46e+27,954.3944828,11.73943239,0.243831763,0.010671318999999999,-0.11272269,-0.7919146159999999,0.39173243,-9.780157271,0.239410779,0.004543287,-0.11176671099999999,99.93234,101.2311652,-0.064941127,-0.9647687690000001,15.36838611,16.63003913,-0.025233058,-0.122007327,-0.28470949,35.66526368,502.0199046,11.73926958,95438.66552000001,1.133969232,-0.35579865,0.874875222,0.160830725,0.24900067399999998,0.017485364,-0.11282502300000001,-0.027630516,0.021544762000000002,1.1919720409999999,0,0.827383257,-0.017479482,0.001161369,0.561360917,0.20991984600000002,398701285.8,327415362.1,502603.6813,16.77410482,5.775690879,15.74599634,0.99494899,1.219055079,39.8714138,32.7368418,-142.008115,403.25148989999997,-102.3271327,5.935739344,15.55006476,1.0524489609999998,1.6308394769999999,-0.797652226,0.263384458,1.2025049540000001,102.5646513,0.298845975,0.119536154,0.002826484,0.21069661,0,0,0,1,0,,,,,
42342863,0.035995794,0.000211793,-0.007353141,0.211065859,0.0,1495.1096220000002,1500.0,1211.0,1482.0,1517.0,1500.0,16.40029606,16.80399588,16.35071365,16.271805800000003,16.67240688,16.48054614,16.88628504,163.7507292,163.7507292,11.73930267,-0.001816793,-0.005748548000000001,0.00034149699999999996,-0.174983632,0.16258995,-0.062382172,3.0,0.037007401,1.0370074009999999,15,0,0,1,0,0.0,0,0,0,0,0,-0.027571221,0.021264192999999997,1.194773737,1.3178221159999999,6.9674338670000004,296.4051315,47.70773413,-0.026263578,-0.046820072000000004,-0.012996100000000002,0.0,-0.7705674840000001,0.45289913,-9.79124607,-2.46e+27,954.4060183,11.73969422,0.23753362,0.009904234,-0.10460604,-0.711897375,0.46660565,-9.737703586,0.238457358,0.004272704,-0.11175527199999999,99.93234,101.194488,-0.063107259,-0.956183928,15.368356900000002,16.63270036,-0.025286864,-0.11674916199999999,-0.284940449,35.69498357,501.78011019999997,11.73952939,95441.37732,1.13400138,0.18640538399999998,-0.367546141,0.547950607,0.245628693,0.020771956,-0.10504410199999999,-0.01394176,0.02202668,1.1973388740000002,0,0.825972596,-0.011964296000000001,0.005169353,0.56355929,0.209804292,398701306.9,327415437.3,502563.8958,16.76809162,5.8635364260000005,15.70791265,1.015725145,1.213369342,39.8714138,32.7368418,-141.76668590000003,403.866357,-102.28523059999999,6.003303033,15.52013408,1.0623517009999999,1.5779382780000002,-0.7437610309999999,0.21249685399999999,1.198288606,102.52274720000001,0.290728191,0.121022017,0.004627761,0.210476472,0,0,0,1,0,,,,,
42382168,0.036800108,0.000639813,-0.00513242,0.21069661,0.0,1497.0,1500.0,1210.0,1480.0,1519.0,1500.0,16.35831429,16.76070133,16.346789,16.26795221,16.66842952,16.47754698,16.88318268,163.6721478,163.6721478,11.73957041,-0.001812592,-0.005750924,0.00033930900000000004,-0.175337518,0.162676243,-0.062288703,3.0,0.040408082000000005,1.0404080820000001,15,0,0,1,0,0.0,0,0,0,0,0,-0.020014416,0.021671565,1.196672899,1.318083012,6.876266408999999,295.7190498,47.69646753,-0.026228104,-0.046612625,-0.012434757,0.0,-0.790609771,0.483201382,-9.793894812000001,-2.46e+27,954.4149385,11.73995873,0.24532364399999998,0.007847594,-0.097458592,-0.7597641159999999,0.476090914,-9.842026873,0.23704971800000002,0.003754892,-0.109806965,99.93234,101.15781070000001,-0.061273390999999996,-0.9475990870000001,15.36832769,16.63536159,-0.02534067,-0.111490996,-0.285171409,35.72470347,501.801456,11.73982013,95441.14946,1.133998724,0.064364901,-0.22182141600000002,0.0903197,0.244529985,0.017311853000000002,-0.101611437,-0.00568618,0.022484484,1.198868575,0,0.825575753,-0.008693062,0.007682820999999999,0.56415985,0.20987354100000002,398701328.5,327415510.9,502522.6051,16.76207842,5.937699319,15.66982923,1.033764753,1.208471649,39.8714138,32.7368418,-141.51951530000002,404.4915252,-102.24234940000001,6.0697716260000005,15.49013712,1.07140044,1.511821061,-0.697278614,0.162551707,1.1941293720000001,102.47986440000001,0.297767642,0.12152415300000001,0.012034177,0.21010157,0,0,0,1,0,,,,,
42422905,0.040554748,0.001045273,-0.0025800420000000003,0.21028408,0.0,1497.0,1500.0,1210.0,1482.0,1517.0,1500.0,16.40567594,16.80927178,16.34286436,16.26409861,16.66445215,16.47454783,16.88008032,163.59356640000001,163.59356640000001,11.73983815,-0.0018083910000000001,-0.005753299,0.00033712099999999996,-0.175691403,0.16276253599999999,-0.062195232999999996,3.0,0.043808762,1.043808762,15,0,0,1,0,0.0,0,0,0,0,0,-0.012457611,0.022078938,1.198572062,1.318343908,6.785098951,295.03296800000004,47.68520092,-0.026195297000000003,-0.046426893,-0.011918986999999999,0.0,-0.775349425,0.482798775,-9.809741247,-2.46e+27,954.4144729000001,11.74023282,0.232001662,0.003152365,-0.089703108,-0.78900824,0.511657349,-9.857007427000001,0.23401199,0.002349832,-0.100907692,99.93234,101.12007109999999,-0.05938641099999999,-0.9388053009999999,15.36829901,16.63676521,-0.025369316,-0.105622294,-0.28540698,35.7583011,501.88773939999993,11.74011067,95440.15546000001,1.133986961,-0.35080939899999997,-0.057116589,-0.675786579,0.24419748600000002,0.018540195,-0.097435631,0.0027396609999999996,0.022944852999999998,1.200677896,0,0.825097979,-0.005350591,0.010239933,0.5648714779999999,0.21004504100000002,398701350.2,327415584.5,502481.3145,16.75606521,6.0118622120000005,15.63174581,1.0518043609999999,1.203573955,39.8714138,32.7368418,-141.2517392,405.1536618,-102.195954,6.132310173,15.45990233,1.07738437,1.398274669,-0.677384551,0.115988817,1.1901751059999999,102.4334695,0.30112707899999996,0.12253052800000001,0.018885388,0.20980320000000002,0,0,0,1,0,,,,,
42459642,0.035851827,0.002091315,-0.0023405360000000003,0.21010157,0.0,1498.0,1500.0,1210.0,1480.627726,1518.372274,1500.0,16.36320327,16.76589958,16.33893972,16.26024502,16.66047478,16.47154867,16.87697796,163.514985,163.514985,11.74010589,-0.0018041889999999999,-0.005755675,0.00033493199999999997,-0.176045289,0.162848829,-0.062101764000000004,3.0,0.047209442000000004,1.047209442,15,0,0,1,0,0.0,0,0,0,0,0,-0.004900806,0.02248631,1.2004712240000002,1.318604804,6.693931492999999,294.3468863,47.67393432,-0.026158877999999997,-0.046224787,-0.011361737,0.0,-0.76008908,0.48239616700000004,-9.825587682,-2.46e+27,954.4140072,11.74050691,0.235529933,0.008576194,-0.092484754,-0.7102501929999999,0.490051164,-9.892139609,0.230974263,0.0009447710000000001,-0.09200842,99.93234,101.0801324,-0.057389483,-0.9295789729999999,15.36827141,16.63556543,-0.025345878999999998,-0.098489706,-0.285652099,35.79992612,501.73261160000004,11.74039782,95441.9298,1.134008073,-0.180672267,0.10030807800000001,0.160373132,0.245002528,0.01669655,-0.088334815,0.013288603999999999,0.023389244,1.204382836,0,0.824064307,-0.001149824,0.013401578999999999,0.566333495,0.210331102,398701371.8,327415658.0,502440.0238,16.75005201,6.086025105,15.593662400000001,1.0698439690000001,1.198676262,39.8714138,32.7368418,-140.9839631,405.8157983,-102.1495587,6.1948487210000005,15.42966754,1.0833683,1.2847282759999998,-0.657490487,0.069425928,1.18622084,102.38707459999999,0.289728204,0.12403844,0.019140509,0.209811015,0,0,0,1,0,,,,,
42504379,0.038046867000000005,0.002716873,-0.00010533,0.20980320000000002,0.0,1498.206841,1500.0,1209.0,1482.379476,1516.620524,1501.0,16.35415482,16.75646052,16.33501507,16.25639142,16.65649741,16.46854952,16.8738756,163.43640359999998,163.43640359999998,11.74037364,-0.001799988,-0.005758051,0.000332744,-0.176399175,0.162935122,-0.062008294000000005,3.0,0.050610122,1.050610122,15,0,0,1,0,0.0,0,0,0,0,0,0.002655999,0.022893682999999998,1.202370386,1.3188657,6.602764035,293.6608045,47.66266772,-0.026126744,-0.046034365,-0.010874641,0.0,-0.7503176659999999,0.478753912,-9.882658157,-1.69e+27,954.4168685000001,11.74079075,0.240530225,0.006384644,-0.08540146900000001,-0.776593285,0.412826969,-9.890077037000001,0.228577213,0.005394006999999999,-0.089299886,99.93234,101.0401936,-0.055392555,-0.920352645,15.36824382,16.63436565,-0.025322441,-0.091357119,-0.285897217,35.84155113,501.89150149999995,11.74067924,95440.10662,1.133986379,-0.159248026,0.029164778,0.07967162400000001,0.24104722899999997,0.013649351,-0.09291325,0.01599872,0.023832533,1.202438865,0,0.8246153270000001,-0.000143865,0.014350551999999999,0.565511537,0.21070845800000002,398701393.5,327415731.6,502398.7331,16.74403881,6.160187997,15.55557898,1.087883577,1.193778569,39.8714138,32.7368418,-140.7112059,406.47513310000005,-102.10204379999999,6.250430721,15.40285284,1.087629571,1.1895131840000002,-0.641362016,0.024196165,1.1825594640000001,102.3395611,0.296554787,0.124276372,0.025364157000000002,0.20991075,0,0,0,1,0,,,,,
42541116,0.034929781,0.003444913,0.000817372,0.20983857,0.0,1500.0,1500.0,1209.0,1482.0,1517.0,1501.0,16.33232691,16.73432208,16.33109043,16.25253782,16.65252005,16.46555036,16.87077324,163.3578221,163.3578221,11.74064138,-0.001795787,-0.005760426,0.00033055599999999997,-0.17675306100000002,0.163021415,-0.061914825,3.0,0.054010802000000004,1.054010802,15,0,0,1,0,0.0,0,0,0,0,0,0.010212804,0.023301055,1.2042695490000002,1.319126596,6.5115965760000005,292.9747228,47.65140111,-0.026093703,-0.045831431,-0.010411639,0.0,-0.7421873440000001,0.47414306100000003,-9.952053887,-6.82e+26,954.4207246,11.74107751,0.230636222,0.010701926,-0.08490090199999999,-0.815246377,0.42784000299999997,-9.899224593,0.22637171399999997,0.011593573000000001,-0.08844227199999999,99.93234,101.00025490000002,-0.053395627,-0.911126318,15.36821622,16.63316587,-0.025299004,-0.08422453099999999,-0.286142336,35.88317615,501.7507967,11.74096109,95441.71227,1.1340054309999998,-0.372164636,0.180941128,0.530303072,0.23421525699999998,0.020408581000000002,-0.08506431199999999,0.028958477000000003,0.024246817,1.2084787890000002,0,0.822887417,0.00502736,0.018200736999999998,0.567890531,0.211265812,398701415.9,327415805.9,502356.19200000004,16.73802561,6.2290858170000005,15.52210242,1.096709342,1.189236964,39.8714138,32.7368418,-140.4369595,407.13363010000006,-102.05419429999999,6.303932836,15.37706069,1.091375797,1.099778823,-0.62635939,-0.020635015,1.178985658,102.2917132,0.285956035,0.126497315,0.022906738,0.21017167,0,0,0,1,0,,,,,
42581853,0.037327313,0.003550549,0.002239466,0.20991075,0.0,1501.0,1500.0,1209.0,1480.0,1519.0,1501.0,16.36837518,16.77109359,16.32716579,16.24868423,16.64854268,16.46255121,16.86767088,163.2792407,163.2792407,11.74090912,-0.001791586,-0.005762801999999999,0.00032836800000000005,-0.177106947,0.16310770800000002,-0.061821355999999994,3.0,0.057411482,1.057411482,15,0,0,1,0,0.0,0,0,0,0,0,0.017769609,0.023708427999999997,1.206168711,1.319387492,6.4204291179999995,292.28864100000004,47.64013451,-0.026061207000000003,-0.045600235,-0.009945086,0.0,-0.733192648,0.46781011200000006,-9.996433544,-3.23e+26,954.4235319000001,11.74136019,0.230454364,0.010089479,-0.076118796,-0.7510550640000001,0.47752707,-9.973910102,0.224678483,0.015245733999999999,-0.08438636,99.93234,100.9603161,-0.051398699000000006,-0.90189999,15.36818862,16.63196609,-0.025275566,-0.077091943,-0.286387454,35.92480117,501.6952174,11.7412728,95442.33237999999,1.134012757,-0.654954571,0.013351182,-0.34031678299999996,0.23562312600000002,0.023203517000000003,-0.076703311,0.030022572,0.024662398999999998,1.205823252,0,0.82363757,0.005371789,0.01866683,0.56678366,0.211911002,398701440.0,327415881.6,502311.093,16.732012400000002,6.287213443,15.49804961,1.086687337,1.185423772,39.8714138,32.7368418,-140.1682237,407.774813,-102.0075801,6.35361159,15.35305732,1.093933759,1.016672192,-0.593231886,-0.04789723,1.175668488,102.24510009999999,0.287690646,0.12894328800000002,0.015486775,0.21039912100000002,0,0,0,1,0,,,,,
42621180,0.033175982,0.004749972,0.001679396,0.21017167,0.0,1500.0,1500.0,1210.0,1482.0,1517.0,1502.0,16.30467624,16.70578062,16.32324114,16.24483063,16.64456531,16.45955205,16.86456852,163.2006593,163.2006593,11.74117686,-0.001787385,-0.005765177,0.00032618,-0.177460833,0.163194001,-0.061727885999999996,3.0,0.060812162,1.060812162,15,0,0,1,0,0.0,0,0,0,0,0,0.025326414,0.0241158,1.208067873,1.319648388,6.32926166,291.60255930000005,47.6288679,-0.026032813999999998,-0.04540501,-0.009594823,0.0,-0.7223757909999999,0.45784686799999996,-9.988077642,-1.33e+27,954.4241283,11.74163428,0.23114732300000002,0.013532271,-0.064444053,-0.741454249,0.46780661,-9.946143146,0.22406514800000002,0.013527793,-0.07358822,99.93234,100.92259179999999,-0.049512488,-0.892896661,15.36816292,16.62889171,-0.025214595,-0.070975599,-0.28661763100000004,35.96694528,501.6759772,11.74155481,95442.56569,1.134015595,0.128216193,0.31773458600000004,0.636745351,0.23550608399999998,0.024221107999999998,-0.066447527,0.041005732999999996,0.025022182,1.210713406,0,0.822207682,0.009739036,0.02195119,0.56868021,0.21281379,398701464.0,327415957.4,502265.994,16.7259992,6.345341068,15.4739968,1.076665333,1.181610579,39.8714138,32.7368418,-139.9111049,408.3794966,-101.9635703,6.395230442999999,15.33282482,1.09398678,0.947537257,-0.521895925,-0.038122889,1.172892323,102.20109029999999,0.276208551,0.13052382099999998,0.013425942,0.21080664,0,0,0,1,0,,,,,
