timestamp,control[0],control[1],control[2],control[3],control[4],output[2],output[3],output[4],output[5],output[6],output[7],indicated_airspeed_m_s,equivalent_airspeed_m_s,true_airspeed_m_s,equivalent_ground_minus_wind_m_s,true_ground_minus_wind_m_s,indicated_airspeed_m_s.1,true_airspeed_m_s.1,differential_pressure_raw_pa,differential_pressure_filtered_pa,temperature,gyro_bias[0],gyro_bias[1],gyro_bias[2],accel_bias[0],accel_bias[1],accel_bias[2],nav_roll,nav_pitch,nav_bearing,target_bearing,xtrack_error,wp_dist,acceptance_radius,rollspeed_integ,pitchspeed_integ,yawspeed_integ,additional_integ1,x,y,z,temperature.1,pressure,temperature.2,gyro_rad[0],gyro_rad[1],gyro_rad[2],accelerometer_m_s2[0],accelerometer_m_s2[1],accelerometer_m_s2[2],timestamp_sample,x.1,y.1,z.1,temperature.3,altitude_sp,altitude_filtered,height_rate_setpoint,height_rate,airspeed_sp,airspeed_filtered,airspeed_derivative_sp,airspeed_derivative,throttle_integ,pitch_integ,timestamp_sample.1,baro_alt_meter,baro_temp_celcius,baro_pressure_pa,rho,roll_body,pitch_body,yaw_body,q_d[0],q_d[1],q_d[2],q_d[3],thrust_body[0],xyz[0],xyz[1],xyz[2],xyz[0].1,xyz[1].1,xyz[2].1,lat,lon,alt,vel_m_s,vel_n_m_s,vel_e_m_s,vel_d_m_s,cog_rad,ref_lat,ref_lon,x.2,y.2,z.2,vx,vy,vz,ax,ay,az,dist_bottom,roll,pitch,yaw,thrust_body[0].1,isTakeoff,isClimbing,isDescending,isCruise,isLand
57025705,-0.00454717,-0.068376924,-0.017663569,0.14859423,0.0,1491.0,1500.0,1146.0,1501.567113,1497.432887,1468.0,16.06499445,16.10689629,16.50453725,16.0247517,16.42036656,16.81451218,17.22878915,174.2829163,174.2829163,11.7361557,-0.00128327,-0.0058304609999999995,0.001060863,-0.159799404,-0.00484278,-0.003613424,0.011286236000000002,0.011737703,1.55353388,1.5596319630000002,0.73995724,76.01148522,46.72574584,-0.024456156,-0.006825115,-0.015669597,0.0,-0.606239665,0.157329574,-6.967638796,6.87e+18,954.3024191,11.73444853,-0.010881227,-0.140839977,-0.022722595,-0.585918099,0.16775659699999998,-6.985628067,57211239.85,-0.007030315,-0.14370029,-0.02438334,6.87e+18,100.04579,103.57485150000001,-0.176452949,-0.6870511509999999,15.37015307,16.09829432,-0.014562826000000001,-0.264652292,-0.315182996,49.61738666,30234302.86,399.579007,12.404602,96616.72752,1.147966605,0.013423311,0.010796406000000001,1.5534093409999998,0.71322613,0.001003155,0.008554355999999999,0.70088109,0.14266230300000002,-0.565863864,0.421012129,0.162176142,0.000670699,0.0018764720000000001,-0.0045929759999999995,398714138.0,327364372.0,400125.0436,0.0,0.006521304,-0.013042608999999998,0.0,5.328516212,39.871413700000005,32.7364371,0.029218305,-0.01759365,0.011176466999999999,0.035226036,-0.022618851000000002,0.048890969000000006,-0.0033831670000000003,-0.079677777,0.031181576000000003,0.1,0.080759868,-0.020136213,-0.004491055,0.143333909,0,0,0,1,0
57057772,-0.004693238,-0.066853655,-0.017490305,0.147494281,0.0,1491.0,1500.0,1144.14883,1501.14883,1497.85117,1469.0,16.04734951,16.08932734,16.48652899,16.01256069,16.40786896,16.74545288,17.15821741,173.423338,173.423338,11.73584598,-0.0012822089999999999,-0.0058298230000000005,0.001058774,-0.15977292099999998,-0.004838387,-0.0035199859999999997,0.011759364,0.011615983,1.553502111,1.559537947,0.7407765190000001,75.43218504,46.68489345,-0.024415762,-0.006743944,-0.015637622,0.0,-0.61717804,0.188766152,-7.044557382000001,6.87e+18,954.297019,11.734042800000001,-0.010277574,-0.14850945599999998,-0.022473017999999997,-0.522227597,0.140914191,-7.1154627260000005,57246826.97,-0.010617543,-0.142725006,-0.023028547000000003,6.87e+18,100.04579,103.5518747,-0.175304088,-0.6965021220000001,15.37013741,16.09719964,-0.014541242,-0.252307808,-0.315461161,49.54069178,30276176.84,399.4867119,12.404602,96617.8116,1.147979433,0.013910597,0.01048307,1.5533690530000002,0.713239782,0.001286915,0.008613363,0.700865926,0.142972456,0.15619473,0.178605882,-0.544478614,-0.00340994,0.002807102,0.000990199,398714138.0,327364372.0,400124.4231,0.0,0.008589718,-0.017179436,0.0,5.311585005,39.871413700000005,32.7364371,0.029824352999999998,-0.016872388000000002,0.011215842,0.035401137,-0.021947561,0.048972465,-0.018988433,-0.068383659,0.056475837,0.1,0.091462117,-0.016373877,-0.006878367,0.14301527,0,0,0,1,0
57097840,-0.00426335,-0.064530513,-0.017733608,0.14662674,0.0,1491.0,1500.0,1144.0,1501.730546,1497.269454,1470.0,16.02970456,16.07175838,16.46852074,16.00036968,16.39537135,16.68800473,17.09935952,172.5637596,172.5637596,11.73553627,-0.001281148,-0.005829185,0.001056684,-0.15974643800000002,-0.004833994,-0.0034265479999999997,0.012232492,0.011494263000000001,1.5534703419999998,1.559443931,0.741595798,74.85288485,46.64404106,-0.024377871000000002,-0.006658941999999999,-0.015604203999999998,0.0,-0.628076473,0.220941151,-7.1222015679999995,6.87e+18,954.2916738,11.73364103,-0.010924337,-0.13789084199999999,-0.029574885,-0.601244466,0.198205715,-7.186255981,57282414.08,-0.014282273,-0.141692702,-0.021559562,6.87e+18,100.04579,103.5288979,-0.174155227,-0.705953092,15.37012174,16.09610497,-0.014519658999999999,-0.23996332399999998,-0.31573932600000004,49.4639969,30318050.81,399.5729066,12.404602,96616.81027999999,1.147967557,0.014420366,0.010167483,1.553339026,0.713249729,0.001579439,0.008679441999999999,0.700854477,0.143377472,-0.975501403,-0.306654101,0.468912535,0.000721559,0.006053696999999999,-0.003501099,398714138.0,327364372.0,400124.3949,0.0,0.01,-0.019341868,0.0013162629999999998,5.300672767,39.871413700000005,32.7364371,0.030430401,-0.016151127,0.011255217,0.035576237000000004,-0.021276271,0.04905396,-0.034593699,-0.05708954,0.081770099,0.1,0.09078458,-0.012128785,-0.006967491,0.14268166,0,0,0,1,0
57133907,-0.0034274590000000003,-0.062980825,-0.017323781,0.14543244,0.0,1491.0,1500.0,1144.0,1501.0,1498.0,1471.0,16.01205962,16.05418942,16.45051248,15.98817867,16.38287375,16.63421607,17.04433397,171.70418130000002,171.70418130000002,11.73522656,-0.001280087,-0.005828547,0.0010545939999999998,-0.159719954,-0.004829600999999999,-0.0033331090000000003,0.012705621,0.011372543,1.553438572,1.559349916,0.742415077,74.27358466,46.60318867,-0.024340425,-0.006575281,-0.015575344,0.0,-0.637489171,0.23904551699999999,-7.192884668,6.87e+18,954.2859379,11.73325023,-0.002282809,-0.13905410699999998,-0.022154907999999997,-0.546867938,0.234832873,-7.150241632,57318001.2,-0.016230396,-0.140027985,-0.020057748,6.87e+18,100.04579,103.5059212,-0.17300636600000002,-0.7154040629999999,15.37010608,16.09501029,-0.014498076,-0.22761884,-0.31601749100000004,49.38730203,30361270.65,399.640754,12.404602,96616.01835,1.147958161,0.014887309,0.009904319,1.553310336,0.713259222,0.001838315,0.008749202,0.700843332,0.14371853699999998,0.259825523,-0.235846702,0.155813628,-0.001356164,0.008557614,-0.000946868,398714138.0,327364372.0,400125.6359,0.0,0.01,-0.017273455,0.005453091,5.30265832,39.871413700000005,32.7364371,0.031198782999999997,-0.015900955,0.011316202,0.035986116,-0.021387199,0.048659165,-0.014253153999999999,-0.041330052,0.050671098,0.1,0.090710266,-0.008777114,-0.007344887,0.14307308,0,0,0,1,0
57165974,-0.0041118840000000005,-0.060567420999999996,-0.017097887,0.14487603,0.0,1491.0,1500.0,1144.0,1501.0,1498.0,1472.106021,15.99441468,16.03662046,16.43250423,15.97598765,16.37037615,16.56143578,16.96981811,170.8446029,170.8446029,11.73491685,-0.0012790260000000002,-0.005827909,0.001052504,-0.159693471,-0.004825208,-0.003239671,0.013178748999999998,0.011250823,1.5534068030000001,1.5592559,0.743234356,73.69428448,46.56233628,-0.024305646,-0.006490868,-0.01554937,0.0,-0.639577188,0.187781659,-7.2292496139999995,6.87e+18,954.278276,11.73291357,-0.003561842,-0.136047789,-0.019584863,-0.630974639,0.22768487,-7.212620782,57353588.32,-0.009715652,-0.135245472,-0.018394092,6.87e+18,100.04579,103.48251690000001,-0.171836138,-0.724115018,15.37009396,16.09410517,-0.014480214,-0.2158196,-0.316293817,49.31167189,30401798.76,399.5678017,12.404602,96616.85142,1.14796808,0.015349298999999999,0.00974577,1.5532776959999999,0.713270105,0.0020587820000000003,0.00885452,0.700830312,0.143772722,-0.374759776,0.46404859299999995,-0.167482425,-0.0012040269999999999,0.010874608000000001,-0.0077878109999999995,398714138.0,327364372.0,400126.87700000004,0.0,0.01,-0.015205041,0.009589918000000001,5.304643873,39.871413700000005,32.7364371,0.031968497,-0.015654649,0.011377365,0.036397922,-0.021504545,0.048260462999999997,0.006382314,-0.025533927999999997,0.019109412,0.1,0.08975857,-0.004768787,-0.007409434,0.1432052,0,0,0,1,0
57206041,-0.0034994320000000002,-0.05896803,-0.01750581,0.14427719,0.0,1491.0,1500.0,1144.0,1500.5243050000001,1498.4756949999999,1473.0,15.97676974,16.0190515,16.41449598,15.96379664,16.35787855,16.57388735,16.98260708,169.9850246,169.9850246,11.73460714,-0.001277965,-0.005827271,0.001050414,-0.15966698699999998,-0.0048208140000000005,-0.003146233,0.013651877,0.011129103000000001,1.553375034,1.559161884,0.744053635,73.11498429,46.52148389,-0.024271555,-0.00640249,-0.015530931000000001,0.0,-0.641665205,0.136517801,-7.265614558999999,6.87e+18,954.2706141000001,11.73257692,-0.009861461,-0.132174853,-0.021213847999999997,-0.515327271,0.164978202,-7.279155179,57389175.44,-0.0032009070000000002,-0.13046295800000002,-0.016730436,6.87e+18,100.04579,103.45767099999999,-0.17059386699999998,-0.730330742,15.37009379,16.09383925,-0.014474899999999999,-0.205858843,-0.316563942,49.23963192,30443672.73,399.6744231,12.404602,96615.60587,1.14795327,0.015829858999999998,0.009723823000000001,1.55324656,0.713280438,0.0022379970000000003,0.009015054,0.7008171590000001,0.143516576,0.260642141,-0.138119152,0.144598764,-0.002551703,0.004785106,-0.001981704,398714138.0,327364372.0,400128.11799999996,0.0,0.01,-0.013136627,0.013726745,5.306629426000001,39.871413700000005,32.7364371,0.032505875,-0.015242628000000001,0.011195253,0.036950485,-0.021267433,0.047947322,0.027046949,-0.0034547690000000003,0.013434089,0.1,0.089073007,-0.0016236129999999999,-0.007521959,0.14318759,0,0,0,1,0
57242108,-0.002289023,-0.056364322,-0.017180024,0.1443015,0.0,1491.0,1500.0,1144.0,1500.0,1499.0,1474.0,15.959124800000001,16.00148254,16.39648772,15.95160563,16.34538095,16.51204617,16.91934191,169.12544619999997,169.12544619999997,11.73429743,-0.001276904,-0.005826633,0.001048324,-0.15964050400000002,-0.0048164209999999995,-0.003052795,0.014125005,0.011007383,1.553343264,1.5590678690000002,0.744872915,72.53568409999998,46.4806315,-0.024237525,-0.00631391,-0.015513882,0.0,-0.62774197,0.103410349,-7.330602067,5.99e+18,954.2642489,11.73225584,-0.0017410589999999999,-0.1258716,-0.027975296,-0.569216545,0.193384372,-7.334240596,57424762.55,0.003616046,-0.125685658,-0.015164823000000001,5.99e+18,100.04579,103.432825,-0.169351597,-0.736546467,15.37009361,16.09357332,-0.014469585,-0.19589808600000003,-0.316834066,49.16759196,30485546.71,399.65682999999996,12.404602,96615.8232,1.14795586,0.016336126,0.009748264,1.5532185809999999,0.7132897029999999,0.002410116,0.009201136,0.70080477,0.14326665800000002,-0.12348495300000001,0.39827950700000003,-0.0035482870000000002,0.0016489760000000001,-0.0009069960000000001,-0.002341498,398714138.0,327364372.0,400129.3591,0.0,0.01,-0.011068214,0.017863573,5.308614979,39.871413700000005,32.7364371,0.03288762,-0.014719602,0.01085018,0.037597336,-0.020792883,0.047691497,0.04773112,0.022833167999999997,0.025099112000000003,0.1,0.088521765,0.001417272,-0.007794326,0.14295006,0,0,0,1,0
57282176,-0.002618216,-0.054137634000000004,-0.017264717,0.14414582,0.0,1491.0,1500.0,1144.0,1500.0,1499.0,1475.0,15.94147985,15.98391358,16.37847947,15.93941462,16.33288334,16.46412077,16.87026597,168.2658679,168.2658679,11.73398772,-0.001275843,-0.005825995,0.0010462339999999998,-0.15961402,-0.004812028,-0.002959357,0.014598133999999999,0.010885663,1.553311495,1.5589738530000001,0.7456921940000001,71.95638392,46.43977912,-0.024205612999999997,-0.00621985,-0.015504681000000001,0.0,-0.58518419,0.102773838,-7.446778205,3.55e+18,954.2602026000001,11.7319626,-0.002632877,-0.128335849,-0.020656924,-0.549731351,0.119320638,-7.334106831000001,57460349.67,0.010973472,-0.120917682,-0.01377455,3.55e+18,100.04579,103.40797909999999,-0.168109326,-0.742762191,15.37009344,16.0933074,-0.014464271,-0.18593732899999998,-0.31710419100000004,49.09555199,30527420.68,399.5498597,12.404602,96617.0872,1.147970843,0.016765211999999998,0.00982372,1.5531913919999998,0.7132987690000001,0.002536833,0.009378365,0.700792725,0.14293551699999998,-0.300159993,0.39285074799999997,-0.36259952700000003,0.003313703,0.01049294,-0.0024558139999999997,398714137.9,327364372.0,400128.8998,0.0,0.0079996,-0.008999799999999999,0.023000599999999996,5.141514115,39.871413700000005,32.7364371,0.033334996,-0.01428799,0.010509707,0.038247018,-0.020503406999999998,0.047182225999999994,0.062092558,0.029017513999999998,0.030866615,0.1,0.087575203,0.00467614,-0.007895183,0.14278772,0,0,0,1,0
57314243,-0.002500251,-0.051746605999999994,-0.01718966,0.1443204,0.0,1491.0,1500.0,1144.0,1500.0,1499.0,1476.779156,15.92383491,15.96634463,16.36047121,15.9272236,16.32038574,16.42699672,16.83221634,167.4062896,167.4062896,11.73367801,-0.001274782,-0.005825357,0.001044145,-0.159587537,-0.004807635,-0.002865919,0.015071262,0.010763943,1.553279726,1.5588798380000002,0.746511473,71.37708373,46.39892673,-0.0241717,-0.006127852,-0.015491392,0.0,-0.54262641,0.10213732699999999,-7.5629543429999995,1.1e+18,954.2561563999999,11.73166936,0.005258945,-0.124058407,-0.018449369,-0.5155777739999999,0.23337016600000002,-7.46877023,57495936.79,0.018330898,-0.11614970599999999,-0.012384276000000001,1.1e+18,100.04579,103.3831332,-0.166867055,-0.748977916,15.37009326,16.09304147,-0.014458956,-0.175976572,-0.317374316,49.02351202,30569294.66,399.57740950000004,12.404602,96616.75756,1.147966935,0.017119551,0.00994271,1.553154755,0.713311305,0.002621686,0.009544909,0.700777434,0.14254128800000002,0.175815912,-0.452996214,0.34676313,-0.001088507,0.005284894,0.000400132,398714137.7,327364372.0,400126.6245,0.0,0.003862773,-0.0069313859999999995,0.02920584,4.793828957,39.871413700000005,32.7364371,0.034035586,-0.014209066999999999,0.010186987,0.038907616,-0.020927975,0.04569513,0.05206000400000001,-0.0423606,0.013880663,0.1,0.086567801,0.007953484,-0.008143743,0.142765372,0,0,0,1,0
57346310,-0.001046173,-0.050072825999999994,-0.016925521000000002,0.144339038,0.0,1491.0,1500.0,1144.0,1500.0,1499.0,1477.0,15.90618997,15.94877567,16.34246296,15.91503259,16.30788814,16.4184347,16.82349814,166.5467112,166.5467112,11.7333683,-0.001273722,-0.005824719,0.001042055,-0.159561054,-0.004803242,-0.002772481,0.01554439,0.010642223000000001,1.553247957,1.558785822,0.747330752,70.79778354,46.35807434,-0.024138046,-0.006032366999999999,-0.015484157,0.0,-0.51104201,0.13284098,-7.6230214720000005,11.7314059,954.2501363,11.7314059,0.004444259,-0.11600797,-0.020701637,-0.488426226,0.232986621,-7.5307616610000006,57531523.9,0.019386118,-0.113263377,-0.010849813,11.7314059,100.04579,103.3582873,-0.165624784,-0.75519364,15.37009309,16.09277555,-0.014453642,-0.16601581599999998,-0.31764444,48.95147205,30611168.63,399.75678650000003,12.404602,96614.65288,1.147941955,0.017418086,0.010082415,1.553128307,0.7133204009999999,0.002679332,0.009699299,0.700765972,0.142147085,-0.450582095,-0.294528826,-0.462101539,0.000568085,0.006557885,-0.000411878,398714137.5,327364372.0,400124.3493,0.0,-0.000274055,-0.004862973,0.035411081000000004,4.446143799,39.871413700000005,32.7364371,0.034736175,-0.014130143999999999,0.009864266,0.039568215,-0.021352542000000002,0.044208033,0.04202745,-0.113738714,-0.0031052890000000002,0.1,0.085726339,0.010418825999999999,-0.008368228,0.1432204,0,0,0,1,0
57378377,-0.000507033,-0.048099629000000005,-0.016954053,0.14425534,0.0,1491.0,1500.0,1144.0,1500.0,1499.0,1478.6157230000001,15.88854503,15.93120671,16.3244547,15.90284158,16.29539054,16.40771006,16.81265262,165.68713290000002,165.68713290000002,11.73305859,-0.001272661,-0.005824081,0.001039965,-0.15953457,-0.004798849,-0.002679042,0.016017518999999997,0.010520503,1.5532161869999999,1.558691806,0.748150031,70.21848336,46.31722195,-0.024107228999999997,-0.005930827,-0.015475975,0.0,-0.488485913,0.189329625,-7.636925146,11.73116693,954.2424922,11.73116693,0.009683792,-0.112455471,-0.016588184,-0.534622241,0.22859120300000002,-7.600965442000001,57567111.02,0.015256223999999999,-0.11192516599999999,-0.009196718000000001,11.73116693,100.04579,103.3316975,-0.164295305,-0.760363584,15.37007208,16.09120518,-0.014422655,-0.156477073,-0.31792510399999996,48.87740182,30656549.71,399.48729039999995,12.404602,96617.77497,1.147979002,0.017771807,0.010055036,1.553102075,0.713328988,0.0028152140000000003,0.009813435,0.70075487,0.142267807,-0.017540853999999998,0.11416676199999999,0.06488020900000001,0.005836883,0.0045625,-0.001253389,398714137.3,327364372.0,400122.07399999996,0.0,-0.0044108820000000005,-0.0027945590000000003,0.041616321,4.098458641000001,39.871413700000005,32.7364371,0.03516835,-0.013754783999999999,0.009384264,0.03976953,-0.021715988,0.043130222,0.022101,-0.071121902,0.002723545,0.1,0.08463139199999999,0.013160797,-0.008456001,0.1434798,0,0,0,1,0
57410444,-0.001559244,-0.046029805,-0.016773365,0.14455432,0.0,1491.0,1500.0,1145.0,1501.0,1498.0,1479.034007,15.87090009,15.91363775,16.30644645,15.89065057,16.28289293,16.32153345,16.72428389,164.8275545,164.8275545,11.73274888,-0.0012716,-0.005823443,0.001037875,-0.159508087,-0.004794456,-0.002585604,0.016490647,0.010398783,1.553184418,1.558597791,0.748969311,69.63918317,46.27636956,-0.024075781,-0.005829671,-0.015472865,0.0,-0.465929816,0.24581827,-7.650828819,11.73092796,954.234848,11.73092796,0.007589596999999999,-0.11543247300000001,-0.012045611000000001,-0.5754909220000001,0.23939103,-7.6099749139999995,57602698.14,0.01112633,-0.110586955,-0.0075436240000000005,11.73092796,100.04579,103.3032391,-0.16287239,-0.764413048,15.37002875,16.08823719,-0.014364163000000001,-0.147390487,-0.31821706,48.801156299999995,30694916.58,399.46137289999996,12.404602,96618.09928,1.147982871,0.018033564,0.010040367,1.553077271,0.713337393,0.002913836,0.009899881,0.70074487,0.14238695099999998,0.075186615,0.12389468199999999,-0.21290360100000003,0.003803869,0.0019520170000000001,0.003051561,398714137.1,327364372.0,400119.7988,0.0,-0.00854771,-0.000726145,0.047821562000000005,3.750773483,39.871413700000005,32.7364371,0.035538717000000004,-0.013311163,0.008868044,0.039865085,-0.02206536,0.042146657000000004,-0.000103726,-0.0022553729999999998,0.013805959,0.1,0.083797028,0.016181196999999998,-0.008652388,0.1438905,0,0,0,1,0
57450512,-0.0018009789999999999,-0.044041835,-0.016806162,0.14492711,0.0,1491.0,1500.0,1144.0,1501.0,1498.0,1481.0,15.85325514,15.89606879,16.288438199999998,15.87845956,16.27039533,16.27877916,16.68057779,163.96797619999998,163.96797619999998,11.73243917,-0.001270539,-0.005822805,0.001035785,-0.159481603,-0.004790063,-0.002492166,0.016963775,0.010277063000000001,1.553152649,1.558503775,0.74978859,69.05988299,46.23551717,-0.024043525,-0.005727286,-0.015468538,0.0,-0.490752505,0.275545075,-7.715440696,1.81e+18,954.2318905999999,11.73072106,0.013471616,-0.114289404,-0.012708401000000001,-0.504912868,0.271203157,-7.693076065,57638285.26,0.01196515,-0.10653446300000001,-0.01242443,1.81e+18,100.04579,103.2747808,-0.161449474,-0.768462513,15.36998541,16.0852692,-0.014305671,-0.138303902,-0.318509015,48.72491078,30736790.56,399.5639609,12.404602,96616.903,1.147968642,0.018346374,0.010058368,1.553042552,0.713349028,0.0030192709999999996,0.010015849,0.700730812,0.142462871,0.294663377,0.071645023,0.09174715900000001,-0.001104991,0.002570329,-0.000152117,398714137.1,327364372.0,400117.6577,0.0,-0.008657732,0.0,0.043288655,3.8388540069999997,39.871413700000005,32.7364371,0.036015433,-0.013043787,0.008510309,0.040065501,-0.022330431,0.041174741,-0.01211143,0.021677386,0.014981587,0.1,0.08257289999999999,0.019502334,-0.008758809000000001,0.1436781,0,0,0,1,0
57482579,-0.0014187029999999999,-0.041627929,-0.016601406000000003,0.14492825,0.0,1491.0,1500.0,1144.0,1500.0,1499.0,1482.0,15.835610199999998,15.87849983,16.27042994,15.86626854,16.25789773,16.24067324,16.64162751,163.1083978,163.1083978,11.73212946,-0.001269478,-0.005822167,0.001033695,-0.15945512,-0.00478567,-0.0023987279999999997,0.017436903,0.010155343,1.553120879,1.5584097590000001,0.7506078690000001,68.4805828,46.19466478,-0.024010583999999998,-0.005616731,-0.015465521999999999,0.0,-0.532341661,0.295801365,-7.7979972570000005,4.25e+18,954.2305917000001,11.73052551,0.010254814000000001,-0.102480752,-0.017057731,-0.583402133,0.26408433600000003,-7.773547957999999,57673872.37,0.014562303,-0.101521438,-0.019617461,4.25e+18,100.04579,103.24632249999999,-0.160026559,-0.7725119770000001,15.36994208,16.08230121,-0.014247178999999999,-0.129217317,-0.318800971,48.64866526,30778664.53,399.67018889999997,12.404602,96615.67314,1.147953987,0.018695636,0.010112404,1.553018288,0.713357088,0.003125034,0.010157451999999999,0.700720178,0.142488715,0.41006522,-0.312891978,-0.432880611,0.00457567,0.002731222,0.000583388,398714137.3,327364372.0,400115.5893,0.0,-0.006589318,0.0,0.032946587,4.162676621,39.871413700000005,32.7364371,0.036639121000000004,-0.01301998,0.008371597,0.040410835,-0.022479,0.040218926,-0.010027014,-0.016487604,0.002466196,0.1,0.0816381,0.022393593,-0.008915058,0.143468639,0,0,0,1,0
57526646,-0.00145219,-0.03914277,-0.016446672,0.14504045,0.0,1492.0,1500.0,1144.0,1500.0,1499.0,1483.0,15.81796526,15.86093088,16.25242169,15.85407753,16.24540013,16.19122325,16.59086259,162.2488195,162.2488195,11.73181974,-0.001268417,-0.005821529000000001,0.001031605,-0.15942863599999998,-0.0047812770000000004,-0.00230529,0.017956715,0.010048316,1.553147029,1.5583574080000002,0.7487967390000001,67.90178852,46.15549993,-0.023976547999999997,-0.00550658,-0.015472277,0.0,-0.5739308160000001,0.316057655,-7.880553817999999,6.69e+18,954.2292927000001,11.73032996,0.006650781,-0.098953173,-0.013537835,-0.558957092,0.1881659,-7.826415957999999,57709459.49,0.017159457,-0.09650841199999999,-0.026810492000000002,6.69e+18,100.04579,103.2178641,-0.15860364300000002,-0.776561442,15.36989874,16.07933322,-0.014188687,-0.12013073199999999,-0.319092926,48.57241974,30820538.51,399.50323,12.404602,96617.58577,1.147976672,0.018859116999999998,0.010194112,1.552994049,0.713365432,0.003154837,0.01024383,0.7007102340000001,0.142513983,-0.249032325,0.617708565,-0.09715731300000001,0.00198749,0.0042943009999999995,-0.000361919,398714137.5,327364372.0,400113.5209,0.0,-0.004520904,0.0,0.02260452,4.486499235,39.871413700000005,32.7364371,0.037253142999999996,-0.012988997,0.008227823,0.040761768999999996,-0.022630381,0.039264883,-0.008230290999999999,-0.05404062900000001,-0.009043681999999999,0.1,0.08110641099999999,0.025120899,-0.009168255,0.14318341,0,0,0,1,0
57562713,-0.00163607,-0.036991493,-0.015922477,0.144772028,0.0,1492.0,1500.0,1143.0,1500.0,1499.0,1484.0,15.80032032,15.84336192,16.23441343,15.84188652,16.23290253,16.20914199,16.60921166,161.3892412,161.3892412,11.73151003,-0.001267356,-0.00582089,0.001029516,-0.15940215300000002,-0.004776883,-0.0022118520000000003,0.018961431,0.010093912,1.553774789,1.5587378269999999,0.7196632959999999,67.32824918,46.13386362,-0.023944556000000002,-0.005393525,-0.015481047,0.0,-0.558468305,0.30992883600000004,-7.971021472,6.87e+18,954.2220752000001,11.73013457,0.008944044,-0.094822642,-0.021858019,-0.550620481,0.184351242,-7.899983596,57745046.61,0.015724834,-0.097509126,-0.024562607,6.87e+18,100.04579,103.1894058,-0.15718072800000002,-0.7806109059999999,15.36985541,16.07636523,-0.014130195,-0.111044146,-0.319384882,48.49617422,30862412.48,399.60566239999997,12.404602,96616.42321000001,1.147962951,0.019063509,0.010284895,1.5529625,0.7133763320000001,0.003196095,0.010347766999999999,0.7006975059999999,0.14258179199999998,-0.11911927,-0.175459444,0.09285167300000001,-0.0019557479999999998,0.006254914,-0.00182366,398714137.8,327364372.0,400111.4525,0.0,-0.00245249,0.0,0.012262452,4.810321849,39.871413700000005,32.7364371,0.037516234,-0.012697513,0.007900306,0.041315975,-0.02288387,0.038375198,-0.016877902,-0.06937710400000001,0.015950128,0.1,0.080089145,0.027798987,-0.009250434,0.14292994,0,0,0,1,0
57598781,-0.001507444,-0.034774604,-0.016178206,0.14464876,0.0,1492.0,1500.0,1144.0,1500.0,1499.0,1485.0,15.78267538,15.82579296,16.21640518,15.82969551,16.22040492,16.17788057,16.57733008,160.5296628,160.5296628,11.73120032,-0.001266295,-0.005820252,0.0010274260000000001,-0.159375669,-0.00477249,-0.002118413,0.019966147,0.010139508,1.554402548,1.5591182469999998,0.6905298529999999,66.75470983,46.11222731,-0.023918629,-0.005295807,-0.015488502,0.0,-0.538619861,0.301771621,-8.062097304,6.87e+18,954.2144026000001,11.729939199999999,0.01389974,-0.096417825,-0.0163239,-0.5765208039999999,0.218426292,-7.970953982999999,57780633.73,0.013980262,-0.098972155,-0.021588938,6.87e+18,100.04579,103.16295749999999,-0.155858329,-0.78291658,15.36982207,16.07655005,-0.01413456,-0.103750871,-0.319645774,48.429750399999996,30904286.46,399.5840752,12.404602,96616.66026,1.147965726,0.031235422000000002,0.01038542,1.56215617,0.7101158759999999,0.007434952,0.014682145,0.703892515,0.14268631,0.252850974,-0.21817898600000002,-0.063388129,-0.000289088,0.00191625,-0.001405231,398714138.0,327364372.0,400109.3841,0.0,-0.000384077,0.0,0.001920384,5.134144462,39.871413700000005,32.7364371,0.037779325,-0.012406028999999999,0.00757279,0.041870181,-0.023137359,0.037485513,-0.025525512,-0.084713579,0.040943939,0.1,0.07904615599999999,0.030821946,-0.009396718,0.142502549,0,0,0,1,0
57633696,-0.000626203,-0.03265816,-0.015737827,0.14428832,0.0,1492.0,1500.0,1144.0,1500.0,1499.0,1486.0,15.76503043,15.808224,16.19839693,15.81750449,16.20790732,16.124683800000003,16.52275977,159.6700845,159.6700845,11.73089061,-0.0012652339999999998,-0.005819614,0.001025336,-0.159349186,-0.004768097,-0.002024975,0.020970864,0.010185104,1.555030308,1.5594986659999999,0.66139641,66.18117049,46.090590999999996,-0.023885719,-0.005183149000000001,-0.015502313,0.0,-0.526494924,0.290429764,-8.149474301,6.87e+18,954.2076400000001,11.72975539,0.009472519,-0.092602553,-0.021462075,-0.521217611,0.170482145,-8.086664616,57816220.84,0.012391548,-0.09949887800000001,-0.018962228,6.87e+18,100.04579,103.13722729999999,-0.154571841,-0.784599278,15.36979231,16.07786123,-0.014161382,-0.097098264,-0.319895567,48.36683543,30946160.43,399.6573762,12.404602,96615.83481,1.147955974,0.031469013,0.010507371000000001,1.562137735,0.710121917,0.0074751,0.014807579,0.703883335,0.142788143,0.212701502,-0.18351991399999998,0.123905746,-0.00046946,0.004245771,-0.003823233,398714138.0,327364372.0,400109.3369,0.0,0.0016843370000000002,0.0,0.0,4.348192559,39.871413700000005,32.7364371,0.038242113,-0.01234935,0.0071247030000000005,0.041791534,-0.023064571000000002,0.036691337000000004,-0.022919962000000002,-0.084446588,0.032627812,0.1,0.07807035,0.033810977,-0.009523478,0.14212757,0,0,0,1,0
57670915,-0.001256858,-0.030255241000000002,-0.015685947,0.14390421,0.0,1492.0,1500.0,1144.0,1500.0,1499.0,1487.0,15.74738549,15.79065504,16.18038867,15.80531348,16.19540972,16.18555344,16.58521893,158.8105061,158.8105061,11.730580900000001,-0.001264173,-0.005818976,0.001023246,-0.159322703,-0.0047637040000000005,-0.001931537,0.02197558,0.0102307,1.555658067,1.559879086,0.6322629670000001,65.60763114,46.06895469,-0.02385404,-0.005073171,-0.015530898999999999,0.0,-0.571765535,0.255421948,-8.209364217000001,6.87e+18,954.2076400000001,11.72965753,0.012402008,-0.092613389,-0.016327871,-0.545448804,0.179069635,-8.125021424,57851807.96,0.011961058,-0.09306764699999999,-0.018913863,6.87e+18,100.04579,103.1114971,-0.153285354,-0.786281975,15.36976255,16.07917241,-0.014188203,-0.090445656,-0.320145361,48.30392045,30988034.41,399.5117102,12.404602,96617.52845,1.147976071,0.031672579,0.010546189,1.562117577,0.710128401,0.007533864,0.014892928,0.703874395,0.143160603,0.061178841,0.265113504,0.160239584,0.0027593220000000003,0.007375644000000001,0.001301369,398714138.0,327364372.0,400109.7506,0.0,0.003752751,0.0,0.0,3.309180432,39.871413700000005,32.7364371,0.038820284,-0.012428341,0.006606951999999999,0.041347227,-0.022803262,0.035952346,-0.013812396000000001,-0.075164,0.005065384,0.1,0.077020588,0.036539795,-0.009791995,0.14232177,0,0,0,1,0
57706982,-0.000569115,-0.028988445,-0.015632851,0.14417527800000002,0.0,1492.0,1500.0,1144.0,1499.0,1500.0,1488.0,15.72974055,15.77308608,16.16238042,15.79312247,16.18291212,16.10366622,16.50115697,157.95092780000002,157.95092780000002,11.73027119,-0.001263112,-0.005818338,0.001021156,-0.15929621900000002,-0.004759311,-0.001838099,0.022980296,0.010276295999999999,1.556285827,1.560259505,0.603129524,65.0340918,46.04731839,-0.023823068,-0.00495806,-0.015549193999999999,0.0,-0.617036145,0.22041413199999998,-8.269254132,6.87e+18,954.2076400000001,11.72955966,0.010927491999999999,-0.08509584099999999,-0.011192387,-0.533868993,0.20362933,-8.173211878,57887395.08,0.011530567,-0.086636416,-0.018865498999999997,6.87e+18,100.04579,103.085767,-0.15199886599999998,-0.787964672,15.36973279,16.08048359,-0.014215024,-0.083793048,-0.320395155,48.24100548,31029908.38,399.5578724,12.404602,96616.97183,1.147969455,0.031752447999999996,0.010580714,1.562091134,0.7101375240000001,0.007550268000000001,0.014933195,0.703864142,0.14359045199999998,-0.10716349900000001,0.074143414,-0.194949359,-0.000666085,0.005491745,0.0006601189999999999,398714138.0,327364372.0,400110.1642,0.0,0.005821164,0.0,0.0,2.270168306,39.871413700000005,32.7364371,0.039332857,-0.012425581000000002,0.006123061999999999,0.041077626,-0.022746276,0.035326479,0.002465886,-0.057408902000000005,-0.014592997,0.1,0.075780544,0.038920343999999996,-0.009863346,0.14239618,0,0,0,1,0
57747049,-0.000296464,-0.026788678,-0.015290142,0.14422354,0.0,1492.0,1500.0,1144.0,1500.0,1499.0,1489.0,15.71209561,15.75551713,16.14437216,15.78093146,16.17041452,16.06108095,16.45772765,157.09134939999998,157.09134939999998,11.72996148,-0.0012620510000000001,-0.0058177,0.0010190660000000001,-0.159269736,-0.0047549179999999995,-0.001744661,0.023985012000000003,0.010321892,1.5569135859999998,1.560639925,0.573996081,64.46055245,46.02568208,-0.023790818,-0.0048373240000000005,-0.015573739,0.0,-0.645346499,0.191843603,-8.309420023,6.87e+18,954.2070909,11.72946861,0.010032998000000001,-0.083195214,-0.018874738000000002,-0.622223422,0.198133927,-8.300059007,57922982.2,0.011153383999999999,-0.08249503400000001,-0.018182773,6.87e+18,100.04579,103.0600368,-0.150712378,-0.78964737,15.36970303,16.08179476,-0.014241845,-0.07714044099999999,-0.320644949,48.1780905,31071782.36,399.5802671,12.404602,96616.71916000001,1.147966483,0.031800086,0.010635694,1.562073143,0.710143871,0.007547965,0.014969408,0.703856965,0.14400228699999998,0.281450869,-0.04985914599999999,0.12565151,0.004036319,0.0014051920000000002,0.0017062929999999998,398714138.0,327364372.0,400110.5779,0.0,0.007889578000000001,0.0,0.0,1.23115618,39.871413700000005,32.7364371,0.039638594,-0.012165055,0.005745937,0.041358886,-0.023333539,0.035057300000000007,0.041354021,-0.01293929,-0.009329279000000001,0.1,0.074634753,0.04221337,-0.010065254000000001,0.14247733,0,0,0,1,0
57786233,-0.00026641,-0.024511501,-0.015185355,0.14402210000000001,0.0,1492.0,1500.0,1143.0,1499.0,1500.0,1490.0,15.69445067,15.73794817,16.12636391,15.76874045,16.15791691,16.10302867,16.50062514,156.2317711,156.2317711,11.72965177,-0.00126099,-0.005817062,0.0010169760000000002,-0.159243252,-0.004750525,-0.0016512229999999998,0.024989729,0.010367488000000001,1.557541346,1.5610203440000001,0.544862637,63.88701311,46.00404577,-0.023752156,-0.004718676,-0.015605498999999998,0.0,-0.635658465,0.17769541100000003,-8.305395476000001,6.87e+18,954.2053115,11.72939281,0.01212144,-0.084182429,-0.019407612,-0.5991528,0.265107138,-8.23486545,57958569.31,0.010895631000000001,-0.083483917,-0.016078799999999997,6.87e+18,100.04579,103.0343066,-0.14942589,-0.7913300670000001,15.36967327,16.08310594,-0.014268666000000001,-0.070487833,-0.320894743,48.11517553,31113656.33,399.6700039,12.404602,96615.66665,1.1479539220000001,0.031961251,0.010657938999999998,1.5620555109999998,0.710149535,0.007597493,0.015033958,0.703849306,0.144532745,-0.042701293,0.16779504899999997,-0.256673278,0.000696166,0.009116191,0.000537706,398714138.0,327364372.0,400110.9916,0.0,0.009957991999999999,0.0,0.0,0.19214405399999998,39.871413700000005,32.7364371,0.039944331,-0.011904528999999999,0.005368813,0.041640145,-0.023920801000000002,0.034788122000000005,0.08024215700000001,0.031530321,-0.00406556,0.1,0.073815354,0.04423875,-0.010203091,0.14249808,0,0,0,1,0
57823184,0.00016413900000000002,-0.022479172000000002,-0.015116511000000001,0.14406735,0.0,1492.0,1500.0,1143.0,1499.635127,1499.364873,1491.0,15.67680572,15.72037921,16.10835566,15.75654943,16.14541931,15.92655429,16.31975385,155.3721927,155.3721927,11.72934206,-0.001259929,-0.005816424000000001,0.001014887,-0.159216769,-0.004746132,-0.001557784,0.025994445,0.010413084,1.558169105,1.561400764,0.515729194,63.31347376,45.98240946,-0.023715164,-0.004607466,-0.015642329,0.0,-0.625970431,0.163547218,-8.301370928999999,6.87e+18,954.2035322,11.72931701,0.015371296000000001,-0.075044123,-0.015891488999999998,-0.556894066,0.22672861,-8.318441408,57994156.43,0.010637878,-0.084472799,-0.013974826000000001,6.87e+18,100.04579,103.0083748,-0.148129275,-0.791351439,15.36965886,16.08251948,-0.014257223999999999,-0.064358997,-0.3211365,48.05750515,31158785.36,399.5661268,12.404602,96616.87527,1.147968232,0.032123702999999997,0.010630385,1.56203732,0.710155225,0.00766501,0.015081276000000001,0.703841892,0.145233865,0.128885387,0.017957906000000003,-0.831722293,0.000112909,0.0035596079999999997,-0.0064634309999999995,398714138.0,327364372.0,400111.8106,0.0,0.01,0.004052811,0.004052811,0.367473019,39.871413700000005,32.7364371,0.040472676,-0.011927125,0.004996965,0.041544093,-0.024044641000000002,0.033897957,0.053492973,0.034751236,-0.010000679,0.1,0.072522828,0.047071523,-0.010299921,0.1425277,0,0,0,1,0
57855251,-0.00028727900000000004,-0.020680997,-0.014826507,0.14400512,0.0,1492.0,1500.0,1143.0,1499.0,1500.0,1492.0,15.65916078,15.70281025,16.090347400000002,15.74435842,16.13292171,16.02473273,16.42048374,155.0678243,155.0678243,11.72935754,-0.001258868,-0.005815786,0.001012797,-0.159190285,-0.004741739,-0.001464346,0.026999161,0.01045868,1.558796865,1.5617811830000001,0.486595751,62.73993442,45.96077315,-0.023676651,-0.004489616,-0.015688768999999998,0.0,-0.617226333,0.172239232,-8.341855187,5.65e+18,954.2038306,11.72925726,0.011874589,-0.082033723,-0.012497066000000001,-0.608124212,0.20753473600000003,-8.386599687,58029743.55,0.014034274,-0.08208303900000001,-0.012929716,5.65e+18,100.04579,102.9824412,-0.146832566,-0.791357393,15.36964459,16.08191541,-0.014245427,-0.058235022000000004,-0.321378182,47.99988344,31197404.28,399.59068080000003,12.404602,96616.58032000001,1.147964853,0.032130558999999996,0.010630145,1.562010875,0.710164516,0.00766773,0.015083503,0.703832441,0.145905624,0.5966887,0.34972122299999997,0.023434537000000002,0.000554793,0.007010566,-0.000948957,398714138.0,327364372.0,400112.6379,0.0,0.01,0.008189638,0.008189638,0.567975887,39.871413700000005,32.7364371,0.041040993,-0.012000559,0.004626065,0.041380291,-0.024085267999999996,0.032896287,0.014957979,0.030565552000000003,-0.017946656000000002,0.1,0.088600319,0.049644456,-0.01776092,0.1426683,0,0,0,1,0
57887318,5.01e-05,-0.018996995,-0.014589251000000001,0.14384186,0.0,1493.0,1500.0,1143.0,1500.0,1499.0,1492.4716939999998,15.64151584,15.68524129,16.07233915,15.73216741,16.12042411,15.92570137,16.31885209,154.8298018,154.8298018,11.72941187,-0.001257807,-0.005815148000000001,0.001010707,-0.159163802,-0.004737346,-0.001370908,0.028003877000000003,0.010504277,1.559424625,1.562161603,0.457462308,62.16639507,45.93913684,-0.023642557999999998,-0.004373379,-0.015737753,0.0,-0.609431491,0.20390020000000003,-8.427099144,3.21e+18,954.2062185000001,11.72921367,0.016838751000000002,-0.069122856,-0.018115408,-0.569566155,0.18342621399999998,-8.424015687,58065330.67,0.021105419,-0.076295592,-0.012949437,3.21e+18,100.04579,102.9565076,-0.145535857,-0.7913633459999999,15.36963032,16.08131133,-0.01423363,-0.052111047,-0.321619864,47.94226174,31239278.26,399.5573873,12.404602,96616.96033999999,1.147969299,0.032127736000000004,0.010657706999999999,1.5619932719999998,0.7101707690000001,0.007657159,0.015092227,0.703825913,0.146543196,-0.015799503,0.144873106,-0.206759781,-0.0017814320000000001,0.0039325459999999994,-0.00265172,398714138.0,327364372.0,400113.4653,0.0,0.01,0.012326465,0.012326465,0.7684787540000001,39.871413700000005,32.7364371,0.041338924,-0.011992177,0.004222836,0.040889086,-0.024328759,0.031686874,-0.000352405,0.0034387040000000003,-0.031797263,0.1,0.087438665,0.05180505,-0.017073187,0.142786387,0,0,0,1,0
57923385,-0.00036289300000000004,-0.017443203,-0.014402261999999999,0.143821676,0.0,1492.0,1500.0,1143.0,1496.0,1503.0,1493.889978,15.6238709,15.66767233,16.05433089,15.7199764,16.10792651,15.96196957,16.35606962,154.5917792,154.5917792,11.72946621,-0.001256746,-0.00581451,0.001008617,-0.159137319,-0.004732952,-0.00127747,0.029008594,0.010549873000000001,1.560052384,1.562542022,0.428328865,61.59285573,45.91750053,-0.02360915,-0.004252388,-0.015787647,0.0,-0.601636649,0.235561169,-8.512343102,7.61e+17,954.2086063999999,11.72917008,0.032908832,-0.065449027,-0.017185251000000002,-0.522994916,0.145792284,-8.425524864,58100917.78,0.028176562999999998,-0.07050814400000001,-0.012969159,7.61e+17,100.04579,102.930574,-0.144239148,-0.7913693,15.36961605,16.08070726,-0.014221832,-0.045987072000000004,-0.321861546,47.88464003,31281152.23,399.6306432,12.404602,96616.11705,1.147959352,0.03207645,0.010713325,1.561975829,0.710177354,0.007619504,0.015093859,0.703819772,0.14716202,-0.187775835,-0.43637782700000005,-0.255166098,0.004944162,0.008887906999999999,-0.008174477,398714138.0,327364372.0,400114.2927,0.0,0.01,0.016463293,0.016463293,0.968981622,39.871413700000005,32.7364371,0.041312676,-0.011885703000000001,0.0037808459999999996,0.040005341,-0.024815471000000002,0.030228388,0.012182294,-0.051193392000000004,-0.05272721,0.1,0.08647002599999999,0.053323175,-0.016633933,0.14310241,0,0,0,1,0
57959453,0.0009659839999999999,-0.015266748,-0.014015783,0.14374751,0.0,1492.0,1500.0,1142.691738,1497.0,1502.0,1494.0,15.60622596,15.65010338,16.03632264,15.70778539,16.095428899999998,16.01136021,16.406694400000003,154.3537566,154.3537566,11.72952055,-0.001255685,-0.0058138719999999994,0.001006527,-0.159110835,-0.004728559,-0.001184032,0.03001331,0.010595469,1.560680144,1.5629224419999999,0.399195422,61.01931638,45.89586423,-0.023577672999999997,-0.004129282,-0.015840338,0.0,-0.585442507,0.249657574,-8.563419631,1.68e+18,954.2088231,11.72914143,0.02805711,-0.07226031200000001,-0.014514243000000001,-0.595975109,0.21695157,-8.526097319,58136504.9,0.033781009,-0.068018223,-0.012759317,1.68e+18,100.04579,102.9046404,-0.142942439,-0.7913752540000001,15.36960178,16.08010318,-0.014210035,-0.039863097,-0.322103228,47.82701832,31323026.21,399.4906401,12.404602,96617.73494,1.147978545,0.031963478999999996,0.010786268,1.561948246,0.710187795,0.007553921999999999,0.015079896,0.70381025,0.147771401,0.8567619890000001,0.3926225,-0.110070246,0.003518551,0.008265091,-0.0039107890000000005,398714138.0,327364372.0,400114.91,0.0,0.00969994,0.01939988,0.01969994,1.227500368,39.871413700000005,32.7364371,0.041300411,-0.011797791,0.0033505220000000003,0.039108057,-0.025284779,0.028846608,0.022179906,-0.101723097,-0.069356032,0.1,0.084945325,0.054811557999999996,-0.015930341,0.14339715,0,0,0,1,0
57991520,-0.001346244,-0.013816018999999999,-0.013883191000000001,0.14354724,0.0,1492.0,1500.0,1142.0,1497.0,1502.0,1495.0,15.60641059,15.65043656,16.03664636,15.70536005,16.09292608,15.9430603,16.33667557,154.1157341,154.1157341,11.72957488,-0.001254906,-0.00581318,0.001005082,-0.159083919,-0.00471407,-0.001123693,0.031018026,0.010641065,1.561307903,1.563302861,0.370061979,60.44577704,45.87422792,-0.02354633,-0.004007175,-0.015890098999999998,0.0,-0.565449824,0.255810494,-8.599044115,4.13e+18,954.208058,11.72911954,0.030022133,-0.068579843,-0.016387931,-0.5094228789999999,0.219873558,-8.586660395,58172092.02,0.038722146,-0.067019592,-0.012445656000000001,4.13e+18,100.04579,102.8778477,-0.14160278699999998,-0.79104327,15.36958031,16.08082568,-0.014224913,-0.03410272,-0.322349885,47.76918097,31364900.18,399.62080560000004,12.404602,96616.24061000001,1.147960795,0.0318373,0.010951096,1.561931119,0.7101948459999999,0.007451233000000001,0.015093948999999999,0.7038038940000001,0.14815121,0.7738830640000001,0.387689989,0.808702624,-0.000134729,0.002438341,-0.0040600490000000005,398714138.0,327364372.0,400114.2895,0.0,0.007631526,0.015263053,0.017631526,1.827926028,39.871413700000005,32.7364371,0.041500583,-0.011991918999999998,0.003097437,0.038005045,-0.025489667,0.028630287,-0.0063704669999999994,-0.08992187800000001,-0.020634429,0.1,0.08300054700000001,0.056790195,-0.015078731000000001,0.1439634,0,0,0,1,0
58027587,0.0065476530000000005,-0.011851177,-0.014840488,0.14322773,0.0,1492.0,1500.0,1143.0,1498.0,1501.0,1496.0,15.60800855,15.65218882,16.03842323,15.70370882,16.09121553,15.90998204,16.30278459,153.8777115,153.8777115,11.72962922,-0.00125415,-0.005812484000000001,0.001003688,-0.159056969,-0.00469878,-0.001065977,0.032022742,0.010686661,1.561935663,1.56368328,0.340928536,59.87223769,45.85259161,-0.023514697999999997,-0.003882734,-0.015949347,0.0,-0.5454571420000001,0.261963414,-8.634668599,6.57e+18,954.2072929,11.72909766,0.026882676,-0.065076124,-0.014230929,-0.561698096,0.22067896399999998,-8.571211413,58207679.14,0.043663284000000004,-0.06602096,-0.012131996,6.57e+18,100.04579,102.8484051,-0.140130679,-0.789668913,15.36953662,16.085639999999998,-0.01432207,-0.029463866000000002,-0.322611888,47.71067848,31406774.15,399.55463310000005,12.404602,96616.98668999999,1.147969673,0.031721209,0.011129228,1.561914634,0.710201773,0.007347438,0.015116277,0.703797542,0.148520619,0.111829204,-0.322628994,-0.338423707,-0.00464762,0.002514354,-0.00554744,398714138.0,327364372.0,400113.6689,0.0,0.005563113000000001,0.011126225,0.015563113,2.4283516880000002,39.871413700000005,32.7364371,0.041700755,-0.012186048,0.002844352,0.036902033,-0.025694555,0.028413965,-0.03492084,-0.07812066,0.028087175,0.1,0.081634079,0.058051094000000004,-0.014511274,0.14422897,0,0,0,1,0
58063654,0.005893453000000001,-0.010338743000000001,-0.014818032,0.14301527,0.0,1492.0,1500.0,1143.0,1498.0,1501.0,1497.0,15.60960651,15.65394109,16.0402001,15.7020576,16.08950498,15.87227628,16.26419707,153.6396889,153.6396889,11.72968356,-0.001253393,-0.005811788000000001,0.001002294,-0.159030018,-0.004683489,-0.001008262,0.032677514,0.010863228999999999,1.5625707290000002,1.564174529,0.311795096,59.30106715,45.84437218,-0.023485548,-0.003753742,-0.01601144,0.0,-0.502480434,0.23212390800000002,-8.688505988,6.87e+18,954.2032292000001,11.72910469,0.033397245,-0.061163040999999994,-0.011010262,-0.5898057560000001,0.268133652,-8.626148021,58243266.25,0.042704396,-0.061452972,-0.010475832,6.87e+18,100.04579,102.81896259999999,-0.138658571,-0.7882945570000001,15.36949294,16.09045433,-0.014419227,-0.024825011,-0.32287389,47.65217598,31448648.13,399.5602338,12.404602,96616.96174,1.147969303,0.031491478999999996,0.011300622,1.56189412,0.7102104440000001,0.007205691,0.015096215,0.703790678,0.14893518,-0.12820299,-0.055531767,-0.122327749,0.006330881,0.005195463,-0.001077305,398714138.0,327364372.0,400113.0484,0.0,0.0034946990000000004,0.006989398000000001,0.013494698999999999,3.028777349,39.871413700000005,32.7364371,0.041639484,-0.012250375,0.002466293,0.03610263,-0.025630853999999998,0.027925817000000002,-0.018836798999999998,-0.052569938,0.032168112,0.1,0.08027816,0.059340909000000004,-0.013816229,0.14519006,0,0,0,1,0
58095722,0.005150621,-0.008900116,-0.015426529,0.14290208,0.0,1492.0,1500.0,1143.0,1498.0,1501.0,1497.0,15.61120446,15.65569335,16.04197697,15.70040637,16.08779443,15.82259085,16.21332534,153.4016664,153.4016664,11.72973789,-0.001252637,-0.0058110919999999995,0.0010009,-0.159003068,-0.0046681990000000005,-0.0009505469999999999,0.033304461,0.011050211,1.563206376,1.56467459,0.282661657,58.73008495,45.83721953,-0.023456698999999998,-0.00362896,-0.016055505,0.0,-0.45632743,0.19731040100000002,-8.744860324,6.87e+18,954.1987096,11.72911572,0.034488227999999996,-0.060675307000000005,-0.010926075,-0.5585111110000001,0.21633038300000001,-8.651720242,58278853.37,0.040930149,-0.056391712999999996,-0.008634139,6.87e+18,100.04579,102.78952009999999,-0.137186463,-0.7869202009999999,15.36944926,16.09526865,-0.014516383999999998,-0.020186157,-0.323135893,47.59367349,31490522.1,399.7243782,12.404602,96615.02479,1.147946275,0.031370261,0.011428188999999998,1.5618715380000001,0.710219233,0.007117917,0.015098769,0.703782603,0.14949542300000002,0.20528222399999999,-0.233828455,-0.19202057,0.006167729,0.007000608,0.0033539999999999998,398714138.0,327364372.0,400112.4279,0.0,0.001426285,0.002852571,0.011426285,3.629203009,39.871413700000005,32.7364371,0.041448708,-0.012250405,0.002026329,0.035453619,-0.025434107,0.027303018999999998,0.019356773,-0.020208438999999998,0.014136421000000001,0.1,0.078954607,0.060526825,-0.013246866000000001,0.14564914,0,0,0,1,0
58127789,0.004231842,-0.007564965999999999,-0.015377068,0.14307308,0.0,1492.0,1500.0,1142.0,1498.0,1501.0,1498.0,15.61280242,15.65744561,16.04375384,15.69875514,16.08608388,15.84600008,16.23730067,153.16364380000002,153.16364380000002,11.72979223,-0.00125188,-0.005810396,0.000999506,-0.158976117,-0.004652909,-0.000892832,0.033931407999999996,0.011237193000000001,1.563842023,1.565174651,0.253528218,58.15910276,45.83006689,-0.023428957,-0.003512205,-0.016097321,0.0,-0.41878005799999996,0.169559428,-8.798180302999999,6.87e+18,954.1940802000001,11.72912898,0.034510364,-0.057248263,-0.008823824000000001,-0.620483737,0.251730523,-8.757996732,58314440.49,0.039145926,-0.051795299999999996,-0.007132129,6.87e+18,100.04579,102.7600776,-0.135714354,-0.785545844,15.36940557,16.10008298,-0.014613541,-0.015547301999999999,-0.323397895,47.53517099,31532396.08,399.572844,12.404602,96616.79577000001,1.147967375,0.031173787,0.011570108,1.561855829,0.710225983,0.0069983169999999996,0.015079965,0.7037774259999999,0.150038812,-0.552873897,0.347981914,0.194452696,0.0017544639999999999,0.007068721,-0.000857041,398714138.0,327364372.0,400112.1926,0.0,0.0006421280000000001,0.001284257,0.01,3.849108738,39.871413700000005,32.7364371,0.041337722,-0.012310451000000002,0.001539636,0.035109861,-0.025379178999999998,0.026877707999999997,0.041575319,0.008681094,0.001424722,0.1,0.077274072,0.061803042,-0.012552063,0.1465244,0,0,0,1,0
58159856,0.0034529359999999998,-0.005733197,-0.015260218,0.1432052,0.0,1492.0,1500.0,1142.0,1498.0,1501.0,1499.0,15.61440038,15.65919787,16.04553071,15.69710391,16.08437332,15.88315247,16.27543837,152.9256212,152.9256212,11.72984656,-0.001251124,-0.005809699000000001,0.000998112,-0.158949167,-0.004637619,-0.000835116,0.034558355,0.011424175,1.56447767,1.5656747119999999,0.224394779,57.58812056,45.82291424,-0.023401268,-0.003388721,-0.016149524,0.0,-0.498114099,0.23773155899999998,-8.810287752,6.87e+18,954.1879593,11.72917239,0.036735994,-0.060506635,-0.009144226,-0.561331836,0.27342885899999997,-8.815698616,58350027.61,0.037226214,-0.05351241,-0.010243661,6.87e+18,100.04579,102.73063509999999,-0.134242246,-0.7841714879999999,15.36936189,16.1048973,-0.014710698000000001,-0.010908447,-0.323659898,47.47666849,31574270.05,399.5836863,12.404602,96616.67246,1.1479658670000001,0.031017995,0.011770778,1.561839524,0.7102329340000001,0.00687249,0.015096336,0.7037713659999999,0.15046399900000001,0.48641103,-0.399183251,-0.099707062,-0.001667001,0.004852227,-0.000880328,398714138.0,327364372.0,400112.8132,0.0,0.0027105420000000002,0.0054210840000000005,0.01,3.2238097619999997,39.871413700000005,32.7364371,0.041436327,-0.012528144,0.0009302010000000001,0.035567922,-0.025696768,0.026971138999999998,0.021831691,0.028450688,0.002687236,0.1,0.075393914,0.062954055,-0.011796451000000001,0.14694765,0,0,0,1,0
58191923,0.00353566,-0.00465687,-0.015486683999999999,0.14309305,0.0,1491.763753,1500.0,1142.236247,1498.236247,1500.763753,1499.0,15.61599833,15.66095013,16.04730758,15.69545269,16.08266277,15.86190082,16.25360689,152.6875986,152.6875986,11.7299009,-0.001250367,-0.005809003,0.000996718,-0.158922216,-0.0046223290000000005,-0.000777401,0.035185303,0.011611156999999999,1.565113318,1.5661747730000002,0.19526133899999998,57.01713837,45.8157616,-0.023371799,-0.003263841,-0.016201295,0.0,-0.577448139,0.305903689,-8.822395201,6.87e+18,954.1818383,11.72921581,0.025001266,-0.048633037999999996,-0.009511653,-0.5358036829999999,0.209385871,-8.824920673,58385614.72,0.035306501000000004,-0.05522952,-0.013355193000000001,6.87e+18,100.04579,102.7029546,-0.132858231,-0.784250379,15.36934226,16.10744821,-0.014762108999999999,-0.00573813,-0.32390372,47.42458128,31616144.03,399.4476608,12.404602,96618.2572,1.147984794,0.030903695,0.012018134,1.561820688,0.7102407540000001,0.006744986,0.015143876,0.703763618,0.150799438,0.120503095,0.11105421900000001,0.009533295,0.002424045,0.004072887,-0.0026666140000000003,398714138.0,327364372.0,400113.4337,0.0,0.004778956,0.009557912,0.01,2.598510787,39.871413700000005,32.7364371,0.041534932999999996,-0.012745836000000002,0.000320765,0.036025983,-0.026014357999999998,0.027064569,0.002088062,0.048220282,0.00394975,0.1,0.073929637,0.064147996,-0.011242378999999999,0.14759114,0,0,0,1,0
58223990,0.0015477120000000001,-0.0033070129999999997,-0.015308338000000001,0.14295006,0.0,1491.0,1500.0,1143.0,1498.3454689999999,1500.6545310000001,1500.0,15.61759629,15.66270239,16.04908445,15.69380146,16.08095222,15.80274524,16.19300028,152.4495761,152.4495761,11.72995524,-0.001249611,-0.0058083069999999995,0.000995324,-0.158895266,-0.004607039,-0.0007196860000000001,0.03581225,0.011798139,1.565748965,1.566674834,0.1661279,56.44615617,45.80860895,-0.023340668999999998,-0.003125947,-0.016248036,0.0,-0.633782023,0.34458217700000005,-8.841568007000001,6.87e+18,954.1802777,11.72926208,0.035099381,-0.052138573,-0.005072554,-0.524723145,0.185777579,-8.859981993,58421201.84,0.033729794,-0.056019915999999996,-0.015774788,6.87e+18,100.04579,102.67704429999999,-0.131562714,-0.785789214,15.36934678,16.10772528,-0.014767562,-3.39e-05,-0.324129277,47.37893891,31658018.0,399.5525214,12.404602,96617.04024,1.147970228,0.030695891,0.012271643999999998,1.56179817,0.710250189,0.006582139,0.015160689,0.703755237,0.151138092,-0.030826301,-0.186231363,-0.149505786,-0.000663744,0.008080498,-0.001347788,398714138.0,327364372.0,400114.0542,0.0,0.006847369,0.013694739,0.01,1.9732118109999999,39.871413700000005,32.7364371,0.041458787999999996,-0.012818592,-0.000303017,0.035678525,-0.026856344,0.025794557000000003,0.014247545,0.016226661,-0.0035727520000000002,0.1,0.07244313599999999,0.06531677400000001,-0.010669508000000001,0.14803338,0,0,0,1,0
58256058,0.002217706,-0.0019316420000000001,-0.015546076,0.142784969,0.0,1491.0,1500.0,1143.0,1498.072815,1500.927185,1501.0,15.61919425,15.66445465,16.05086132,15.69215023,16.07924167,15.81521407,16.20592607,152.21155349999998,152.21155349999998,11.73000957,-0.001248854,-0.005807611,0.000993931,-0.158868315,-0.004591749,-0.000661971,0.036439197,0.011985121000000001,1.5663846119999998,1.567174895,0.13699446099999998,55.87517397,45.8014563,-0.023314228,-0.0030041729999999997,-0.016284985,0.0,-0.624165459,0.298690849,-8.880999957,6.87e+18,954.1917937000001,11.72931653,0.038001816,-0.053790773,-0.010233987,-0.572487659,0.228723165,-8.914088072,58456788.96,0.033136616,-0.05415306,-0.016210326,6.87e+18,100.04579,102.651134,-0.130267197,-0.787328048,15.36935131,16.10800234,-0.014773016000000002,0.005670331,-0.324354835,47.33329654,31699891.98,399.60421119999995,12.404602,96616.43459,1.1479630459999999,0.030405166,0.012498773000000001,1.5617823769999999,0.710257393,0.0063990769999999995,0.015138981999999999,0.703750077,0.151586779,-0.9120341820000001,0.362489861,-0.10426429599999999,0.0024338429999999998,0.001946258,-0.000964971,398714138.0,327364372.0,400114.6747,0.0,0.008915783,0.017831566,0.01,1.347912835,39.871413700000005,32.7364371,0.041359427000000004,-0.012872092,-0.000928705,0.035224043,-0.027768004,0.024343393999999997,0.030645781,-0.022644395,-0.012262461,0.1,0.07101127900000001,0.066449676,-0.010118161,0.14828521,0,0,0,1,0
58292125,0.002237906,-0.000611474,-0.01594985,0.14293507,0.0,1491.0,1500.0,1143.0,1499.0,1500.0,1501.491098,15.62079221,15.66620691,16.05263819,15.69049901,16.07753112,15.782990099999997,16.17280965,151.97353090000001,151.97353090000001,11.73006391,-0.001248098,-0.005806915,0.000992537,-0.158841365,-0.004576459000000001,-0.000604255,0.037066144,0.012172103,1.567020259,1.5676749559999998,0.10786102199999999,55.30419178,45.79430366,-0.023288315,-0.002877283,-0.016330768,0.0,-0.614548895,0.252799521,-8.920431906000001,6.87e+18,954.2033097000001,11.72937098,0.029379059,-0.044409538,-0.008086771,-0.595012807,0.23503908,-8.937599356,58492376.08,0.032543438,-0.052286204,-0.016645865,6.87e+18,100.04579,102.6252237,-0.12897168,-0.788866883,15.36935583,16.1082794,-0.01477847,0.011374561000000002,-0.324580393,47.28765417,31741765.95,399.6444535,12.404602,96615.9609,1.147957501,0.03011974,0.012726992,1.561766895,0.710264426,0.006217510999999999,0.015119532,0.703745063,0.152067036,-0.049165768,-0.268140852,0.723179476,-0.002636532,0.006278308000000001,-0.0005915769999999999,398714138.0,327364372.0,400114.3111,0.0,0.009015803000000001,0.018031606000000002,0.011968393999999999,1.463684494,39.871413700000005,32.7364371,0.041375681,-0.013080066000000001,-0.0015780470000000002,0.034982392,-0.02884834,0.023941001,0.037166047,-0.044664435999999995,-0.010382994,0.1,0.06958605,0.067821795,-0.00965155,0.14873814,0,0,0,1,0
58324192,0.0010003739999999998,0.000772349,-0.016194957,0.1432204,0.0,1491.090618,1500.0,1143.0,1499.0,1500.0,1502.0,15.62239016,15.66795917,16.05441505,15.68884778,16.07582057,15.726136499999999,16.11444945,151.73550840000001,151.73550840000001,11.73011825,-0.0012473410000000001,-0.005806218,0.000991143,-0.15881441400000001,-0.004561169,-0.00054654,0.037693091,0.012359086000000002,1.567655906,1.568175017,0.078727582,54.73320958,45.78715101,-0.023257387,-0.0027417120000000003,-0.016376625,0.0,-0.602106957,0.227089873,-8.952282138,6.87e+18,954.2098899,11.729435,0.026761594,-0.046339655,-0.007192138000000001,-0.551946946,0.216169065,-8.948373445,58527963.19,0.031106609,-0.049182012000000004,-0.015274389,6.87e+18,100.04579,102.59931340000001,-0.127676163,-0.7904057179999999,15.36936036,16.10855647,-0.014783923999999999,0.017078791,-0.32480595100000004,47.24201179999999,31783639.93,399.4263182,12.404602,96618.49624,1.1479875990000001,0.04164775,0.012960784,1.5710116719999998,0.706957981,0.010139949,0.019305726000000002,0.706919359,0.152548475,-0.320643215,0.27841747899999997,-0.24822244300000001,0.0014055110000000001,0.0051582220000000005,-0.0030855270000000002,398714138.0,327364372.0,400112.8632,0.0,0.006947389,0.013894779,0.016105221,2.395838845,39.871413700000005,32.7364371,0.041512411,-0.013449009,-0.002252037,0.034962517,-0.03010444,0.024631461,0.033393141,-0.049125159,0.002509906,0.1,0.067924821,0.06912686900000001,-0.009129416999999999,0.14915842,0,0,0,1,0
58364259,0.002476677,0.001940597,-0.016193753999999998,0.14370358,0.0,1491.0,1500.0,1143.0,1499.0,1500.0,1503.0,15.62398812,15.66971144,16.05619192,15.68719655,16.07411002,15.74043441,16.12899724,151.4974858,151.4974858,11.73017258,-0.001246585,-0.005805522,0.0009897489999999998,-0.15878746400000002,-0.004545879,-0.000488825,0.038320039,0.012546068,1.5682915530000001,1.568675078,0.049594143,54.16222739,45.77999837,-0.023228616,-0.002611654,-0.01642652,0.0,-0.586191722,0.226190035,-8.974811986,6.87e+18,954.2104023,11.7295108,0.026462512999999997,-0.042127805,-0.001025222,-0.5707002489999999,0.24833751899999998,-8.970121509,58563550.31,0.028632658999999998,-0.044556736,-0.011681508,6.87e+18,100.04579,102.5734031,-0.12638064599999999,-0.791944553,15.36936488,16.10883353,-0.014789377,0.022783021,-0.325031509,47.19636944,31825513.9,399.63,12.404602,96616.14649,1.147959565,0.041300966,0.013172484,1.570996927,0.706965959,0.009942661,0.01925789,0.706915423,0.153107794,-0.14080721300000001,-0.549025298,-0.47580370299999997,-0.003511095,0.0057526090000000005,-0.0038120370000000003,398714138.0,327364372.0,400111.4153,0.0,0.004878976,0.009757952,0.020242048000000002,3.3279931960000004,39.871413700000005,32.7364371,0.041622999,-0.013818423,-0.0029445590000000002,0.034848727999999995,-0.03122798,0.02517156,0.030571139,-0.052748062000000005,0.010774253999999999,0.1,0.066656515,0.070040048,-0.008655039,0.149671331,0,0,0,1,0
58400326,0.000952268,0.0032991709999999996,-0.016070979,0.143873165,0.0,1491.0,1500.0,1142.0,1499.745949,1499.254051,1503.0,15.62558608,15.671463699999999,16.05796879,15.68554533,16.07239946,15.69538593,16.08284023,151.2594632,151.2594632,11.73022692,-0.001245828,-0.005804826,0.000988355,-0.158760514,-0.004530589000000001,-0.00043111,0.038946986,0.01273305,1.5689271999999999,1.5691751390000002,0.020460704,53.59124519,45.77284572,-0.023201557999999997,-0.002487973,-0.016472017,0.0,-0.570276487,0.225290197,-8.997341834,6.87e+18,954.2109148,11.7295866,0.02943631,-0.041062362000000005,-0.005571563000000001,-0.57399219,0.20656772,-9.086008117999999,58599137.43,0.02615871,-0.039931459,-0.008088627,6.87e+18,100.04579,102.5470657,-0.125063788,-0.796560231,15.36934726,16.10798351,-0.014772731,0.034327879,-0.325248963,47.1537049,31867387.88,399.6284182,12.404602,96616.1454,1.147959641,0.040943545,0.013358948999999998,1.570981965,0.706973935,0.009750536,0.019197376999999998,0.7069117309999999,0.15374047300000002,-0.49847833700000005,-0.236233563,-0.543746734,-0.001449945,0.003937665999999999,-0.001480682,398714138.0,327364372.0,400109.9674,0.0,0.002810562,0.005621124,0.024378876,4.260147547,39.871413700000005,32.7364371,0.041489372000000004,-0.014192243,-0.0038101990000000002,0.033857636,-0.031113191000000002,0.024307055,0.036632096,-0.048544408,-0.024199408999999998,0.1,0.065310413,0.071221085,-0.008214998000000001,0.15027621,0,0,0,1,0
58432394,0.0007645460000000001,0.004623198,-0.016075838999999998,0.14352152,0.0,1491.0,1500.0,1142.0,1499.0,1500.0,1504.0,15.62718403,15.67321596,16.05974566,15.6838941,16.07068891,15.67503239,16.06203187,151.0214407,151.0214407,11.73028126,-0.001245072,-0.00580413,0.000986961,-0.158733563,-0.004515298,-0.000373395,0.039573933,0.012920032,1.5695628480000001,1.5696752,-0.008672735,53.020263,45.76569308,-0.023173634,-0.002358536,-0.016515626000000002,0.0,-0.554539139,0.199571842,-9.047284755,5.31e+18,954.2125998,11.72966945,0.031815187,-0.049151152000000004,-0.009815326,-0.547389098,0.264249553,-9.119681558,58634724.54,0.024824849,-0.036355912000000004,-0.006559186,5.31e+18,100.04579,102.520588,-0.123739924,-0.802185864,15.36932238,16.10676352,-0.014748831,0.047789889,-0.325463756,47.11201782,31909261.85,399.4981635,12.404602,96617.67894,1.147977876,0.040648172999999996,0.013552663999999999,1.570967073,0.7069815629999999,0.00957778,0.019161361000000002,0.70690748,0.154368756,-0.299957553,0.17987996399999998,0.18204378899999998,-0.002531044,0.007498834,-0.001416556,398714138.0,327364372.0,400108.5195,0.0,0.000742148,0.001484297,0.028515702999999996,5.192301898,39.871413700000005,32.7364371,0.041355745,-0.014566063,-0.004675839,0.032866544,-0.030998402,0.023442551000000002,0.042693052999999995,-0.044340755,-0.059173073,0.1,0.063915184,0.072666274,-0.007718694,0.15070240599999998,0,0,0,1,0
