timestamp,control[0],control[1],control[2],control[3],control[4],output[2],output[3],output[4],output[5],output[6],output[7],indicated_airspeed_m_s,true_airspeed_m_s,indicated_airspeed_m_s.1,equivalent_airspeed_m_s,true_airspeed_m_s.1,equivalent_ground_minus_wind_m_s,true_ground_minus_wind_m_s,differential_pressure_raw_pa,differential_pressure_filtered_pa,temperature,gyro_bias[0],gyro_bias[1],gyro_bias[2],accel_bias[0],accel_bias[1],accel_bias[2],instance_count,seq_reached,seq_current,seq_total,item_changed_index,item_do_jump_remaining,valid,warning,finished,failure,stay_in_failsafe,flight_termination,item_do_jump_changed,execution_mode,nav_roll,nav_pitch,nav_bearing,target_bearing,xtrack_error,wp_dist,acceptance_radius,rollspeed_integ,pitchspeed_integ,yawspeed_integ,additional_integ1,x,y,z,temperature.1,pressure,temperature.2,gyro_rad[0],gyro_rad[1],gyro_rad[2],accelerometer_m_s2[0],accelerometer_m_s2[1],accelerometer_m_s2[2],device_id,x.1,y.1,z.1,temperature.3,altitude_sp,altitude_filtered,height_rate_setpoint,height_rate,airspeed_sp,airspeed_filtered,airspeed_derivative_sp,airspeed_derivative,throttle_integ,pitch_integ,baro_alt_meter,baro_temp_celcius,baro_pressure_pa,rho,xyz[0],xyz[1],xyz[2],xyz[0].1,xyz[1].1,xyz[2].1,roll_body,pitch_body,yaw_body,q_d[0],q_d[1],q_d[2],q_d[3],thrust_body[0],lat,lon,alt,vel_m_s,vel_n_m_s,vel_e_m_s,vel_d_m_s,cog_rad,ground_contact,maybe_landed,landed,ref_lat,ref_lon,x.2,y.2,z.2,vx,vy,vz,ax,ay,az,yaw,dist_bottom,roll,pitch,yaw.1,thrust_body[0].1,timestamp.1,isTakeoff,isClimbing,isDescending,isCruise,isLand
53001643,-0.000662159,0.014117257,-0.054974362,0.14610997,0.0,1472.0,1500.0,1144.567714,1500.0,1499.0,1501.567714,13.15802216,13.484048800000002,13.16034413,13.13485274,13.46021218,12.90509909,13.22476667,106.1652096,106.1652096,11.71732941,-0.001396555,-0.005788234000000001,0.0006235430000000001,-0.196443378,0.188040268,-0.01835959,2.0,0.634326865,1.634326865,11,0,0,1.0,0.0,0.0,0,0,0,0,0,0.021693109,-0.023349209,-1.597457124,-1.59344627,0.21364443,136.2636794,38.50652629,-0.026634942999999998,0.001800889,-0.041048065,0.0,-0.9136394090000001,0.196973653,-6.074633094,-340.26352,953.9895521999999,11.71702191,0.006564399,-0.260915471,-0.036244411000000004,-0.931149702,0.150901545,-5.945093002,2294028,0.013276814,-0.23934335899999998,-0.036802958,-340.26352,100.0160737,105.56753549999999,-0.274960177,-1.363837026,15.37161927,13.04518144,0.046528747999999995,-0.973885993,-0.36556560299999996,82.54890873,505.4853892,11.71704095,95399.00813999999,1.133497972,-0.031571212,0.104881899,0.09030185,0.00529556,-0.258601128,-0.037433522000000004,0.026105673,-0.022459447,-1.5948500209999998,0.6985528879999999,0.001082566,-0.017182946,-0.7153512340000001,0.163680869,398713863.5,327313670.0,505933.154,13.49807762,-0.5598459689999999,-13.48061587,0.401688338,4.670688715,0,0,0.0,39.8714138,32.7364372,-3.0146634910000003,-433.13473560000006,-105.77172309999999,-0.507272032,-13.47001321,0.613804208,-0.19836482800000002,0.638878435,3.788580872,-1.6325208740000001,105.9412031,0.066107441,0.223372887,-0.010563313999999999,0.16489449,53001643,0,0,0,1,0
53040010,-0.00226861,0.02258066,-0.054903429000000004,0.14821994,0.0,1472.0,1500.0,1146.0,1500.0,1499.0,1506.6107220000001,13.10915881,13.43410474,13.09233468,13.06717084,13.39089388,12.83527946,13.15325717,104.9887499,104.9887499,11.71697868,-0.001395655,-0.005787766,0.000623006,-0.19644851300000002,0.188042915,-0.018203868,2.0,0.636927385,1.636927385,11,0,0,1.0,0.0,0.0,0,0,0,0,0,0.023267398999999998,-0.022337362000000003,-1.596810659,-1.5932733719999999,0.188807795,135.71817099999998,38.51278032,-0.026599186,0.002507599,-0.04100697,0.0,-0.89872675,0.210838592,-6.139568991,-332.5183818,953.9992005,11.71720742,0.007867306999999999,-0.25283171,-0.034166721000000004,-0.856886661,0.24034352399999998,-5.981970557,2294028,0.015815447,-0.228169535,-0.03588926,-332.5183818,100.0162227,105.5224783,-0.27323402399999996,-1.50052096,15.37162179,13.04763011,0.046479824,-0.882732886,-0.365724919,82.19289803,505.38680589999996,11.71725699,95400.13057000001,1.133511346,-0.31392691899999997,-0.112942518,-0.274092475,0.007885237,-0.251379847,-0.035901903,0.026737043999999998,-0.020721639,-1.595161271,0.698439417,0.001922221,-0.016802275,-0.715469294,0.165099463,398713861.5,327313601.2,505924.8324,13.46687137,-0.568167634,-13.44732942,0.580604121,4.669962588,0,0,0.0,39.8714138,32.7364372,-3.039017565,-433.72754789999993,-105.7491888,-0.517628605,-13.44398422,0.780994174,-0.210578181,0.593541922,3.712858611,-1.633698305,105.9186688,0.06522528799999999,0.23363962100000002,-0.009871773,0.16573992,53040010,0,0,0,1,0
53090376,-0.001433419,0.034621583,-0.054490185999999996,0.15025428,0.0,1472.0,1500.0,1148.0,1500.346269,1498.653731,1511.0,13.17884781,13.50543183,13.1203511,13.09542159,13.41978144,12.86088245,13.17943279,105.4493662,105.4493662,11.71755073,-0.001394778,-0.005786906,0.000622299,-0.19643855600000001,0.188043593,-0.018096873,2.0,0.639527906,1.6395279059999999,11,0,0,1.0,0.0,0.0,0,0,0,0,0,0.024841689,-0.021325514,-1.596164195,-1.593100474,0.163971161,135.1726626,38.51903436,-0.026559102999999997,0.003358711,-0.040949702000000004,0.0,-0.8983133520000001,0.128639108,-6.233585032000001,-183.2484465,954.0069187999999,11.71746611,0.007431589000000001,-0.24265297,-0.030289776,-0.9722050609999999,0.157237019,-6.098576852000001,2294028,0.011485087,-0.222904314,-0.034115873,-183.2484465,100.0162968,105.4452467,-0.269657916,-1.62816666,15.37158752,13.07850934,0.045861554000000006,-0.785226869,-0.36588994399999997,81.81412054,505.36969860000005,11.71751161,95400.32479,1.1335137309999999,0.41231692799999997,-0.761072317,-0.8621732409999999,0.008769096,-0.24462119699999998,-0.0344793,0.027278254,-0.018948934,-1.5954710490000001,0.6983255420000001,0.0027430109999999996,-0.016377411,-0.7155876640000001,0.16662321300000002,398713859.4,327313534.7,505890.229,13.44864357,-0.5764892979999999,-13.43188822,0.7351850209999999,4.6692930630000005,0,0,0.0,39.8714138,32.7364372,-3.062344605,-434.27465970000003,-105.7138965,-0.528141964,-13.42660437,0.926667542,-0.253598778,0.42524710600000004,3.621806753,-1.634839348,105.88337649999998,0.06432252200000001,0.247806943,-0.008934934,0.16736573,53090376,0,0,0,1,0
53136743,-0.001533809,0.04525803900000001,-0.053220519,0.15159339,0.0,1472.0,1500.0,1150.0,1500.0,1499.0,1517.0,13.11409236,13.43909328,13.14836752,13.12367234,13.44866899,12.88648545,13.205608400000001,105.90998259999999,105.90998259999999,11.71812278,-0.0013939,-0.0057860459999999996,0.000621591,-0.196428598,0.188044271,-0.017989876999999998,2.0,0.642128426,1.642128426,11,0,0,1.0,0.0,0.0,0,0,0,0,0,0.02641598,-0.020313666,-1.59551773,-1.592927576,0.139134526,134.62715419999998,38.525288399999994,-0.026523038,0.0040941020000000005,-0.040898777000000004,0.0,-0.8978999540000001,0.046439624000000006,-6.3276010739999995,-33.97851112,954.0146372000002,11.71772481,0.008321538,-0.23751444300000002,-0.03420486,-0.970827109,0.13367570199999998,-6.191322114,2294028,0.007154727,-0.217639093,-0.032342487,-33.97851112,100.01636429999999,105.36510829999999,-0.265914677,-1.754995822,15.37154992,13.11195706,0.045191848,-0.687146913,-0.366055485,81.43328623,505.2492529,11.71781385,95401.69785,1.133529973,-0.8365668479999999,-0.6424135870000001,0.289262575,0.009695464,-0.23369199699999998,-0.032871219,0.027790496,-0.017091943000000002,-1.59577901,0.69821127,0.0035840040000000004,-0.015913023999999998,-0.715705983,0.16804337600000002,398713857.3,327313469.0,505848.2046,13.43408045,-0.584810962,-13.42148593,0.8828945420000001,4.668639521,0,0,0.0,39.8714138,32.7364372,-3.085671645,-434.8217715,-105.6786041,-0.538655323,-13.40922453,1.07234091,-0.296619375,0.256952291,3.5307548939999998,-1.63598039,105.84808410000001,0.063966469,0.259057141,-0.008291156,0.16915923,53136743,0,0,0,1,0
53179110,0.005194140999999999,0.054617185,-0.05621496,0.152748844,0.0,1473.0,1500.0,1150.739748,1500.260252,1498.739748,1521.739748,13.16497885,13.49114465,13.17638395,13.15192309,13.47755655,12.91208845,13.23178402,106.3705989,106.3705989,11.71869483,-0.001393023,-0.0057851859999999995,0.000620883,-0.196418641,0.18804495,-0.017882881,2.0,0.644728946,1.6447289459999999,11,0,0,1.0,0.0,0.0,0,0,0,0,0,0.027957842000000004,-0.018539074,-1.594898184,-1.592749354,0.11505941300000001,134.0576814,38.58845554,-0.026483867999999997,0.004894207,-0.040843143,0.0,-0.863419356,0.06973619,-6.4225162529999995,-91.85581624,954.0165880000001,11.71804647,0.006630604,-0.22763872699999999,-0.036263804,-0.879930524,0.144197882,-6.283009063,2294028,0.0047154829999999995,-0.20763995899999999,-0.030494382,-91.85581624,100.0164317,105.28496990000001,-0.262171439,-1.881824984,15.37151232,13.14540478,0.044522143,-0.589066957,-0.366221025,81.05245192,505.2459678999999,11.71816303,95401.75048,1.1335306520000001,0.185276962,0.21710233,0.478306695,0.007567221,-0.22688984399999998,-0.035378311,0.028309868,-0.0152029,-1.5960851809999999,0.6980964409999999,0.004439114,-0.015440246000000001,-0.7158234520000001,0.169663448,398713855.2,327313403.3,505806.1802,13.41951733,-0.593132627,-13.41108364,1.030604063,4.667985979,0,0,0.0,39.8714138,32.7364372,-3.1114352660000004,-435.40008660000007,-105.6306057,-0.54968496,-13.39673585,1.2185137670000001,-0.284881905,0.200746428,3.4043541619999997,-1.637083885,105.80008570000001,0.063369998,0.270402278,-0.007453100000000001,0.17079082,53179110,0,0,0,1,0
53225477,0.004905164,0.065675913,-0.057675462999999996,0.154059533,0.0,1473.0,1500.0,1152.0,1501.0,1498.0,1525.782757,13.1082075,13.43287287,13.20440037,13.18017384,13.5064441,12.93769145,13.25795964,106.8312152,106.8312152,11.71926687,-0.001392145,-0.005784325999999999,0.000620175,-0.196408683,0.18804562800000002,-0.017775886,2.0,0.647329466,1.647329466,11,0,0,1.0,0.0,0.0,0,0,0,0,0,0.029482611000000002,-0.016362458,-1.594292826,-1.5925683240000001,0.091385682,133.47557759999998,38.68162021,-0.026442524,0.005734556,-0.040786539,0.0,-0.813908429,0.13957724,-6.517828128,-241.12575159999997,954.0159943,11.71839592,0.006943928,-0.22081349,-0.03155841,-0.886434672,0.068567444,-6.383470694,2294028,0.003110592,-0.19555224,-0.028613312999999998,-241.12575159999997,100.01649909999999,105.2048315,-0.2584282,-2.008654145,15.37147473,13.1788525,0.043852437,-0.49098700100000003,-0.366386565,80.67161762,505.1748329,11.71852828,95402.57966,1.133540497,0.049138655999999996,-0.344542681,0.20200755,0.010097146999999999,-0.218190775,-0.036801979,0.028901916,-0.013114323999999998,-1.596389696,0.697980391,0.00539117,-0.01492411,-0.715940967,0.17100955899999998,398713853.1,327313337.5,505764.1558,13.404954199999999,-0.601454291,-13.40068135,1.178313584,4.667332437,0,0,0.0,39.8714138,32.7364372,-3.138273897,-435.9921683,-105.5770014,-0.560942376,-13.38640515,1.3649069980000001,-0.248985368,0.193993815,3.26235763,-1.638170815,105.74648140000001,0.062574338,0.27807638,-0.006884,0.17152816,53225477,0,0,0,1,0
53263844,0.0035771320000000002,0.073782975,-0.057654589000000006,0.15536454,0.0,1471.0,1500.0,1153.0,1497.0,1502.0,1531.0,13.13485929,13.4602689,13.23241679,13.20842459,13.53533166,12.96329444,13.28413526,107.29183159999998,107.29183159999998,11.71983892,-0.001391267,-0.005783466,0.0006194680000000001,-0.19639872600000002,0.18804630600000002,-0.01766889,2.0,0.649929986,1.6499299859999998,11,0,0,1.0,0.0,0.0,0,0,0,0,0,0.03100738,-0.014185841999999999,-1.5936874680000002,-1.592387295,0.06771195,132.8934737,38.77478489,-0.026406666000000002,0.006508469,-0.040740658,0.0,-0.778746297,0.161874128,-6.629579883,-340.26352,954.0222799000001,11.71877143,0.008724291,-0.20746630600000002,-0.030402488999999998,-0.85580094,0.157836327,-6.521579898,2294028,0.004953353,-0.186437023,-0.02688002,-340.26352,100.0165597,105.12276399999999,-0.25456382,-2.129187761,15.37142702,13.21387851,0.04315096400000001,-0.39609363799999997,-0.36654732700000003,80.3015579,505.1042016,11.71895986,95403.36068,1.1335496809999999,-0.337987556,0.038274224,0.102473156,0.01013841,-0.21036459,-0.035605943,0.029449575,-0.010974332,-1.59669236,0.697863902,0.00634631,-0.014374413999999999,-0.716058038,0.172365569,398713851.1,327313271.8,505722.1314,13.39039108,-0.609775955,-13.39027906,1.326023105,4.666678895,0,0,0.0,39.8714138,32.7364372,-3.164674163,-436.5687339,-105.520312,-0.572166721,-13.37860219,1.5035017990000001,-0.23660888800000002,0.166316238,3.1374693380000003,-1.6392112980000002,105.689792,0.06213569099999999,0.288208819,-0.006302126999999999,0.17314783,53263844,0,0,0,1,0
53302211,0.003520988,0.081406483,-0.056861872,0.15685466,0.0,1471.0,1500.0,1155.0,1497.868774,1501.131226,1535.868774,13.22852406,13.55612621,13.26043321,13.23667534,13.56421921,12.98889744,13.31031087,107.7524479,107.7524479,11.72041097,-0.00139039,-0.005782606,0.00061876,-0.19638876800000002,0.18804698399999997,-0.017561893999999998,2.0,0.6525305060000001,1.652530506,11,0,0,1.0,0.0,0.0,0,0,0,0,0,0.032532148999999996,-0.012009226000000001,-1.59308211,-1.592206265,0.044038218,132.3113699,38.86794956,-0.026368093999999998,0.0073370430000000006,-0.040686659,0.0,-0.771959312,0.09015109800000001,-6.77384196,-340.26352,954.0421695,11.71919848,0.015512357,-0.204344627,-0.02647183,-0.816431262,0.122182469,-6.659263328,2294028,0.013613943,-0.183200014,-0.025438961,-340.26352,100.01658370000001,105.03027409999999,-0.25004497600000003,-2.2157100709999997,15.37132473,13.25743114,0.04227787,-0.31841565,-0.366682268,79.98970727,505.04626270000006,11.71939543,95404.02415,1.133557603,-0.243762356,-0.011983886000000001,-0.199722012,0.010378544,-0.19478356800000002,-0.03197552,0.03979265,-0.008778124,-1.588022813,0.70090309,0.010819522,-0.017260739,-0.7129587479999999,0.17370091399999998,398713848.6,327313205.0,505655.4093,13.389999,-0.620122018,-13.387974800000002,1.4474154030000002,4.66588407,0,0,0.0,39.8714138,32.7364372,-3.1902075460000003,-437.1146159,-105.457522,-0.583325665,-13.37579793,1.626674986,-0.27074398,0.097258957,3.0464130689999998,-1.6401599340000002,105.627002,0.078510394,0.298007766,-0.0056506230000000005,0.174483,53302211,0,0,0,1,0
53341155,0.0012203,0.08960592,-0.056982900999999996,0.157576429,0.0,1471.0,1500.0,1156.0,1498.0,1501.0,1539.0,13.33764689,13.66782126,13.28844963,13.26492609,13.59310677,13.01450044,13.33648649,108.2130642,108.2130642,11.72098302,-0.001389512,-0.005781745,0.000618052,-0.19637881100000001,0.188047662,-0.017454898,2.0,0.6551310260000001,1.6551310259999998,11,0,0,1.0,0.0,0.0,0,0,0,0,0,0.034056919,-0.00983261,-1.5924767519999998,-1.592025236,0.020364486,131.729266,38.96111423,-0.02633518,0.008117467,-0.040643601,0.0,-0.765172326,0.018428068,-6.918104037000001,-340.26352,954.0620591,11.71962553,0.015778656000000002,-0.186968176,-0.027079856,-0.879887819,0.053011007,-6.704075822,2294028,0.022274533,-0.17996300399999998,-0.023997901000000002,-340.26352,100.01660759999999,104.9377842,-0.24552613199999998,-2.3022323819999997,15.37122244,13.30098377,0.041404775,-0.240737662,-0.36681721,79.67785664,504.8667745,11.71988183,95406.05253,1.1335817559999999,0.025871462,0.46764639700000005,-0.767649751,0.016690132,-0.193109741,-0.031318503,0.042437385999999994,-0.006548264,-1.5864260430000001,0.701447105,0.012552328,-0.017415949,-0.712398063,0.174947556,398713846.1,327313138.2,505588.0038,13.389999,-0.630524093,-13.38589459,1.568079557,4.665085336000001,0,0,0.0,39.8714138,32.7364372,-3.21574093,-437.66049789999994,-105.394732,-0.594484608,-13.37299367,1.749848174,-0.304879071,0.028201677,2.9553568,-1.641108569,105.56421200000001,0.077723921,0.30764622399999997,-0.00496814,0.17613715,53341155,0,0,0,1,0
53386945,0.0022266910000000003,0.09810911900000001,-0.056689719000000006,0.1588557,0.0,1471.0,1500.0,1157.0,1499.0,1500.0,1543.9547910000001,13.18003991,13.50631363,13.31646605,13.29317684,13.62199432,13.04010343,13.36266211,108.67368059999998,108.67368059999998,11.72155507,-0.001388635,-0.005780885,0.000617344,-0.196368853,0.18804834,-0.017347903,2.0,0.6577315460000001,1.657731546,11,0,0,1.0,0.0,0.0,0,0,0,0,0,0.035581688,-0.007655993000000001,-1.591871394,-1.591844206,-0.0033092459999999996,131.1471622,39.0542789,-0.02629767,0.008921351999999999,-0.040593989,0.0,-0.80011695,0.060066612,-7.054035715,-340.26352,954.0668956000001,11.72025495,0.018076377,-0.184108472,-0.029940854,-0.8181724909999999,0.134760081,-6.898372579,2294028,0.023051107,-0.16954811,-0.026376905,-340.26352,100.0166316,104.84529429999999,-0.24100728800000001,-2.388754692,15.37112015,13.3445364,0.040531681,-0.16305967300000002,-0.366952151,79.36600601,504.9375095,11.72039791,95405.25182,1.133572239,0.166119285,0.7157895240000001,-0.281502566,0.021713748999999997,-0.17850754800000002,-0.029690182000000002,0.04303199,-0.00430085,-1.586749444,0.701313023,0.013558768999999998,-0.016841821,-0.712525414,0.176365275,398713843.6,327313071.5,505520.5983,13.389999,-0.640926167,-13.38381438,1.6887437109999999,4.664286602,0,0,0.0,39.8714138,32.7364372,-3.244666503,-438.2508671,-105.3139863,-0.607007361,-13.3779643,1.8697853830000002,-0.31932204399999997,-0.059010090999999994,2.7925435060000003,-1.64203618,105.48346629999999,0.076333174,0.313790382,-0.004290582,0.17678732,53386945,0,0,0,1,0
53429311,0.000289474,0.107315574,-0.057829437000000004,0.16047022,0.0,1471.0,1500.0,1158.0,1499.0,1500.0,1548.0,13.27894554,13.60773639,13.34448247,13.32142758,13.65088188,13.06570643,13.38883773,109.13429690000001,109.13429690000001,11.72212711,-0.001387757,-0.005780025,0.0006166359999999999,-0.196358896,0.188049018,-0.017240907,2.0,0.660332066,1.660332066,11,0,0,1.0,0.0,0.0,0,0,0,0,0,0.037106457,-0.005479377,-1.591266036,-1.5916631769999998,-0.026982977999999998,130.56505829999998,39.14744357,-0.026252097000000002,0.009726361,-0.040540513,0.0,-0.8360077309999999,0.104275342,-7.189778522,-340.26352,954.0713909,11.72088896,0.020866722,-0.179522254,-0.027085811,-0.819173037,0.047832192999999995,-6.923092194,2294028,0.02364893,-0.158970477,-0.028842519,-340.26352,100.0166555,104.75280440000002,-0.236488445,-2.475277003,15.37101786,13.38808903,0.039658586,-0.085381685,-0.367087093,79.05415538,504.81109019999997,11.7209577,95406.70215,1.1335894690000001,0.470022406,0.212130383,-0.23863617399999998,0.020201531000000002,-0.166580977,-0.030291681,0.043469003,-0.001938705,-1.5870721819999998,0.701178071,0.014551006000000002,-0.016171625,-0.712654228,0.177600487,398713841.1,327313004.7,505453.1928,13.389999,-0.651328241,-13.38173417,1.809407864,4.663487868,0,0,0.0,39.8714138,32.7364372,-3.273668985,-438.8422449,-105.2328334,-0.619561035,-13.3831112,1.989649224,-0.333318548,-0.146633465,2.628103303,-1.642963314,105.40231340000001,0.07497802,0.321900855,-0.0036151309999999997,0.17829764,53429311,0,0,0,1,0
53467678,0.000305633,0.114861721,-0.057313565999999996,0.162316983,0.0,1471.0,1500.0,1160.0,1499.0,1500.0,1552.040808,13.12962404,13.45458426,13.3724989,13.34967833,13.67976943,13.09130943,13.41501334,109.5949132,109.5949132,11.72269916,-0.001386879,-0.005779165,0.000615929,-0.196348938,0.18804969600000002,-0.017133911,2.0,0.662932587,1.6629325869999998,11,0,0,1.0,0.0,0.0,0,0,0,0,0,0.038631227000000004,-0.003302761,-1.590660678,-1.5914821469999998,-0.05065671,129.9829545,39.24060824,-0.026204175,0.010531700000000001,-0.040490161000000004,0.0,-0.8526288590000001,0.107110993,-7.32624115,-340.26352,954.0784884999999,11.72149116,0.023222802999999997,-0.163492931,-0.028473123,-0.830000555,0.061566504,-7.122245137,2294028,0.022595643999999998,-0.14710590099999998,-0.028983582,-340.26352,100.01667420000001,104.65473659999999,-0.231669839,-2.552037341,15.37093392,13.43742327,0.038670223999999996,-0.011934558999999999,-0.36721802,78.75512259999999,504.7035943,11.72153449,95407.94604,1.133604257,0.491208527,-0.016097956,0.040020393,0.026891927000000003,-0.16499112800000001,-0.027845249,0.043955597,0.00035257,-1.587393504,0.701042368,0.015535563999999998,-0.015544239,-0.712780847,0.17904182100000002,398713838.6,327312937.7,505381.2192,13.39242152,-0.661384248,-13.38207642,1.926611319,4.662707223,0,0,0.0,39.8714138,32.7364372,-3.3018217169999997,-439.4057971,-105.1488128,-0.6310427439999999,-13.39198497,2.095776548,-0.326298127,-0.21908676300000002,2.492749262,-1.643819504,105.31829280000001,0.073661031,0.328717839,-0.002908144,0.18004313,53467678,0,0,0,1,0
53514045,-0.000120271,0.121087653,-0.055634555999999995,0.16370567,0.0,1471.0,1500.0,1161.0,1499.0,1500.0,1556.0,13.19989402,13.52660027,13.40051532,13.37792908,13.70865699,13.11691242,13.44118896,110.05552949999999,110.05552949999999,11.72327121,-0.0013860020000000001,-0.005778305,0.000615221,-0.19633898100000002,0.188050374,-0.017026916,2.0,0.665533107,1.665533107,11,0,0,1.0,0.0,0.0,0,0,0,0,0,0.040155996,-0.001126145,-1.59005532,-1.591301118,-0.074330442,129.4008507,39.33377291,-0.026160352,0.011355298,-0.040442626,0.0,-0.857430093,0.08456863699999999,-7.463145312999999,-340.26352,954.0871822,11.72207385,0.021369796,-0.150303207,-0.024560917999999998,-0.8710444479999999,0.05782355,-7.192631914,2294028,0.020529577,-0.134451922,-0.027698779,-340.26352,100.01668470000001,104.54813399999999,-0.22639256300000002,-2.6138606859999998,15.37087805,13.49560406,0.037505487000000004,0.055038839000000006,-0.367342806,78.47570266,504.65962699999994,11.72212782,95408.46396000001,1.13361039,-0.17652950899999997,0.35456048799999995,-0.17292032300000001,0.022252117999999998,-0.146543888,-0.032053218,0.044393046,0.002646349,-1.5877141730000002,0.700905863,0.016503976,-0.014898761000000002,-0.712907042,0.180491013,398713835.8,327312869.7,505286.3523,13.40698464,-0.669705918,-13.39455891,2.02647127,4.662017232,0,0,0.0,39.8714138,32.7364372,-3.3294532180000003,-439.9522813,-105.06303319999999,-0.641866915,-13.40314476,2.1934779719999997,-0.306386048,-0.282234825,2.375236505,-1.6446321780000002,105.2325132,0.072621483,0.335217076,-0.002377175,0.18151483,53514045,0,0,0,1,0
53552412,-0.000260992,0.127774181,-0.055364737000000004,0.16489449,0.0,1472.0,1500.0,1163.0,1500.0,1499.0,1559.0,13.35965193,13.69021537,13.42853174,13.40617983,13.73754454,13.14251542,13.46736458,110.5161459,110.5161459,11.72384326,-0.001385124,-0.005777445,0.000614513,-0.19632902300000002,0.188051053,-0.01691992,2.0,0.668133627,1.6681336269999998,11,0,0,1.0,0.0,0.0,0,0,0,0,0,0.041680765,0.001050471,-1.5894499619999998,-1.5911200890000001,-0.098004174,128.81874679999999,39.42693758,-0.026118693,0.0121809,-0.040399984,0.0,-0.8494888420000001,0.074071348,-7.606023626,-340.26352,954.095665,11.72266998,0.022082453999999998,-0.142379632,-0.024173805,-0.7997803490000001,0.16597537099999998,-7.3877510310000005,2294028,0.019275415,-0.121666822,-0.026356886,-340.26352,100.0166952,104.4415313,-0.221115287,-2.67568403,15.37082218,13.55378486,0.036340751,0.122012236,-0.367467592,78.19628273,504.5996994,11.72277533,95409.15242,1.1336184790000001,-0.332305313,-0.426385086,-0.231600785,0.024771982,-0.13966451,-0.023201898999999998,0.044839937999999996,0.004985165,-1.5880331769999998,0.7007681440000001,0.017491933,-0.014241148,-0.713032288,0.181856548,398713833.1,327312801.6,505191.4853,13.42154776,-0.678027589,-13.40704141,2.126331221,4.661327241,0,0,0.0,39.8714138,32.7364372,-3.35802421,-440.5111933,-104.9726672,-0.6530312429999999,-13.41624017,2.289665663,-0.285623482,-0.357261771,2.244940495,-1.64546427,105.14214679999999,0.07125701400000001,0.338843767,-0.0018905170000000002,0.182506312,53552412,0,0,0,1,0
53590779,-4.18e-05,0.13427360300000002,-0.055030369,0.16661873,0.0,1472.0,1500.0,1164.0,1499.169834,1499.830166,1563.0,13.33157492,13.66136726,13.45654816,13.43443058,13.7664321,13.16811842,13.4935402,110.9767622,110.9767622,11.72441531,-0.0013842470000000001,-0.005776585,0.000613805,-0.19631906600000001,0.18805173100000003,-0.016812924,2.0,0.670734147,1.670734147,11,0,0,1.0,0.0,0.0,0,0,0,0,0,0.043205534000000004,0.003227087,-1.5888446040000002,-1.590939059,-0.121677906,128.236643,39.52010225,-0.026087116,0.012928028000000001,-0.040362508,0.0,-0.80561608,0.097538976,-7.765747963,-340.26352,954.1035529999999,11.72330398,0.022477882,-0.137676197,-0.022865403,-0.753836513,0.10738647300000001,-7.529692925,2294028,0.020310683,-0.108511983,-0.02485401,-340.26352,100.0167057,104.3349287,-0.21583801100000002,-2.737507375,15.3707663,13.61196566,0.035176014,0.18898563399999999,-0.367592378,77.9168628,504.3972767,11.7234227,95411.4424,1.133645788,0.129569622,0.305008933,-0.683273493,0.026780868,-0.134578163,-0.022841324,0.045058189000000005,0.007265651999999999,-1.588523469,0.700570712,0.018378015,-0.013524315,-0.713218095,0.18336953600000003,398713830.4,327312733.6,505096.6183,13.43611088,-0.68634926,-13.4195239,2.226191172,4.66063725,0,0,0.0,39.8714138,32.7364372,-3.389244402,-441.10514950000004,-104.8693686,-0.665154751,-13.43479366,2.3815849019999997,-0.262462701,-0.46578503299999996,2.078598018,-1.646351116,105.0388465,0.069905878,0.34358224,-0.0013936620000000002,0.18388194,53590779,0,0,0,1,0
53641146,-0.000443984,0.141394661,-0.05423751,0.1682463,0.0,1472.0,1500.0,1165.0,1500.0,1499.0,1565.212843,13.36540071,13.69599068,13.48456458,13.46268133,13.79531965,13.19372142,13.51971581,111.4373785,111.4373785,11.72498735,-0.001383369,-0.005775725,0.0006130980000000001,-0.196309108,0.18805240899999998,-0.016705928000000002,2.0,0.673334667,1.6733346669999998,11,0,0,1.0,0.0,0.0,0,0,0,0,0,0.044730304000000005,0.005403703,-1.5882392459999999,-1.59075803,-0.145351637,127.65453909999998,39.61326693,-0.026049548999999998,0.013710679,-0.040320378999999996,0.0,-0.761743319,0.121006604,-7.9254723,-340.26352,954.111441,11.72393799,0.022131787000000003,-0.128653389,-0.025335847,-0.791979057,0.08386616200000001,-7.598642164,2294028,0.02134595,-0.095357143,-0.023351133,-340.26352,100.0167162,104.22832609999999,-0.210560735,-2.79933072,15.37071043,13.67014645,0.034011278,0.255959032,-0.367717164,77.63744286,504.34596669999996,11.72410971,95412.04262000001,1.13365296,-0.34458569299999997,-0.11382837300000001,-0.40279474,0.025957587,-0.120766574,-0.023791727999999998,0.045403655999999994,0.009691705,-1.588838409,0.700431954,0.019362002,-0.012800598,-0.713341583,0.18452691,398713827.7,327312665.6,505001.7514,13.450674,-0.69467093,-13.4320064,2.326051124,4.659947259,0,0,0.0,39.8714138,32.7364372,-3.420464593,-441.6991057,-104.7660701,-0.677278258,-13.45334716,2.473504141,-0.23930191899999997,-0.574308296,1.91225554,-1.647237962,104.9355462,0.068863147,0.348064855,-0.000964749,0.185215958,53641146,0,0,0,1,0
53679513,-0.001449861,0.14623307900000002,-0.053895623,0.16915923,0.0,1472.0,1500.0,1167.0,1500.255851,1498.744149,1568.255851,13.44971466,13.78219437,13.512580999999999,13.49093208,13.82420721,13.21932441,13.54589143,111.8979949,111.8979949,11.7255594,-0.001382491,-0.005774864,0.00061239,-0.196299151,0.18805308699999998,-0.016598933,2.0,0.675935187,1.6759351869999999,11,0,0,1.0,0.0,0.0,0,0,0,0,0,0.045934233,0.0076254999999999995,-1.5876821980000002,-1.590563184,-0.168538756,127.0548314,39.74216414,-0.026012967,0.014542758000000001,-0.040285554,0.0,-0.7786703079999999,0.078322999,-8.051030397,-205.35430119999998,954.1305321000001,11.72461876,0.021216429,-0.11492594099999999,-0.012259484,-0.81034176,0.17623470300000002,-7.7920560960000005,2294028,0.022063954,-0.087440331,-0.018728993,-205.35430119999998,100.01671999999999,104.10617990000001,-0.204472763,-2.8477997189999997,15.37059621,13.73718082,0.032668304,0.31814465399999997,-0.367845462,77.36453704,504.2330732,11.72481138,95413.32095,1.133668052,0.177739288,0.9778997540000001,-0.596261839,0.026153692000000003,-0.10807827699999999,-0.023552842999999997,0.045805547,0.012015466,-1.589151246,0.700293067,0.020329478999999998,-0.012133122,-0.71346268,0.18594017300000001,398713825.0,327312598.2,504901.797,13.46972595,-0.7067333440000001,-13.45047409,2.414688845,4.659074488,0,0,0.0,39.8714138,32.7364372,-3.450320281,-442.25359979999996,-104.6629478,-0.6885561579999999,-13.47591472,2.547026292,-0.22150854,-0.589118537,1.7831494630000002,-1.647960881,104.8324253,0.067553019,0.350020495,-0.0005111380000000001,0.18620017,53679513,0,0,0,1,0
53721880,-0.002966592,0.150407812,-0.052591008,0.17079082,0.0,1473.0,1500.0,1169.0,1500.0,1499.0,1572.0,13.49867298,13.83228171,13.54059742,13.51918283,13.85309476,13.24492741,13.57206705,112.3586112,112.3586112,11.72613145,-0.001381614,-0.005774004,0.000611682,-0.196289193,0.188053765,-0.016491936999999998,2.0,0.678535707,1.678535707,11,0,0,1.0,0.0,0.0,0,0,0,0,0,0.047075625999999995,0.009856104000000001,-1.587134566,-1.590365646,-0.19163102699999998,126.45169250000001,39.87802617,-0.025979124,0.015253603999999999,-0.040249834,0.0,-0.802070756,0.028596153,-8.172950753,-56.08105293,954.1508161,11.7253045,0.021910383,-0.099383109,-0.020555697,-0.809407228,0.10399209699999999,-7.949177484,2294028,0.022748177999999997,-0.080081221,-0.013774739,-56.08105293,100.01671999999999,103.9750717,-0.19791736199999999,-2.888568914,15.37044834,13.80931996,0.031222563,0.377569758,-0.367975784,77.09538711,504.03633499999995,11.72553759,95415.58498,1.1336949790000002,-0.121203825,0.682659383,0.213173983,0.023409395,-0.10230354300000001,-0.02204874,0.046137829000000005,0.014269933,-1.589462489,0.700154877,0.021248048,-0.011465342,-0.713582554,0.187557595,398713822.0,327312532.1,504792.7832,13.49677135,-0.72545708,-13.47959992,2.483342597,4.657876231,0,0,0.0,39.8714138,32.7364372,-3.4800306880000003,-442.8038922,-104.5598443,-0.699744024,-13.49890966,2.6185896719999997,-0.20428663800000002,-0.593950984,1.6580080130000001,-1.648666346,104.72932349999999,0.066157194,0.353363045,-4.01e-05,0.18809235,53721880,0,0,0,1,0
53760246,-0.001555296,0.15569104,-0.0522332,0.17231545,0.0,1473.0,1500.0,1170.0,1501.341868,1497.658132,1574.0,13.45851057,13.79112678,13.56861384,13.54743358,13.88198232,13.27053041,13.59824267,112.8192275,112.8192275,11.726703500000001,-0.001380736,-0.005773144,0.000610974,-0.19627923600000002,0.18805444300000002,-0.016384941,2.0,0.681136227,1.6811362269999999,11,0,0,1.0,0.0,0.0,0,0,0,0,0,0.048217018,0.012086707,-1.5865869330000002,-1.590168108,-0.214723298,125.84855359999999,40.013888200000004,-0.025946311,0.016012906,-0.040211135,0.0,-0.793940051,0.034162298,-8.347009825,-69.74096339,954.1640965,11.7260046,0.019941503,-0.093786076,-0.019331063,-0.718336593,0.169200402,-8.119453616,2294028,0.023084458999999998,-0.071692639,-0.01316031,-69.74096339,100.01671999999999,103.8439635,-0.191361962,-2.92933811,15.37030047,13.881459099999999,0.029776822,0.43699486200000004,-0.368106107,76.82623718,504.01021119999996,11.72626284,95415.87192,1.133698428,0.423648554,0.47534765100000004,0.41392664,0.025051711,-0.089378754,-0.020538839,0.046276017999999995,0.016434304,-1.5897720309999999,0.7000193090000001,0.022066724,-0.010760101999999999,-0.713701733,0.18940105899999998,398713819.1,327312465.9,504683.7694,13.52381676,-0.744180817,-13.50872575,2.5519963480000003,4.656677974,0,0,0.0,39.8714138,32.7364372,-3.51179525,-443.38082189999994,-104.44835090000001,-0.71156398,-13.52602353,2.6859307310000005,-0.20024479,-0.6246953470000001,1.526966743,-1.6493686630000002,104.6178309,0.065179732,0.356196765,0.000266547,0.19027567,53760246,0,0,0,1,0
53802613,0.003141858,0.15946253900000001,-0.051251156,0.173586483,0.0,1473.0,1500.0,1171.0,1501.0,1498.0,1576.0,13.50665038,13.84044202,13.59663027,13.57568433,13.91086987,13.2961334,13.62441828,113.2798439,113.2798439,11.72727555,-0.001379859,-0.005772284,0.000610267,-0.19626927800000002,0.18805512100000002,-0.016277946,2.0,0.683736747,1.683736747,11,0,0,1.0,0.0,0.0,0,0,0,0,0,0.049358411,0.014317311000000001,-1.586039301,-1.58997057,-0.237815568,125.24541459999999,40.14975024,-0.02591416,0.016764007,-0.040187272,0.0,-0.759565177,0.085750181,-8.564465252,-219.0142117,954.1715477,11.72671664,0.022085807000000002,-0.07660538,-0.015180266000000001,-0.75850463,0.048767599,-8.273198566,2294028,0.023131138,-0.062447200999999994,-0.016158026000000002,-219.0142117,100.01671999999999,103.7128553,-0.184806561,-2.970107306,15.370152599999999,13.95359824,0.02833108,0.496419966,-0.36823643,76.55708725,503.924053,11.7270191,95416.86511,1.133710203,0.013878536,-0.004088449,0.016711791,0.025710236,-0.08053018299999999,-0.021530128,0.058114502,0.018623898,-1.579716343,0.703425897,0.027062178,-0.014081637,-0.710112944,0.191143463,398713816.2,327312399.7,504574.7556,13.55086217,-0.7629045529999999,-13.53785157,2.6206501,4.6554797169999995,0,0,0.0,39.8714138,32.7364372,-3.545269537,-443.97992220000003,-104.3298743,-0.7239100390000001,-13.55656569,2.749757447,-0.20717302899999998,-0.677006845,1.391014905,-1.650068361,104.4993543,0.080889835,0.356442595,0.000581968,0.19115543,53802613,0,0,0,1,0
53840980,0.0043749259999999995,0.163746829,-0.051161384000000004,0.174483,0.0,1473.427886,1500.0,1173.0,1501.0,1498.0,1579.0,13.59671046,13.93264118,13.62464669,13.60393508,13.93975743,13.3217364,13.6505939,113.7404602,113.7404602,11.72784759,-0.001378981,-0.005771424,0.000609559,-0.19625932100000001,0.188055799,-0.01617095,2.0,0.6863372670000001,1.6863372669999999,11,0,0,1.0,0.0,0.0,0,0,0,0,0,0.050499804,0.016547914,-1.585491669,-1.5897730319999999,-0.260907839,124.6422757,40.28561227,-0.025882066000000002,0.01750891,-0.040150797,0.0,-0.7300960740000001,0.117254245,-8.75360651,-340.26352,954.178631,11.72743592,0.021777928999999998,-0.069922325,-0.014703799999999998,-0.745471364,0.06959171,-8.384059768,2294028,0.023850117,-0.053108203,-0.018357418,-340.26352,100.01671999999999,103.581747,-0.17825116100000002,-3.010876502,15.37000473,14.02573738,0.026885338999999998,0.55584507,-0.368366752,76.28793732,503.88586839999994,11.72777816,95417.26494,1.13371492,0.138667403,0.220715625,0.090620246,0.029916063,-0.069378959,-0.019210734,0.058456507000000005,0.020798946000000002,-1.579914815,0.703320967,0.027952717999999998,-0.01344076,-0.7101953609999999,0.19286111399999997,398713813.3,327312333.6,504465.7417,13.57790758,-0.781628289,-13.5669774,2.689303851,4.654281459,0,0,0.0,39.8714138,32.7364372,-3.5784473739999996,-444.570932,-104.2120931,-0.73610896,-13.5874846,2.81019426,-0.214116511,-0.7312412509999999,1.258548405,-1.6507518959999998,104.3815731,0.079371568,0.358500483,0.001024449,0.19311489999999998,53840980,0,0,0,1,0
53887347,0.003705592,0.16853269,-0.050629855999999994,0.17613715,0.0,1474.0,1500.0,1174.0,1497.0,1502.0,1581.0,13.63256384,13.96921821,13.65266311,13.63218583,13.96864498,13.3473394,13.67676952,114.20107649999999,114.20107649999999,11.72841964,-0.0013781029999999999,-0.005770564000000001,0.000608851,-0.196249363,0.188056477,-0.016063954,2.0,0.6889377879999999,1.688937788,11,0,0,1.0,0.0,0.0,0,0,0,0,0,0.051641197,0.018778518,-1.584944036,-1.5895754930000001,-0.284000109,124.03913670000001,40.42147429999999,-0.025846438,0.018240568999999998,-0.040113826,0.0,-0.721852438,0.061862985999999995,-8.820242745,-340.26352,954.1841229,11.72818655,0.022271747999999997,-0.061783215999999995,-0.012798513000000001,-0.774468832,0.076284433,-8.528990119,2294028,0.027477889,-0.043364407,-0.017102758,-340.26352,100.01671999999999,103.45936309999999,-0.172131987,-3.027727645,15.36992932,14.09033415,0.025591896,0.5951952460000001,-0.36847591799999996,76.08193272,503.7689603,11.72856062,95418.63028,1.133731148,-0.226134009,0.35308730299999996,0.36790614299999996,0.020473131000000002,-0.060326261,-0.019523452,0.058556641,0.02300713,-1.58025409,0.703167616,0.02876941,-0.01270419,-0.710328172,0.194438831,398713810.3,327312265.7,504348.7914,13.61070408,-0.794600885,-13.60070403,2.746455291,4.653484678,0,0,0.0,39.8714138,32.7364372,-3.6103425810000003,-445.1269369,-104.097321,-0.747671273,-13.62003354,2.855964208,-0.221125937,-0.7937953729999999,1.141161685,-1.651365505,104.26680040000001,0.077698671,0.360014041,0.001400134,0.194591469,53887347,0,0,0,1,0
53929714,0.0015507960000000001,0.171966533,-0.049756311,0.17751041,0.0,1474.0,1500.0,1176.0,1497.0,1502.0,1583.513903,13.62224778,13.95876101,13.68067953,13.66043658,13.99753254,13.37294239,13.70294514,114.6616929,114.6616929,11.72899169,-0.001377226,-0.0057697040000000005,0.000608143,-0.196239406,0.188057156,-0.015956958,2.0,0.6915383079999999,1.6915383080000002,11,0,0,1.0,0.0,0.0,0,0,0,0,0,0.052782589000000005,0.021009121000000002,-1.584396404,-1.589377955,-0.30709238,123.4359978,40.55733633,-0.025801234,0.018982931,-0.040093745,0.0,-0.7136088009999999,0.006471728,-8.886878981,-340.26352,954.1896148,11.72893718,0.02042995,-0.052476811,-0.016005883000000002,-0.7007819000000001,0.07844513,-8.590218,2294028,0.031105662000000003,-0.033620611,-0.015848097,-340.26352,100.01671999999999,103.33824440000001,-0.166076083,-3.041109757,15.36986442,14.15383699,0.024320542999999997,0.631633792,-0.36858201399999996,75.8850866,503.60232199999996,11.72936734,95420.5568,1.133754058,0.85372136,-0.025787137,-0.08738356900000001,0.023779902999999998,-0.051991489,-0.019518296,0.058649527,0.025417525,-1.580591041,0.7030112820000001,0.029655554,-0.01189413,-0.7104605820000001,0.19542184899999998,398713807.2,327312196.4,504225.4227,13.64815147,-0.802922557,-13.63815131,2.794304861,4.6530125689999995,0,0,0.0,39.8714138,32.7364372,-3.642237788,-445.68294180000004,-103.9825488,-0.759233585,-13.65258247,2.901734155,-0.22813536399999998,-0.856349495,1.023774965,-1.651979113,104.1520278,0.075362812,0.361171623,0.001950031,0.19589344,53929714,0,0,0,1,0
53972081,0.0007564160000000001,0.176117338,-0.049635238,0.17914525,0.0,1475.0,1500.0,1177.0,1498.556911,1500.443089,1585.0,13.67820614,14.01595308,13.70869595,13.68868733,14.0264201,13.39854539,13.72912075,115.12230919999999,115.12230919999999,11.72956374,-0.001376348,-0.005768844,0.0006074359999999999,-0.196229448,0.18805783399999998,-0.015849963,2.0,0.6941388279999999,1.694138828,11,0,0,1.0,0.0,0.0,0,0,0,0,0,0.053923982,0.023239724,-1.5838487719999998,-1.589180417,-0.330184651,122.83285890000002,40.69319837,-0.025762656000000002,0.019670507,-0.040071424,0.0,-0.712449055,0.019584824,-8.99365043,-340.26352,954.2179079,11.72987043,0.032622957,-0.04787098,-0.011995358999999999,-0.726356792,0.09957120400000001,-8.798601646,2294028,0.030831405,-0.027319955,-0.010435373000000001,-340.26352,100.01671999999999,103.21712579999999,-0.16002018,-3.05449187,15.36979951,14.21733983,0.023049188999999998,0.668072337,-0.36868811,75.68824048,503.37822530000005,11.73017643,95423.12596,1.133784648,-0.203396272,-0.086501301,-0.10404949599999999,0.024863625,-0.041846445,-0.017474817,0.058603272000000005,0.027696600000000002,-1.580925455,0.7028587359999999,0.030446415,-0.011081066,-0.7105910959999999,0.19665755399999998,398713804.0,327312127.1,504102.054,13.68559885,-0.81124423,-13.67559859,2.8421544310000004,4.652540461,0,0,0.0,39.8714138,32.7364372,-3.6775839639999996,-446.2807172,-103.85628309999998,-0.770466194,-13.69185529,2.9395624239999996,-0.21384748399999998,-0.885869956,0.894930625,-1.652516154,104.0257621,0.073479747,0.359712155,0.00241408,0.19661674,53972081,0,0,0,1,0
54014448,0.0016838379999999998,0.17700472399999997,-0.048500333,0.18004313,0.0,1475.0,1500.0,1178.5999199999999,1499.0,1500.0,1587.5999199999999,13.70754471,14.04568385,13.73671237,13.71693808,14.05530765,13.42414839,13.75529637,115.58292549999999,115.58292549999999,11.73013579,-0.001375471,-0.005767983000000001,0.0006067280000000001,-0.19621949100000002,0.18805851199999998,-0.015742967,2.0,0.6967393479999999,1.6967393480000001,11,0,0,1.0,0.0,0.0,0,0,0,0,0,0.055065375,0.025470327999999997,-1.58330114,-1.588982879,-0.353276921,122.2297199,40.829060399999996,-0.025725997,0.020394098,-0.040059924,0.0,-0.7127431359999999,0.046757087,-9.10865884,-340.26352,954.2508805,11.73084116,0.027930724,-0.040528865,-0.005672778000000001,-0.72511682,0.163211829,-9.0051058,2294028,0.029756333,-0.021725934,-0.004169288,-340.26352,100.01671999999999,103.0960072,-0.15396427599999998,-3.067873982,15.36973461,14.28084267,0.021777835,0.704510883,-0.36879420700000004,75.49139436,503.18735300000003,11.73098652,95425.28947,1.133810286,0.227365652,0.152919683,-0.13443154,0.034846442000000005,-0.036430263,-0.015152648000000001,0.058621509,0.029728117000000002,-1.581257965,0.7027089479999999,0.031172296000000002,-0.010378205,-0.710718472,0.198488492,398713800.9,327312057.9,503978.6853,13.72304624,-0.819565903,-13.71304587,2.8900040010000003,4.652068352,0,0,0.0,39.8714138,32.7364372,-3.713638382,-446.8870652,-103.72765859999998,-0.781631139,-13.73250806,2.9757608189999996,-0.19518875300000002,-0.9086109109999999,0.7637348340000001,-1.6530374819999998,103.8971376,0.071776194,0.360114879,0.0028359390000000004,0.19869956,54014448,0,0,0,1,0
54056815,-0.000128817,0.180302138,-0.048442900000000004,0.18151483,0.0,1475.0,1500.0,1180.0,1498.3570710000001,1500.6429289999999,1588.0,13.85666222,14.19843613,13.76999203,13.75061099,14.08974091,13.45722272,13.78911756,116.1694048,116.1694048,11.73081772,-0.001374715,-0.005767398000000001,0.000606511,-0.196205182,0.188062548,-0.015633848,2.0,0.6993398679999999,1.699339868,11,0,0,1.0,0.0,0.0,0,0,0,0,0,0.056206767000000005,0.027700931,-1.5827535069999998,-1.58878534,-0.376369192,121.626581,40.96492243,-0.02569231,0.021056382000000002,-0.040051164,0.0,-0.70524885,0.065316204,-9.23646941,-340.26352,954.2691942,11.73173248,0.034330576,-0.028469415,-0.013840253,-0.6416371999999999,0.164841446,-9.191095685,2294028,0.028976897,-0.015285271000000001,-0.003051887,-340.26352,100.01671999999999,102.97478570000001,-0.147903221,-3.0790962580000003,15.36966961,14.34385536,0.020516282,0.739591852,-0.36889890000000003,75.29894205,503.2241346,11.73179661,95424.85856000001,1.133805113,-0.08190799,-0.163745152,-0.37427604600000003,0.032387591,-0.02447327,-0.018471381999999998,0.058494015999999996,0.031657446,-1.5815878490000002,0.7025632070000001,0.031810915,-0.009659667,-0.710844273,0.20054401300000002,398713797.8,327311988.6,503855.3167,13.76049363,-0.827887575,-13.75049315,2.937853571,4.651596243,0,0,0.0,39.8714138,32.7364372,-3.748912025,-447.4732932,-103.6026344,-0.792156985,-13.77313363,3.005667757,-0.192847285,-0.935398855,0.632648799,-1.653494156,103.77211340000001,0.069951434,0.358447744,0.00325212,0.200067054,54056815,0,0,0,1,0
54099181,-0.000553794,0.18149334399999997,-0.046927518,0.1832656,0.0,1475.0,1500.0,1181.0,1500.0,1499.0,1590.0,13.86838149,14.21049448,13.809166500000002,13.79035673,14.13038537,13.49866495,13.83150178,116.8968507,116.8968507,11.73162271,-0.001374095,-0.005767119,0.000606843,-0.19618599899999997,0.188070345,-0.015522351,2.0,0.7019403879999999,1.7019403880000001,11,0,0,1.0,0.0,0.0,0,0,0,0,0,0.05734816,0.029931535,-1.582205875,-1.588587802,-0.39946146299999996,121.02344209999998,41.10078446,-0.025659888999999998,0.021710509,-0.040051701,0.0,-0.6890315920000001,0.074228599,-9.3786184,-340.26352,954.2710898,11.73253484,0.030017639,-0.01853669,-0.007890216,-0.7079420340000001,0.094980736,-9.184456378,2294028,0.028528575,-0.007896368,-0.00770101,-340.26352,100.01671999999999,102.8527513,-0.141801488,-3.073259484,15.36960387,14.40299668,0.019332138999999998,0.7639502709999999,-0.368992514,75.14119336,503.0884408,11.7326367,95426.4401,1.1338239190000001,0.227711722,0.15388665699999998,-0.055952802,0.042538692999999995,-0.016805784,-0.014854434,0.058396072,0.033516374,-1.581914852,0.7024186379999999,0.032435125,-0.008976535,-0.7109679729999999,0.202740688,398713794.5,327311919.5,503727.2911,13.802598099999999,-0.836209242,-13.78794074,2.959313863,4.6512055530000005,0,0,0.0,39.8714138,32.7364372,-3.783311199,-448.03698669999994,-103.4816426,-0.801967043,-13.81372872,3.0285282610000004,-0.208781153,-0.966719427,0.501685691,-1.65387842,103.6511216,0.06765925,0.357534388,0.003727612,0.202948808,54099181,0,0,0,1,0
54137548,-0.0019989689999999997,0.18368567600000002,-0.046617597999999996,0.184149755,0.0,1475.7289460000002,1500.0,1183.0,1500.0,1499.0,1590.2710539999998,13.93237847,14.27606211,13.84834097,13.83010247,14.17102983,13.54010717,13.87388601,117.62429650000001,117.62429650000001,11.73242771,-0.001373475,-0.005766841,0.000607175,-0.19616681600000002,0.188078142,-0.015410855,2.0,0.704540908,1.704540908,11,0,0,1.0,0.0,0.0,0,0,0,0,0,0.05847713,0.032152107,-1.5816592440000001,-1.588389861,-0.42254273600000003,120.4198652,41.23656367,-0.025628343999999997,0.022371097000000003,-0.040046036,0.0,-0.671195532,0.08554735699999999,-9.512584092,-340.26352,954.2757918,11.73333721,0.03558135,-0.016580687,-0.010783748000000001,-0.735038108,0.158922652,-9.308715928,2294028,0.028182264,-0.000701218,-0.011484889,-340.26352,100.01671999999999,102.7307168,-0.135699756,-3.0674227110000003,15.36953813,14.46213799,0.018147997,0.7883086890000001,-0.36908612799999996,74.98344467,502.9952436000001,11.73347679,95427.48668,1.13383647,0.564709056,0.341437111,0.009671291,0.029531701,-0.008050942,-0.014098693999999998,0.058060337000000004,0.035376355,-1.58240538,0.7022191609999999,0.03297574,-0.008211376,-0.711149275,0.20486366399999997,398713791.2,327311850.4,503597.6811,13.84628694,-0.8445309059999999,-13.82538844,2.971796359,4.650842562,0,0,0.0,39.8714138,32.7364372,-3.818152715,-448.60654400000004,-103.3593176,-0.8118538590000001,-13.85492504,3.050082245,-0.22286271300000002,-0.9957419470000001,0.37604712100000004,-1.654256199,103.52879659999999,0.065540495,0.35557552299999995,0.004152155,0.20474160000000002,54137548,0,0,0,1,0
54175915,-0.001963962,0.18593900600000002,-0.047010509000000006,0.18534565,0.0,1476.0,1500.0,1183.0,1501.0,1498.0,1591.0,13.93013297,14.27363939,13.88751545,13.869848199999998,14.21167429,13.5815494,13.91627023,118.3517423,118.3517423,11.73323271,-0.001372855,-0.005766561999999999,0.000607507,-0.196147634,0.18808594,-0.015299358,2.0,0.707141428,1.7071414280000001,11,0,0,1.0,0.0,0.0,0,0,0,0,0,0.058961651,0.033852287,-1.581164557,-1.58817099,-0.44505352299999995,119.7935713,41.36804653,-0.025597057000000003,0.023025819,-0.040033817,0.0,-0.6407381839999999,0.115627757,-9.582747229,-340.26352,954.3023734,11.73413958,0.031221267,-0.002774951,-0.012680818,-0.696199362,0.102667858,-9.502193914,2294028,0.028631307,0.004983298,-0.008522736999999999,-340.26352,100.01671999999999,102.6086824,-0.129598023,-3.0615859380000003,15.36947238,14.52127931,0.016963854,0.812667107,-0.369179741,74.82569598,502.7051534,11.73431688,95430.81994,1.133876011,0.125648761,0.439022102,-0.057808797,0.034642326,-0.00188262,-0.009933421,0.057677759,0.037134018,-1.582727609,0.702081718,0.033464548999999996,-0.007462954,-0.7112704609999999,0.20718163899999997,398713787.9,327311781.3,503468.0712,13.88997578,-0.8528525709999999,-13.86283614,2.9842788560000004,4.650479571,0,0,0.0,39.8714138,32.7364372,-3.8564430360000004,-449.22181900000004,-103.22659809999999,-0.8223391440000001,-13.900808900000001,3.0614497110000003,-0.222502428,-1.006847286,0.291922272,-1.654583422,103.3960776,0.062896879,0.35239415399999996,0.004547575,0.20737183,54175915,0,0,0,1,0
54222282,-0.001862063,0.188014478,-0.04649061,0.18710336,0.0,1476.0,1500.0,1185.0,1500.0,1499.0,1592.0,14.00271157,14.34794459,13.92668992,13.90959394,14.25231875,13.62299162,13.95865445,119.0791882,119.0791882,11.73403771,-0.001372235,-0.005766284,0.000607839,-0.196128451,0.18809373699999998,-0.015187861,2.0,0.709741948,1.709741948,11,0,0,1.0,0.0,0.0,0,0,0,0,0,0.059446172,0.035552468,-1.580669869,-1.58795212,-0.467564311,119.1672775,41.49952938,-0.025568097999999997,0.023665718,-0.040021892999999996,0.0,-0.610280837,0.145708156,-9.652910366,-340.26352,954.3289551000001,11.73494195,0.030454722000000004,-0.001886246,-0.007908532,-0.7175513370000001,0.12614931,-9.542346324,2294028,0.02908035,0.010667814,-0.005560586,-340.26352,100.01671999999999,102.486648,-0.12349629,-3.055749164,15.36940664,14.58042063,0.015779711999999998,0.8370255259999999,-0.369273355,74.66794729,502.4712558,11.73515696,95433.47671,1.13390753,-0.772988164,-0.033260015,0.10845728199999999,0.027646492999999998,0.009157631999999999,-0.009506197,0.05732649099999999,0.03907704,-1.5830482280000002,0.701940708,0.034030442,-0.006660666,-0.7113906659999999,0.208809014,398713784.5,327311712.3,503338.4613,13.93366462,-0.861174235,-13.90028384,2.996761352,4.65011658,0,0,0.0,39.8714138,32.7364372,-3.894733357,-449.83709389999996,-103.0938786,-0.8328244290000001,-13.94669276,3.072817178,-0.222142142,-1.017952626,0.20779742399999998,-1.654910646,103.2633585,0.060732077999999995,0.35076503700000006,0.004944965999999999,0.20915842,54222282,0,0,0,1,0
54260649,-0.002239199,0.189875978,-0.046138952999999996,0.18915027,0.0,1476.0,1500.0,1187.0,1500.142028,1498.857972,1593.857972,14.02436704,14.36998121,13.9658644,13.94933968,14.29296321,13.66443385,14.00103868,119.806634,119.806634,11.7348427,-0.001371616,-0.005766006,0.000608171,-0.196109268,0.188101534,-0.015076365,2.0,0.712342468,1.7123424680000001,11,0,0,1.0,0.0,0.0,0,0,0,0,0,0.059930693,0.037252649,-1.5801751819999998,-1.58773325,-0.490075098,118.54098359999999,41.63101223,-0.025538835,0.024300049,-0.040017596,0.0,-0.636002402,0.172981505,-9.772087203,-227.4599831,954.3399846000001,11.73574432,0.028357413999999997,0.010262441,-0.00693972,-0.687942005,0.09024961599999999,-9.641924128,2294028,0.027205187999999998,0.016513303,-0.005069698,-227.4599831,100.01671999999999,102.36054200000001,-0.117190973,-3.04284293,15.36933307,14.63751418,0.014636369,0.857477795,-0.36936602700000004,74.51953779,502.65783330000005,11.73599136,95431.36357999999,1.133882458,-0.351069819,0.469265786,0.5945361779999999,0.034335168,0.013437822,-0.011280729,0.06865243900000001,0.040937607,-1.57323961,0.705181177,0.03871456,-0.009845668,-0.707900875,0.21055625,398713781.2,327311643.2,503208.8514,13.97735346,-0.869495899,-13.93773153,3.0092438489999997,4.6497535889999995,0,0,0.0,39.8714138,32.7364372,-3.931418634,-450.4199315,-102.9679642,-0.8407071290000001,-13.99211867,3.076843132,-0.195681578,-1.050393631,0.10987020900000001,-1.655202395,103.1374442,0.075137265,0.348072984,0.005382583000000001,0.21120137,54260649,0,0,0,1,0
54299016,-0.002782355,0.18854931600000002,-0.045395907,0.19027567,0.0,1476.0,1500.0,1188.9009800000001,1501.0,1498.0,1594.0,14.06701931,14.41370106,14.00503887,13.98908542,14.33360767,13.70587607,14.0434229,120.5340798,120.5340798,11.7356477,-0.001370996,-0.005765726999999999,0.000608503,-0.19609008600000002,0.18810933100000002,-0.014964868000000001,2.0,0.7149429890000001,1.714942989,11,0,0,1.0,0.0,0.0,0,0,0,0,0,0.060415214,0.038952829,-1.579680494,-1.58751438,-0.512585885,117.9146898,41.76249508,-0.025512451000000002,0.024890473,-0.040018,0.0,-0.6798891840000001,0.19934720600000003,-9.907112416,-78.18189425,954.3459854,11.73654669,0.03012468,0.014322922,-0.008590454,-0.631899282,0.113285521,-9.748677212999999,2294028,0.024578505,0.022410842,-0.005377883000000001,-78.18189425,100.01671999999999,102.2269217,-0.110509938,-3.016889803,15.36924506,14.69082851,0.013568323,0.870721153,-0.36945696,74.38836404,502.42185379999995,11.73682451,95434.06309,1.133914504,-0.15422492699999998,0.49164040200000003,-0.057761785,0.03240122,0.022484668,-0.009288195,0.068195357,0.042664527,-1.573589284,0.705032683,0.039162182000000004,-0.009080966999999999,-0.708034343,0.212598389,398713778.1,327311574.5,503083.7365,14.022996599999999,-0.8778175579999999,-13.982996599999998,3.008045609,4.649356318,0,0,0.0,39.8714138,32.7364372,-3.967584927,-450.9922807,-102.8442502,-0.8477482940000001,-14.03739651,3.0784952389999996,-0.160781599,-1.089733435,0.007480056999999999,-1.655482672,103.0137302,0.073350295,0.344008859,0.005821291,0.2124094,54299016,0,0,0,1,0
54337383,0.00452236,0.190341725,-0.045268055,0.19209996,0.0,1477.0,1500.0,1190.0,1501.0,1498.0,1594.0,14.16826805,14.51723701,14.04421335,14.02883116,14.37425212,13.747318300000002,14.08580713,121.26152569999999,121.26152569999999,11.7364527,-0.001370376,-0.005765449000000001,0.000608835,-0.19607090300000002,0.188117128,-0.014853371,2.0,0.7175435090000001,1.717543509,11,0,0,1.0,0.0,0.0,0,0,0,0,0,0.060899735,0.04065301,-1.5791858069999998,-1.58729551,-0.535096673,117.2883959,41.89397794,-0.025483876000000003,0.025483092000000002,-0.040017259,0.0,-0.703909527,0.21194036100000002,-10.03203984,-47.62213456,954.3559743999999,11.73734906,0.022954084,0.026984356,-0.007724619,-0.668942202,0.135295194,-9.908632262000001,2294028,0.025227277000000003,0.027536567,-0.00381231,-47.62213456,100.01671999999999,102.0933014,-0.10382890300000001,-2.990936677,15.36915706,14.74414285,0.012500278,0.883964512,-0.369547894,74.25719029,502.2633925,11.73765766,95435.86595,1.133935981,-0.074280635,0.42079068,0.171344778,0.031231542,0.026914029,-0.011877388999999999,0.067809984,0.044275639000000006,-1.573933267,0.7048867209999999,0.039594416,-0.008382566999999999,-0.7081642920000001,0.214892825,398713774.9,327311505.9,502958.9116,14.06876575,-0.8861392159999999,-14.02876575,3.005965193,4.648956836,0,0,0.0,39.8714138,32.7364372,-4.005215162,-451.5856466,-102.7167672,-0.854752741,-14.08472342,3.0758050619999997,-0.13478692,-1.118046195,-0.08881536300000001,-1.655681045,102.8862472,0.07097991,0.34093602700000003,0.00630477,0.21500924,54337383,0,0,0,1,0
54379750,0.001580051,0.191282535,-0.04537424,0.194130053,0.0,1477.0,1500.0,1192.0,1497.0,1502.0,1595.0,14.13467648,14.48272201,14.08338782,14.06857689,14.41489658,13.78876052,14.12819135,121.9889715,121.9889715,11.737257699999999,-0.001369756,-0.00576517,0.000609167,-0.196051721,0.18812492600000003,-0.014741873999999999,2.0,0.7201440290000001,1.720144029,11,0,0,1.0,0.0,0.0,0,0,0,0,0,0.061384256,0.04235319,-1.5786911190000001,-1.58707664,-0.55760746,116.6621021,42.02546079,-0.025445713,0.026063126000000002,-0.040013565,0.0,-0.697835632,0.20367047800000002,-10.14167086,-196.90022340000002,954.3720048,11.73815142,0.028568115,0.029924247999999997,-0.005698150999999999,-0.6828539509999999,0.1467047,-9.994645867000001,2294028,0.030837802,0.031493126,0.0005916830000000001,-196.90022340000002,100.01671999999999,101.959681,-0.09714786800000001,-2.96498355,15.36906905,14.79745718,0.011432231999999999,0.897207871,-0.369638827,74.12601653,502.00527719999997,11.73849081,95438.83718999999,1.133971337,-0.081577928,0.5151797929999999,-0.369868745,0.024750646,0.038343425,-0.007714077,0.06729376299999999,0.045825856,-1.574273894,0.704745555,0.039959255,-0.007659401,-0.708292467,0.217266022,398713771.8,327311437.2,502834.0866,14.11453491,-0.8944608740000001,-14.07453491,3.0038847769999997,4.648557355,0,0,0.0,39.8714138,32.7364372,-4.04506302,-452.2108494,-102.5835749,-0.8617015659999999,-14.13515431,3.06653707,-0.122282239,-1.129654881,-0.17587831399999998,-1.6557553440000001,102.75305490000001,0.068469383,0.338021622,0.00674265,0.217493002,54379750,0,0,0,1,0
54418116,-0.000811063,0.187791,-0.043430037000000005,0.19466713,0.0,1477.0,1500.0,1194.0,1499.0,1500.0,1595.0,14.23678815,14.58721477,14.122562300000002,14.10832263,14.45554104,13.83020275,14.17057557,122.71641729999999,122.71641729999999,11.738062699999999,-0.001369136,-0.005764892,0.000609499,-0.196032538,0.188132723,-0.014630378000000001,2.0,0.7227445490000001,1.722744549,11,0,0,1.0,0.0,0.0,0,0,0,0,0,0.061868777,0.044053370999999994,-1.578196432,-1.58685777,-0.580118247,116.03580819999999,42.15694364,-0.025407847999999997,0.026627005,-0.040027999999999994,0.0,-0.690845863,0.194078673,-10.25058996,-340.26352,954.3876111,11.73895329,0.030341635,0.030922336,-0.002875216,-0.636875922,0.114342153,-10.12489149,2294028,0.036339147,0.035594544,0.004779128,-340.26352,100.01671999999999,101.82606070000001,-0.09046683300000001,-2.939030423,15.36898104,14.85077151,0.010364186,0.9104512290000001,-0.369729761,73.99484278,502.02607130000007,11.73932741,95438.57182000001,1.133968064,0.158747522,0.18454640600000002,0.15456883,0.02994331,0.039768832999999996,-0.00481492,0.06646576400000001,0.047339189000000004,-1.574774324,0.704554573,0.040200898,-0.00684214,-0.708477191,0.2196382,398713768.7,327311368.5,502709.2617,14.16030406,-0.902782532,-14.12030406,3.001804361,4.648157873,0,0,0.0,39.8714138,32.7364372,-4.084814208,-452.83433449999995,-102.4508447,-0.868596018,-14.18541904,3.0569323689999996,-0.11071762199999999,-1.141292408,-0.262708808,-1.655824112,102.6203247,0.064868776,0.33327518300000003,0.007385405,0.22041565,54418116,0,0,0,1,0
54468967,-0.000515926,0.18916800600000003,-0.04343829,0.195980832,0.0,1478.0,1500.0,1194.0,1500.0,1499.0,1593.0,14.13980925,14.48783525,14.16173677,14.14806837,14.496185500000001,13.87164498,14.2129598,123.4438632,123.4438632,11.73886769,-0.001368517,-0.005764614,0.000609831,-0.196013355,0.18814052,-0.014518881,2.0,0.7253450690000001,1.725345069,11,0,0,1.0,0.0,0.0,0,0,0,0,0,0.062353298,0.045753550999999996,-1.577701745,-1.5866388999999999,-0.602629035,115.4095144,42.28842649,-0.025375571,0.027184086,-0.040035936,0.0,-0.661657068,0.152445978,-10.34225378,-340.26352,954.3929376,11.73974293,0.030553438,0.039650945,0.0036622679999999998,-0.66167672,0.19057854,-10.14162068,2294028,0.039194191,0.043207049000000004,0.003717839,-340.26352,100.01671999999999,101.70485090000001,-0.08440633800000001,-2.905875796,15.36888088,14.89542569,0.0094691,0.917869061,-0.369803024,73.89316683,501.9298096,11.74015712,95439.66501,1.133981112,0.166130414,0.47249828200000005,-0.056209049000000004,0.036660126,0.046825118,-0.00027719,0.06584367599999999,0.048808465999999995,-1.5751091730000002,0.704418807,0.040500381,-0.006110137,-0.708601757,0.222031747,398713765.5,327311299.3,502584.2158,14.20634924,-0.90999997,-14.16634924,2.998067608,4.647840306,0,0,0.0,39.8714138,32.7364372,-4.122222305,-453.41618739999996,-102.3293147,-0.874172581,-14.23165616,3.03916648,-0.121938373,-1.1536289929999999,-0.34390502,-1.6557588030000001,102.4987947,0.062815012,0.328616668,0.007775855999999999,0.22184389999999998,54468967,0,0,0,1,0
54510850,-0.000881281,0.19060698399999998,-0.043720802999999996,0.1976218,0.0,1478.0,1500.0,1195.0,1500.0,1499.0,1594.0,14.20053496,14.55002808,14.20091125,14.18781411,14.53682996,13.9130872,14.25534402,124.17130900000001,124.17130900000001,11.73967269,-0.001367897,-0.005764335,0.000610163,-0.195994173,0.18814831699999998,-0.014407383999999999,2.0,0.7279455890000001,1.7279455890000002,11,0,0,1.0,0.0,0.0,0,0,0,0,0,0.062837819,0.047453732,-1.5772070569999999,-1.5864200290000001,-0.6251398220000001,114.78322050000001,42.41990935,-0.025346717999999997,0.02772467,-0.040048116,0.0,-0.632468272,0.11081328300000001,-10.43391759,-340.26352,954.3982641000001,11.74053258,0.033871601,0.042368259000000005,-0.00010190000000000001,-0.6528493129999999,0.14833990800000002,-10.29443737,2294028,0.042049235,0.050819554,0.00265655,-340.26352,100.01671999999999,101.5922485,-0.078776218,-2.8677265810000003,15.36877229,14.93407363,0.00869397,0.921246608,-0.369864033,73.81194905,501.85185369999994,11.74097717,95440.57908,1.133991932,0.485627617,0.29923779699999997,-0.147401852,0.040294444,0.054629203,-0.0035905909999999997,0.065146763,0.050448186,-1.575442241,0.7042816409999999,0.040834056,-0.005291554,-0.708725638,0.22370903399999997,398713761.8,327311226.5,502457.7265,14.2541986,-0.90999997,-14.2141986,2.983504654,4.648058146,0,0,0.0,39.8714138,32.7364372,-4.159630403,-453.9980402,-102.2077847,-0.879749143,-14.27789328,3.021400592,-0.133159125,-1.165965578,-0.42510123200000005,-1.655693494,102.3772647,0.059880792,0.32419152100000004,0.008227654000000001,0.22374135,54510850,0,0,0,1,0
