timestamp,control[0],control[1],control[2],control[3],control[4],output[2],output[3],output[4],output[5],output[6],output[7],indicated_airspeed_m_s,true_airspeed_m_s,indicated_airspeed_m_s.1,equivalent_airspeed_m_s,true_airspeed_m_s.1,equivalent_ground_minus_wind_m_s,true_ground_minus_wind_m_s,differential_pressure_raw_pa,differential_pressure_filtered_pa,temperature,gyro_bias[0],gyro_bias[1],gyro_bias[2],accel_bias[0],accel_bias[1],accel_bias[2],instance_count,seq_reached,seq_current,seq_total,item_changed_index,item_do_jump_remaining,valid,warning,finished,failure,stay_in_failsafe,flight_termination,item_do_jump_changed,execution_mode,nav_roll,nav_pitch,nav_bearing,target_bearing,xtrack_error,wp_dist,acceptance_radius,rollspeed_integ,pitchspeed_integ,yawspeed_integ,additional_integ1,x,y,z,temperature.1,pressure,temperature.2,gyro_rad[0],gyro_rad[1],gyro_rad[2],accelerometer_m_s2[0],accelerometer_m_s2[1],accelerometer_m_s2[2],device_id,x.1,y.1,z.1,temperature.3,altitude_sp,altitude_filtered,height_rate_setpoint,height_rate,airspeed_sp,airspeed_filtered,airspeed_derivative_sp,airspeed_derivative,throttle_integ,pitch_integ,baro_alt_meter,baro_temp_celcius,baro_pressure_pa,rho,xyz[0],xyz[1],xyz[2],xyz[0].1,xyz[1].1,xyz[2].1,roll_body,pitch_body,yaw_body,q_d[0],q_d[1],q_d[2],q_d[3],thrust_body[0],lat,lon,alt,vel_m_s,vel_n_m_s,vel_e_m_s,vel_d_m_s,cog_rad,ground_contact,maybe_landed,landed,ref_lat,ref_lon,x.2,y.2,z.2,vx,vy,vz,ax,ay,az,yaw,dist_bottom,roll,pitch,yaw.1,thrust_body[0].1,timestamp.1,isTakeoff,isClimbing,isDescending,isCruise,isLand
10000000.0,0.029313337,0.01986617,-0.003865493,0.15,0.0,900.0,900.0,900.0,900.0,900.0,900.0,1.1041944,1.1257612,0.5436802,0.5436802,0.5542991,0.033263892,0.033913594,0.7467876999999999,0.7467876999999999,12.404602,-0.001002324,-0.005376291,6.47e-05,0.028538529,-0.0016072979999999998,-0.12073175,2.0,-1.0,0.0,11.0,0.0,0.0,1.0,0.0,0.0,0.0,0.0,0.0,0.0,0.0,0.0,0.0,-1.5721774,-1.5722119,-0.001876878,295.74872,31.152319,4.12e-06,6.68e-06,0.0,3.950000000000001e-05,-0.07765491,0.3673004,-9.93148,-340.26352,966.17773,12.404602,-0.001106507,-0.005416529000000001,0.002892632,-0.09925434,0.2728199,-9.904247,2294028.0,-0.006660895,-0.0007251,-0.008617217,-340.26352,-0.014588135,-0.026588136,0.40060008,-0.2718205,10.195364,7.021975500000001,0.06346777,17.853576999999994,0.21430978,-20.950579,399.6441,12.404602,96615.945,1.1479572,0.08672951,-0.07725141,0.15486397,-0.0017304520000000002,0.004701139,0.001599361,0.0,0.0,1.6171399,0.69053346,0.0,0.0,0.72330046,1.0,398714137.0,327364372.0,400119.0,0.0,0.01,0.01,-0.01,0.8457865,0.0,0.0,1.0,39.8714138,32.7364372,0.00023254,-0.00707025,-0.023196924,0.005882574000000001,0.014544596000000003,-0.029910203,-0.006586415,0.04447028,0.019511206,1.6182384,0.1,0.028565567000000007,0.026812814,-0.003154656,1.0,10000000.0,1.0,0.0,0.0,0.0,0.0
10063972.0,0.027715813186372746,0.019632821909819638,-0.00297782927254509,0.15,0.0,900.0,900.0,900.0,900.0,900.0,900.0,0.36255736504609204,0.3696370510480962,1.7212356566212426,1.7213848823066131,1.7550067493406813,1.2508901841262525,1.275322530741483,15.018493310981965,15.018493310981965,12.404594338617235,-0.000910804995991984,-0.005454906382765531,0.00029604550501002,0.028455987106212426,-0.0013048678036072143,-0.12076583681963927,2.0,-1.0,0.0,11.0,0.0,0.0,1.0,0.0,0.0,0.0,0.0,0.0,0.0,0.0,0.0,-0.018688104977955915,-1.5712619404248498,-1.5720319986693387,-0.056560878701402806,296.80338891122244,34.70480898118237,3.0265731462925852e-06,5.930601202404809e-06,0.0,-8.040080160320667e-07,-0.068900268749499,0.1899017493747495,-9.927166528567133,-340.26352,966.1758521402805,12.404602,-0.0006941509679358717,-0.0025732246813627256,-0.00159776046492986,-0.08088468212825652,0.16810678036072146,-9.938032850380761,2294028.0,-0.00301476526252505,-0.0041224256533066135,-0.011528648931863728,-340.26352,-0.03411201591583166,-0.04611201739679359,0.40060008,-0.28348564165731466,11.146778482404809,9.10924268011022,0.040750715993987975,18.612438372885773,0.1818627365490982,-20.35077782490982,399.5723998234469,12.404602,96616.79122182365,1.147967320476954,0.042493840843687375,0.15530890851302603,0.18124442346292588,0.0006447762484969939,0.003555757703406813,0.0009862588757515028,0.0,-0.07793077418837675,1.6171399,0.6884697428056112,0.02807284713426854,-0.02680108857715431,0.7211388266533066,1.0,398714137.29619235,327364372.0,400120.23240841686,0.0,0.006918983118236473,0.01,-0.0038379662364729458,0.9365030714468938,0.0,0.0,0.936898401767535,39.8714138,32.7364372,0.00012189394388777555,-0.006957014170340682,-0.023433147793587173,0.0041388494448897795,0.014189725941883767,-0.030240963517034068,0.01614666005210421,0.006355805563126251,-0.008463193230460925,1.618005831701403,0.1,0.028967036529058115,-0.2696527825430862,-0.003154656,1.0,10063972.476953907,1.0,0.0,0.0,0.0,0.0
10129336.0,0.02967077263927856,0.01970542866533066,-0.0026983546132264527,0.15,0.0,900.0,900.0,900.0,900.0,900.0,900.0,0.4095784436853708,0.4175816734989982,2.8987911132424853,2.89908956457515,2.9557143986432868,2.468516476252505,2.51673146844489,29.290198912344692,29.290198912344692,12.404586676853707,-0.000819285991983968,-0.005533521765531063,0.00052739101002004,0.0283734451743487,-0.001002437607214429,-0.12079992360120241,2.0,-1.0,0.0,11.0,0.0,0.0,1.0,0.0,0.0,0.0,0.0,0.0,0.0,0.0,0.0,-0.037376209993987976,-1.5703464808496996,-1.5718520973386774,-0.11124487940280561,297.8580578186373,38.25729896236473,4.158877755511023e-06,-0.00011818741482965932,0.0,-0.00023174128256513027,-0.06452373539478957,0.1283765319779559,-9.948204867993988,-340.26352,966.1724683887775,12.404602,-0.004723741002004008,-0.005033717903807616,0.0020246022064128273,-0.11428609077755511,0.16995410529058116,-9.99599678388978,2294028.0,-7.960113627254479e-05,-0.006142720803607215,-0.010895744511022043,-340.26352,-0.05363589586973948,-0.06563589883166332,0.40060008,-0.29515078331462924,12.098192964428858,11.196509855410822,0.01803366198797595,19.37129975539078,0.14941569406012023,-19.75097664981964,399.66148458897794,12.404602,96615.78359953908,1.1479553262144289,0.023286943030060122,-0.026933131799599202,-0.6983011289599201,-0.0010075579158316636,0.005567882294589179,-0.0020524569398797598,0.0,-0.28400818896192387,1.6171399,0.6834519914869739,0.10235344743887775,-0.09771662418837676,0.7158829582685371,1.0,398714137.5923848,327364372.0,400121.4648130261,0.0,0.0038379662364729458,0.01,0.0023240675270541095,1.0272196428937874,0.0,0.0,0.8737968035731463,39.8714138,32.7364372,2.086352705410821e-05,-0.0067888130501002,-0.023028879402805614,0.003363345490981964,0.01409705801002004,-0.029577384276553105,0.035881410775551105,-0.0018552845050100195,-0.009331519194388778,1.6177483582705412,0.10044511775551102,0.026399761444889782,-0.5323581313907816,-0.003154656,1.0,10129335.523046093,1.0,0.0,0.0,0.0,0.0
10198459.0,0.02922378228256513,0.019117394116232464,-0.0028648582825651307,0.15,0.0,900.0,900.0,900.0,900.0,900.0,900.0,0.624321145038076,0.6365173601402804,4.076346569863727,4.07679424691984,4.15642204746493,3.6861427683787573,3.7581404052244483,43.56190452294589,43.56190452294589,12.404579010280562,-0.000727767987975952,-0.005612136705410822,0.00075873651503006,0.02829090276152305,-0.0007000074108216434,-0.12083400990180361,2.0,-1.0,0.0,11.0,0.0,0.0,1.0,0.0,0.0,0.0,0.0,0.0,0.0,0.0,0.0,-0.05606431549098197,-1.569431021274549,-1.571672196008016,-0.16592888010420842,298.91272667795596,41.80978894797595,-3.3718145891783536e-05,-0.0017346994468937873,0.0,-0.0008521156052104207,-0.06521673535671343,0.21741829604809618,-9.994070234817634,-340.26352,966.1664865613226,12.404602,-0.002067923332665333,-0.0027353434208416787,0.00530942943687375,-0.051476600849699364,0.20444432998997997,-9.970516644723448,2294028.0,0.0016028435891783566,-0.006344687230460922,-0.005808289398797597,-340.26352,-0.07260411852905811,-0.08460412297194389,0.40060008575751505,-0.3063205544649299,12.981592260200403,13.257491568276553,-0.005517986338677348,20.036228670460922,0.11928822014428858,-19.180041501523046,399.62816019258514,12.404602,96616.14395032063,1.1479596228817635,0.23083003834268523,-0.16869801365531045,0.24469365453707403,0.00012431496392785652,0.005746683378757513,-0.002623605242484969,0.0,-0.256093149981964,1.6171399,0.6848697605410822,0.09236186139879761,-0.08817767854308618,0.7173679866533066,1.0,398714137.88857716,327364372.0,400122.6082052104,0.01121876870941883,0.0009350248657314635,0.021040693198396784,0.007951875314629257,1.1202765413366733,0.0,0.0,0.8106952048597194,39.8714138,32.7364372,-6.282284569138276e-05,-0.006507061226452906,-0.021710728486973946,0.0037649244829659322,0.014487175108216434,-0.027619369729458918,0.05442569225450901,0.029272253843687368,0.022116329869739475,1.6174674176052104,0.10135106782965932,0.010535446164328662,-0.44995080585971947,-0.003154656,1.0,10198459.198396794,1.0,0.0,0.0,0.0,0.0
10258975.0,0.02667556496593186,0.01919895096593186,-0.002804180587174349,0.15,0.0,900.0,900.0,900.0,900.0,900.0,900.0,0.8127752619779558,0.8286585429478959,5.253902026484971,5.254498929150301,5.357129696362727,4.90376906050501,4.999549341965933,57.83361013392786,57.83361013392786,12.404571353707414,-0.0006362489839679358,-0.005690751531062125,0.00099008202004008,0.0282083604248497,-0.0003975772144288577,-0.12086809720240481,2.0,-1.0,0.0,11.0,0.0,0.0,1.0,0.0,0.0,0.0,0.0,0.0,0.0,0.0,0.0,-0.07475241998797595,-1.5685155616993989,-1.5714922946773549,-0.22061288080561123,299.9673955448898,45.36227893472946,-0.00020608097595190385,-0.002946391300601203,0.0,-0.0018054953947895793,-0.0587432882264529,0.24144600476753508,-9.964003247747495,-340.26352,966.1564727893788,12.404602,-0.0023501365991983976,-0.010496384557114229,-0.00035005078356713454,-0.06883912061723446,0.09537474813426852,-9.935140811028056,2294028.0,0.001183439645290581,-0.007098754460921845,-0.003857590136272545,-340.26352,-0.08658025545490983,-0.09858026045490982,0.40060014381162323,-0.31303987733867733,13.253936401783568,15.082321982104208,-0.036567713669338676,19.8572590255511,0.10999999,-18.868441683346692,399.63340441122244,12.404602,96616.0667308016,1.1479586594188376,-0.1936747576012025,0.2646972392965933,-0.15001290268336687,0.0003596296733466937,0.0042029223787575145,-6.176652905811545e-05,0.0,-0.22657635793787576,1.6171399,0.6861024572404809,0.08176568222044088,-0.07806152434669339,0.7186592055350702,1.0,398714138.0,327364372.1847695,400122.76763967937,0.1464162848236473,0.0,0.15409221729659323,0.0076759324729458915,1.2391964300841682,0.0,0.0,0.7475936070701403,39.8714138,32.7364372,-0.0001133400621242485,-0.005935816567134269,-0.020131306252505008,0.0030071026953907816,0.015810500156312624,-0.02620114298997996,0.0952251405991984,0.04728596426052104,0.016260969599198392,1.6172680901743488,0.10111336993787574,-0.010082415987975954,-0.39260230413627256,-0.003154656,1.0,10258974.655310621,1.0,0.0,0.0,0.0,0.0
10316099.0,0.022407411563126253,0.019527177286573147,-0.00038698827054108167,1.0,0.0,1142.8857715430865,1142.8857715430865,1345.2905811623255,1138.028056112225,1147.3386773547097,1146.5290581162328,0.5560476576372756,0.5669144602184379,6.431457484106213,6.432203610937876,6.557837345703407,6.121395352631263,6.240958279707415,72.10531573490982,72.10531573490982,12.404563687134269,-0.0005447299799599198,-0.005769366913827656,0.0012214275250501004,0.028125818531062125,-9.514620841683356e-05,-0.12090218350300601,2.0,-1.0,0.0,11.0,0.0,0.0,1.0,0.0,0.0,0.0,0.0,0.0,0.0,0.0,0.0,-0.09344052548496995,-1.5676001021242485,-1.5713123933466935,-0.27529688150701404,301.02206449659326,48.91476891591183,-0.0005021224228456915,-0.00386588445490982,0.0,-0.0028502689478957922,8.31140029340883,0.2298023277094188,-9.810998770004009,-340.26352,966.150577208016,12.404602,0.0007265119819639238,-0.007889989278557115,0.002269375807615231,10.72974287716234,0.17954801233066134,-9.793462572619239,2294028.0,0.0010715405310621254,-0.007697859336673347,-0.0028532351362725444,-340.26352,-0.09833137591382766,-0.11033138331863727,0.40060022426452907,-0.3177755966733467,13.25392800472946,16.801897721082167,-0.07095939974148298,19.30215652943888,0.10999999,-18.672429855731465,399.6429795368737,12.404602,96615.99677016032,1.1479578918356714,0.25499424635671364,-0.03451371202605227,-0.14057510108617258,-0.0010782310921843676,0.0016567955370741484,-2.3507895791558854e-06,0.0,-0.20055201441883766,1.6171399,0.6870575393366732,0.07240744839679358,-0.06912724321442885,0.7196596209619239,1.0,398714138.0,327364372.58096194,400122.4594995992,0.3405203567795592,0.0,0.34511527137074155,0.004594914591182363,1.37040471301002,0.0,0.0,0.6844920084328656,39.8714138,32.7364372,-0.00034820614829659353,-0.001296372999999994,-0.018424385629258515,-0.009236225226452923,0.26265677957515066,-0.01886692542484969,-0.28233674861122304,8.443580014300615,0.22284212001202444,1.6171410455430861,0.10048821521843687,-0.033777345849699415,-0.34182493735671343,-0.003154656,1.0,10316099.330661323,1.0,0.0,0.0,0.0,0.0
10380006.0,0.02029911305410822,0.019256784985971942,0.0004567074749498996,1.0,0.0,1499.114228456914,1500.0,2000.0,1488.885771543086,1510.114228456914,1509.0,2.8354649524148288,2.8908776075731453,7.609012940727455,7.609908293725449,7.75854499492986,7.339021644757514,7.482367216448898,86.37702134589178,86.37702134589178,12.404556030561121,-0.0004532109759519039,-0.0058479822965931865,0.00145277303006012,0.028043276523046095,0.00020728429258517022,-0.12093626991783567,2.0,-1.0,0.0,11.0,0.0,0.0,1.0,0.0,0.0,0.0,0.0,0.0,0.0,0.0,0.0,-0.11212863086773546,-1.5666846425490981,-1.571132492016032,-0.3299808822084168,302.07673336733467,52.46725889709419,-0.0008463724488977954,-0.004727173310621243,0.0,-0.0036738303847695386,40.37075574084167,0.19695419133466935,-9.400071430352707,-340.26352,966.1610761236474,12.404602,0.0018448266673346658,-0.0037991333386773575,0.0014876596893787582,50.0867094710621,0.16930932971943888,-9.344282558811624,2294028.0,0.004296693474949898,-0.007169400216432866,-0.0007302586973947907,-340.26352,-0.11008249718236472,-0.12208250606813627,0.4006003048316633,-0.322511316008016,13.253919607675352,18.52147346815631,-0.105351086004008,18.74705403446894,0.10999999,-18.476418028877756,399.60189428537075,12.404602,96616.46409507014,1.1479634394669338,0.1409022292965934,0.2703142421182362,-0.18622813052505025,0.002986879370741481,0.0017980006973947896,0.004108993290581162,0.0,-0.1767928539178357,1.6171399,0.6878344996673346,0.06385366689779559,-0.06096096960120241,0.7204734033486974,1.0,398714138.0,327364372.8771543,400122.1513709419,0.5346244277354708,0.0,0.5361383254448897,0.0015138977094188392,1.5016129960120241,0.0,0.0,0.6213904106052104,39.8714138,32.7364372,-0.001144203446893787,0.014529256775551096,-0.01664830936472946,-0.052627190486973924,1.204076715629258,0.005893737523046082,-1.8716753699959914,40.59534780689377,1.0761435740400795,1.6171216911102206,0.10012859400801603,-0.06284861825050099,-0.30328376055711426,-0.003154656,1.0,10380005.569138277,1.0,0.0,0.0,0.0,0.0
10444673.0,0.02167097203006012,0.019748297378757516,0.0006841706513026048,1.0,0.0,1500.366733466934,1500.0,2000.0,1489.633266533066,1509.366733466934,1509.0,5.644246493871743,5.754527322891783,8.786568397348697,8.787612975513026,8.95925264438477,8.556647936883769,8.72377615319038,100.64872695687374,100.64872695687374,12.404548363987976,-0.0003616929719438878,-0.005926597679358717,0.00168411853507014,0.02796073411022044,0.000509714374749499,-0.12097035710420842,2.0,-1.0,0.0,11.0,0.0,0.0,1.0,0.0,0.0,0.0,0.0,0.0,0.0,0.0,0.0,-0.13081673547895792,-1.565769182973948,-1.5709525896853709,-0.38466488290981965,303.1314022785571,56.01974887827655,-0.001221905004008016,-0.0055447708236472945,0.0,-0.004023451653306614,47.92850683048096,0.15855477053507014,-9.334956915198397,-200.47495240881767,966.159412933066,12.404602,-0.0021690642825651315,-0.009716444935871746,-0.0015849243707414826,45.746831783547094,0.1552920872224449,-9.344459409410822,2294028.0,0.0034185223567134273,-0.010511080496993988,0.002428567034068136,-200.47495240881767,-0.11984709627254508,-0.1318471062725451,0.40060034,-0.3208841343306613,13.253912449719438,19.94590913757515,-0.13383994390380763,17.955458803827657,0.10999999,-19.08572198002004,399.5966032354709,12.404602,96616.51665406814,1.1479640619098197,0.06358533274549094,-0.06864151507815633,0.12268842231863736,0.00416444197995992,0.004467119152304609,0.0001318038757515029,0.0,-0.15498117801202405,1.6171399,0.6884558911282564,0.05599247096192385,-0.053455893476953904,0.7211243335470942,1.0,398714138.0,327364393.4018036,400122.3133977956,2.0498098456492984,0.001567119172344689,2.0482425701963924,0.003134238344689378,1.566548880234469,0.0,0.0,0.558288812006012,39.8714138,32.7364372,-0.009455572016032062,0.1937166841042084,-0.011298599755511023,-0.16215568084569137,3.5760047006392783,0.0674038220781563,-2.254282804488978,49.03920173094188,1.2568020961743487,1.6170527008617235,0.1,-0.08897189321442885,-0.2588703952044088,-0.003154656,1.0,10444673.330661323,1.0,0.0,0.0,0.0,0.0
10506559.0,0.022174874543086174,0.019470234693386775,0.00014970852304609181,1.0,0.0,1500.1523046092184,1500.0,2000.0,1488.5625018657315,1510.4374981342685,1509.0,8.24537598071543,8.406524164186372,9.964123851426853,9.96531765490982,10.15996029103006,9.77427422901002,9.965185091627255,114.92043255090181,114.92043255090181,12.404540698937875,-0.0002701739679358717,-0.006005213062124249,0.0019154640400801603,0.027878191849699398,0.0008121445711422846,-0.12100444355711423,2.0,-1.0,0.0,11.0,0.0,0.0,1.0,0.0,0.0,0.0,0.0,0.0,0.0,0.0,0.0,-0.14575298171342688,-1.5649563081042084,-1.5707914258136273,-0.4338532718496994,304.2160653501003,59.29461464328657,-0.001603469599198397,-0.006244505903807616,0.0,-0.003916165863727455,40.810787392625244,0.1267490801042084,-9.46606963406012,-32.205176026913804,966.1527184254509,12.404602,-0.003451685314629261,-0.006323208378757515,0.00014029821242485035,39.90367722072144,0.19429179181763528,-9.453084125100201,2294028.0,-0.0002976072525050109,-0.014768732350701403,0.004900435336673347,-32.205176026913804,-0.12811589844488977,-0.14011590844488978,0.40060034,-0.314465859244489,13.253906229679359,21.14811230018036,-0.1578841314709419,16.985790921422844,0.10999999,-20.301406975831664,399.61517156252506,12.404602,96616.29063232466,1.1479613363306613,0.31771150648497,0.12312822511623249,0.27110155456913837,-0.0005229564669338689,0.0049621949398797605,0.0023197641863727464,0.0,-0.13445279804809618,1.6171399,0.6889708309498999,0.04858806654509018,-0.04638692541282565,0.7216636681823647,1.0,398714138.0,327364433.38777554,400122.9296260521,4.841211252446894,0.004648136054108217,4.836562651224449,0.009296272108216434,1.5674630484108218,0.0,0.0,0.49518721414028055,39.8714138,32.7364372,-0.023398325675350704,0.49683972195591186,-0.00324042199799599,-0.30469569002004016,6.661810437923848,0.14716390093386778,-1.922067278246493,43.08195867613226,1.045776757456914,1.6169563121843689,0.1,-0.11733017931062124,-0.2167892821442886,-0.003154656,1.0,10506558.681362726,1.0,0.0,0.0,0.0,0.0
10577182.0,0.022100621953907815,0.01850432116032064,0.0011195453306613212,1.0,0.0,1500.0,1500.0,2000.0,1487.9673296192386,1511.0326703807614,1509.0,10.358009399278558,10.56031318693387,11.141679312905811,11.143022338416834,11.360667941723447,10.99190052246493,11.206594023987977,129.19213813226455,129.19213813226455,12.404533040841685,-0.00017865496392785568,-0.0060838274448897795,0.0021468095450901804,0.027795649955911824,0.0011145747675350703,-0.12103853070541083,2.0,-1.0,0.0,11.0,0.0,0.0,1.0,0.0,0.0,0.0,0.0,0.0,0.0,0.0,0.0,-0.13146202616833666,-1.56494257253507,-1.570776223238477,-0.44023051901603205,305.5343846867736,60.406771488957915,-0.0019833002124248498,-0.006796420965931864,0.0,-0.0034477943466933864,35.15716633012024,0.15691775510220443,-9.51638685687976,-217.70471661723457,966.1624751757515,12.404602,-0.0022582788717434897,-0.006551208915831662,-0.0014273151803607213,34.012087092184366,0.19327639227655308,-9.516076440827657,2294028.0,-0.006397469717434873,-0.009897368040080156,-0.0010375960621242521,-217.70471661723457,-0.136384701250501,-0.14838471125050098,0.40060034,-0.3080475845250501,13.253900009639278,22.350315466452905,-0.1819283194048096,16.016123032064126,0.10999999,-21.51709197531062,399.5915695507014,12.404602,96616.58721078157,1.1479649010741482,0.07472462801001993,0.19526434742284543,-0.23696328205811612,-0.0032406803206412858,0.004245041092184369,-0.0020358219939879763,0.0,-0.11503981262124248,1.6171399,0.6893878384328658,0.04158102177955912,-0.039697316697394784,0.7221004577575151,1.0,398714138.0,327364473.4737475,400123.54585430864,7.632612658877758,0.007729152935871745,7.624882733252507,0.01545830587174349,1.5683772169158317,0.0,0.0,0.4320856155791583,39.8714138,32.7364372,-0.0456647096472946,0.9908740295711426,0.008947842380761531,-0.4147330784589179,9.047054603747496,0.2082655230240481,-1.7221344647214427,37.33970935088176,0.9488186312505009,1.6168880116332665,0.1,-0.14027782028657315,-0.18251930484168336,-0.003154656,1.0,10577182.102204408,1.0,0.0,0.0,0.0,0.0
10643437.0,0.018810937701402804,0.017309875715430863,-0.002213999687374753,1.0,0.0,1499.190380761523,1500.0,2000.0,1489.428857715431,1509.571142284569,1508.190380761523,12.321457579278558,12.562203610440884,12.319234767354711,12.320727022685372,12.561375593026053,12.209526816072145,12.448002966653307,143.46384379458917,143.46384379458917,12.404525376172344,-8.715943887775544e-05,-0.006162442827655311,0.0023781550501002007,0.02771310787174349,0.0014170049639278559,-0.12107261719639278,2.0,-1.0,0.0,11.0,0.0,0.0,1.0,0.0,0.0,0.0,0.0,0.0,0.0,0.0,0.0,-0.1141420298537074,-1.565011658737475,-1.5707761477094189,-0.4421709167955912,306.87691969959917,61.29479010519038,-0.002363662108216433,-0.007280205452905812,0.0,-0.0028288988837675347,30.406763324288573,0.0411732374268535,-9.570050616044089,-336.0462075601203,966.1667864593187,12.404602,-0.0010425473406813573,-0.0053647649218436875,0.014643077829659344,29.30711780591182,0.0028078303807613225,-9.591970556124249,2294028.0,-0.011287121595190384,-0.007600292923847695,0.018052988853707447,-336.0462075601203,-0.14109818828056114,-0.15309819828056112,0.40060034,-0.2610323195390781,13.253912815651303,23.36654815258517,-0.20225271722444893,14.95808101557114,0.10999999,-23.289157506673348,399.59225989398794,12.404602,96616.57278677354,1.1479647380881763,0.14539563791583193,-0.04928696299198404,0.12474719558917872,-0.0002926948376753419,0.002749028018036069,0.004598238160320653,0.0,-0.09641812141482964,1.6171399,0.6897281066132265,0.034855971112224444,-0.03327692428857715,0.7224569043987976,1.0,398714138.0,327364531.67615235,400123.38080000004,10.120292572505011,0.013739958386773554,10.10948161436874,0.017713955955911822,1.5687970719278557,0.0,0.0,0.3689840168657314,39.8714138,32.7364372,-0.0741360590460922,1.6275894441743495,0.024386985815631278,-0.5100892759298598,11.209800650360723,0.2621624280100201,-1.4081275262825648,32.274228451783564,0.8359960369539078,1.617130504983968,0.1,-0.15956015005811625,-0.15804493474348696,-0.003154656,1.0,10643437.138276553,1.0,0.0,0.0,0.0,0.0
10701019.0,0.019103619054108217,-0.07562895474749497,-0.012965399098196393,1.0,0.0,1494.3346369338676,1500.0,2000.0,1490.1623246492986,1508.8376753507014,1474.063038256513,13.97110285709419,14.24410792795591,13.49679022509018,13.498431706953907,13.762083244328657,13.427153106773547,13.689411899318637,157.73554939499,157.73554939499,12.404517714789579,4.357915831663328e-06,-0.006241058210420842,0.0026095005551102202,0.027630565458917834,0.0017194351603206414,-0.12110670401603207,2.0,-1.0,0.0,11.0,0.0,0.0,1.0,0.0,0.0,0.0,0.0,0.0,0.0,0.0,0.0,-0.09682203324849699,-1.5650807443206414,-1.5707760731803606,-0.44411131357515027,308.219454650501,62.18280871470942,-0.002739541639278557,-0.007803472276553106,0.0,-0.002273794885771543,26.574101658977956,-0.20434025616432866,-9.684537732104209,-340.26352,966.1642303278556,12.404602,0.0036730068537074133,-0.007313673865731464,0.1033290484028056,25.016783968697396,-0.22110095294789583,-9.656086784975953,2294028.0,-0.005277455759519038,-0.013811082036072144,0.07050344977955912,-340.26352,-0.14062823624048096,-0.15262824624048096,0.40060034,-0.1548290598737475,13.253953351903808,24.111646963567132,-0.21715388269138278,13.771194783607214,0.10999999,-25.872392769739477,399.65262547875756,12.404602,96615.87263322645,1.1479563301382767,0.2932858042865731,0.1584602713046092,0.8830882346352705,-0.0013277202825651303,0.006801780286573147,0.059266673863727456,0.0,-0.0784094807014028,1.6171399,0.689999817240481,0.02834941954308617,-0.02706513297995992,0.7227415009418838,1.0,398714138.0,327364625.9911823,400121.66529659316,12.00525590755511,0.02556474679759519,11.991364498737475,0.012217625601202405,1.568235991002004,0.0,0.0,0.3058824191523046,39.8714138,32.7364372,-0.10787117368937876,2.4107949025751503,0.042921597424849696,-0.5876562865811623,13.15643344711423,0.3067193021723447,-0.9983342766432867,28.077404958977958,0.6361892459398798,1.6182415855310621,0.1,-0.17738727063727455,-0.13519714051903806,-0.003154656,1.0,10701018.72745491,1.0,0.0,0.0,0.0,0.0
10759847.0,-0.004175023611222418,-0.2808530021983968,-0.028704923160320625,1.0,0.0,1486.2037061242486,1500.0,2000.0,1499.595389478958,1499.404610521042,1364.8155206172346,15.565105498577154,15.869178801623246,14.674345680541082,14.676136391222444,14.96279088791583,14.644779393286571,14.930820841983966,172.0072549763527,172.0072549763527,12.404510051122244,9.589602204408809e-05,-0.006319673593186372,0.00284084606012024,0.0275480232745491,0.0020218653567134265,-0.12114079060721443,2.0,-1.0,0.0,11.0,0.0,0.0,1.0,0.0,0.0,0.0,0.0,0.0,0.0,0.0,0.0,-0.07950203622444892,-1.56514983048497,-1.5707759976513025,-0.4460517113547094,309.5619895823647,63.07082732422845,-0.0031096242084168333,-0.008421946456913828,0.0,-0.001930438713426854,23.33997872951904,-0.19264446958917847,-10.126921735006011,-340.26352,966.1682625298597,12.404602,0.08565386153106201,-0.06621557872745482,0.20242595414028042,22.242090232605214,-0.13381004887975928,-10.489493126128256,2294028.0,0.06414169599398789,-0.051745429763527015,0.1562089283667334,-340.26352,-0.13982853676352708,-0.15182854676352708,0.40060034,-0.04486051727254518,13.253995655270542,24.8394974161523,-0.23171004489178357,12.576112033026053,0.10999999,-28.507231107454906,399.57036987515033,12.404602,96616.84712386773,1.1479679920180361,1.6212231291763515,-1.6597935507074117,1.7578970394989963,0.037826329813627185,-0.023152044529058075,0.1577715262184368,0.0,-0.06085809652304611,1.6171399,0.6902110943006012,0.022005860184368745,-0.021008949761523052,0.7229627964028056,1.0,398714138.0,327364723.2903808,400119.8166827655,13.838460722344687,0.037888814324649286,13.82148891272545,0.006055591837675357,1.5675906715010022,0.0,0.0,0.2427808204388778,39.8714138,32.7364372,-0.13729723417635267,3.2680624212925844,0.06132476506012022,-0.6292703738276553,14.764102809498997,0.32740617010821643,-0.8922451579579159,24.889850068176358,0.049434157809619905,1.622964287482966,0.1,-0.19336832166132265,-0.12598310453106212,-0.003154656,1.0,10759847.120240482,1.0,0.0,0.0,0.0,0.0
10826414.0,-0.03174305333266535,-0.1933181338076152,-0.04530598369338678,1.0,0.0,1477.1266497014026,1500.0,2000.0,1515.2164040941884,1483.7835959058116,1401.7775551102204,16.816343063867738,17.1448598102004,15.851901140561122,15.853841065490982,16.16349853693387,15.862405686893789,16.1722297746493,186.27896058296594,186.27896058296594,12.404502392024048,0.00018742005210420847,-0.006398288975951904,0.003072191565130261,0.027465481633266533,0.002324295553106213,-0.12117487765531063,2.0,-1.0,0.0,11.0,0.0,0.0,1.0,0.0,0.0,0.0,0.0,0.0,0.0,0.0,0.0,-0.062182039909819624,-1.5652189161062122,-1.5707759223747495,-0.44799210913426857,310.9045246142284,63.9588459337475,-0.0034698900501002007,-0.009161118691382766,0.0,-0.001847231503006012,20.279941035490978,-0.12764423326052107,-10.44659781739479,-340.26352,966.1730885006011,12.404591957695391,0.19575157642084173,-0.1282455396032064,0.2385278367274549,19.408213916232462,-0.15076794919038078,-10.308197223086173,2294028.0,0.15735004961523053,-0.09129225341282565,0.2178718904809619,-340.26352,-0.13179780160921842,-0.1437978111042084,0.40060032383967936,0.09401226368737492,13.254033805310621,25.483828328997998,-0.24459589961923847,11.416901050661322,0.10999999,-31.18321515713427,399.53410500641286,12.404577891282566,96617.26290236472,1.1479729224408817,2.239169029697394,-1.1783097778016016,0.5643882940320631,0.15739359496793595,-0.10129072392585173,0.2316325097214429,0.0,-0.043635025346693376,1.6171399,0.6903660541523047,0.015779297501002,-0.015064462843687372,0.723125145751503,1.0,398714138.0,327364824.7044088,400119.10520380765,15.57744825737475,0.04452735128857714,15.559020323306614,-0.0013247697615230544,1.5672997520761522,0.0,0.0,0.17967922272545087,39.8714138,32.7364372,-0.16476211756513026,4.207923365897797,0.07906342714028057,-0.6590640269799599,16.198518096292585,0.33190830330661325,-0.9262076694128257,21.907973576352703,-0.3559453121843684,1.6308743495771545,0.1,-0.20661618804408818,-0.11296435518436873,-0.003154656,1.0,10826413.73747495,1.0,0.0,0.0,0.0,0.0
10891478.0,-0.04739355519038076,-0.15340894902204408,-0.05032179541482966,1.0,0.0,1474.6624533987974,1500.0,2000.0,1523.6251846132263,1475.3748153867737,1422.4689378757514,17.924866036232466,18.27509722965932,17.02945659563126,17.03154574975952,17.364206188236473,17.080031980501,17.41363870997996,200.55066623907817,200.55066623907817,12.404494727975951,0.0002789390561122244,-0.006476904358717435,0.0033035370701402804,0.02738293948697395,0.002626725749498998,-0.12120896420841684,2.0,-1.0,0.0,11.0,0.0,0.0,1.0,0.0,0.0,0.0,0.0,0.0,0.0,0.0,0.0,-0.04486204359519039,-1.565288002232465,-1.5707758475931863,-0.44993250691382763,312.2470595460922,64.84686454326653,-0.0038201086452905814,-0.00996540416232465,0.0,-0.001984901126252505,17.12352895975952,-0.18466932154709417,-10.082978724529058,-340.26352,966.1730445160321,12.40455364521042,0.27268697528456914,-0.09207495860120242,0.17196834327254512,16.3896217601002,-0.15227043102605212,-9.956152792537074,2294028.0,0.25207883273947895,-0.1027690196753507,0.17864975055911825,-340.26352,-0.08762514748697396,-0.09962515402004009,0.4006002268577154,0.3773532306833667,13.25405116751503,25.710714737294587,-0.24913327802204407,10.436983130561122,0.10999999,-34.06485228368738,399.5353728422845,12.404542942825652,96617.24207955912,1.1479726610320642,1.35974850797996,0.2676406519458917,-1.4504270500661316,0.2523341182685371,-0.1003873021943888,0.20850037834669338,0.0,-0.026637469290581167,1.6171399,0.6904697112785572,0.009633125492985974,-0.009196723855711424,0.7232337055831662,1.0,398714138.0,327364949.0715431,400124.8953048096,16.77772773062124,0.018657618286573155,16.767130823066132,-0.015671189723446888,1.5690351896052104,0.0,0.0,0.11657762401202407,39.8714138,32.7364372,-0.1913846318036072,5.3088893482745485,0.0951877510741483,-0.6922428981322645,17.489090717134268,0.31529753890981965,-1.0352383476753506,18.490335856072146,0.1473271756833666,1.6440358381242486,0.1,-0.21799601377354708,-0.10761184389378758,-0.003154656,1.0,10891477.925851703,1.0,0.0,0.0,0.0,0.0
10949211.0,-0.057701776919839694,-0.13031741196793586,-0.041873288206412805,1.0,0.0,1479.241984517034,1500.0,2000.0,1529.5587418356713,1469.4412581643287,1435.065195507014,18.749083715751507,19.115195087695394,18.207012048176356,18.209250434028057,18.56491383953908,18.29765827410822,18.655047649979963,214.8223718204409,214.8223718204409,12.404487069258517,0.0003704570601202406,-0.006555518741482966,0.003534882575150301,0.027300397593186372,0.002929155945891784,-0.12124305050901803,2.0,-1.0,0.0,11.0,0.0,0.0,1.0,0.0,0.0,0.0,0.0,0.0,0.0,0.0,0.0,-0.027542047280561102,-1.5653570878917835,-1.5707757720641284,-0.4518729046933868,313.5895944779559,65.73488315278557,-0.00415817572745491,-0.010779492993987977,0.0,-0.0022372918837675355,14.659045394589175,-0.07461410991583142,-9.92996030291984,-340.26352,966.1745743370741,12.40451533272545,0.308032900725451,-0.032981141380761456,0.02379278433266509,14.077414865390779,-0.08544454692785525,-9.80320123223046,2294028.0,0.30218250245290584,-0.06124180993386765,0.05506610631062104,-191.86012167771517,-0.04247173359318632,-0.0544717371643286,0.40060012663326655,0.6646145395891787,13.254067961623246,25.92627321781563,-0.25344410838076153,9.461930566885771,0.10999999,-36.952070098236476,399.4416093496994,12.404506044168338,96618.30209891785,1.1479852551062124,0.6964511160821649,0.8534506729318645,-2.9630093921422844,0.299736006236473,-0.057178492328657224,0.09951725083166316,0.0,-0.009786083144288556,1.6171399,0.6905226732905811,0.0035391146893787497,-0.003378784993987969,0.7232891608076152,1.0,398714138.0,327365076.92665327,400131.6735408817,17.8961372149499,-0.01215255005010024,17.894782738997996,-0.03107627313226455,1.5710785813627255,0.0,0.0,0.053476026298597115,39.8714138,32.7364372,-0.21296086345490983,6.423421734242487,0.10838254467935873,-0.7194606211142285,18.525936568557118,0.315900606244489,-1.2108554508476956,15.729126100040077,0.3473013069398798,1.6505282459078157,0.1,-0.22870535508016035,-0.09891345809218438,-0.003154656,1.0,10949211.482965931,1.0,0.0,0.0,0.0,0.0
11017463.0,-0.06268291468336673,-0.11319462629458917,-0.021843497274549088,1.0,0.0,1489.5598358637274,1500.0,2000.0,1531.3046092184368,1467.6953907815632,1445.2486458677354,19.621461320661325,20.004724112765533,19.20318650791583,19.205267051783565,19.580400470601205,19.321390856172343,19.698791401382767,227.60743225571142,227.60743225571142,12.404404587735472,0.00044678803406813627,-0.006622094823647295,0.0037293633286573148,0.02676735204008016,0.003279248226452906,-0.12121786130861723,2.0,-1.0,0.0,11.0,0.0,0.0,1.0,0.0,0.0,0.0,0.0,0.0,0.0,0.0,0.0,-0.010254160635270534,-1.565274897973948,-1.5707478649098197,-0.462930262256513,314.9562150344689,66.48329286288578,-0.004480559773547094,-0.011536889338677355,0.0,-0.002517756611222445,12.615981656092183,0.11034686877555118,-9.90189753126453,-296.6017018997996,966.1741592851703,12.404480733627254,0.3207398104288577,0.004027764577154318,-0.16303720668136285,11.673657547675349,0.21323216509819648,-9.927858492609218,2294028.0,0.3242968592685371,-0.007113823138276538,-0.09693120504208425,-57.689405598216425,0.007632168665330681,-0.004367832639278538,0.4006000315811623,0.948080316723447,13.254089748637275,26.116996657995994,-0.25725813865731467,8.504886165332666,0.10999999,-39.842402071322645,399.48835474188377,12.404482960801603,96617.78497452906,1.1479791288116232,0.5836648160360718,0.5494697829719433,-2.5868474261242485,0.3227854889238477,0.002018929997996008,-0.04786878062124254,0.0,0.0069936119779559205,1.6171399,0.6905260773707416,-0.0025292265631262547,0.002414647480961926,0.7232927242324649,1.0,398714138.0,327365204.81222445,400138.45183406817,19.014546693567134,-0.04296271808216434,19.022434649218436,-0.04648135754108217,1.5731219734248496,0.0,0.0,0.006093403110220429,39.8714138,32.7364372,-0.2312204020480962,7.580216933903809,0.11992113496192386,-0.7450395528917836,19.40966113749499,0.3227542596773547,-1.3992136820621242,13.409246707855711,0.3639778911923847,1.6505738810581163,0.1,-0.23676061983166335,-0.09304888799198396,-0.003154656,1.0,11017462.74749499,1.0,0.0,0.0,0.0,0.0
11081256.0,-0.06744469244689379,-0.09621880483567136,-0.0007539065150300684,1.0,0.0,1499.140915985972,1500.0,2000.0,1533.0619506312626,1465.9380493687374,1451.2344689378758,20.371515805651303,20.769402779238476,19.570409428637273,19.571267396633267,19.953620046352707,19.672783199338678,20.05711703272545,235.23744488617234,235.23744488617234,12.40406268258517,0.00047045431863727453,-0.006646922721442886,0.0037960119418837678,0.024672156248496994,0.003794611034068136,-0.12098712722244488,2.0,-1.0,0.0,11.0,0.0,0.0,1.0,0.0,0.0,0.0,0.0,0.0,0.0,0.0,0.0,0.0069025723587174265,-1.5645748116452904,-1.5706062768476956,-0.511226437002004,316.4212145208418,66.66146091266532,-0.00479323223246493,-0.012214064174348697,0.0,-0.002767127773547094,10.85395313200401,0.26655014906813623,-9.946344665637275,-104.79903774357524,966.1644941875752,12.404459016252504,0.3141024902765531,-0.001105885929859708,-0.24417328119639278,10.136025776893788,0.27912959394589193,-10.021054864028056,2294028.0,0.3253756262845691,0.0001417639979959926,-0.2023121551823647,-224.68983050641273,0.09784765663527048,0.0858476556352705,0.4005999682985972,1.20079260895992,13.254151972565131,26.106492860140282,-0.2570468152224449,7.693753815302606,0.10999999,-42.75796676220441,399.56196752725464,12.404449,96616.93572821644,1.1479690609579158,0.21228098596593192,0.2873470075971948,-2.156398009841684,0.31551690244088176,0.01731228699198397,-0.20417158586773543,0.0,0.023765008128256503,1.6171399,0.6904827974649298,-0.0085943920260521,0.008205048921843686,0.7232473948897796,1.0,398714137.52945894,327365353.3288577,400142.61498316634,19.807267096933867,-0.10230035260320637,19.81013469967936,-0.047622709010020046,1.5759122624148298,0.0,0.0,0.0,39.8714138,32.7364372,-0.2465754343246493,8.860132512458918,0.1307022260961924,-0.774951536026052,20.194136983587175,0.32183753621442884,-1.5139088157655312,11.50082474226453,0.26407318682965936,1.6396212129398797,0.1,-0.2430928397254509,-0.08345387334268538,-0.003154656,1.0,11081256.144288577,1.0,0.0,0.0,0.0,0.0
11141387.0,-0.06901209010821643,-0.07934414195991982,0.015389432362725466,1.0,0.0,1507.9844014108216,1500.0,2000.0,1534.314629258517,1464.685370741483,1459.629258517034,20.90988106186373,21.31840004190381,19.82782763198397,19.827277122905812,20.21471022731463,19.90679585753507,20.29577979945892,241.96746990300602,241.96746990300602,12.403675491663327,0.0004849262785571142,-0.006664462577154309,0.003840343056112224,0.022304234380761522,0.004338826693386774,-0.12072050898997996,2.0,-1.0,0.0,11.0,0.0,0.0,1.0,0.0,0.0,0.0,0.0,0.0,0.0,0.0,0.0,0.024034736791583182,-1.563758977202405,-1.570443393250501,-0.5664984388256514,317.90464298677364,66.73280743811624,-0.005094855066132265,-0.012808569909819639,0.0,-0.0029897385250501007,9.2322303954509,0.21648202272745465,-9.932482876503006,-95.14601955350325,966.1648042126252,12.404439848957916,0.295795879496994,-0.019756474773547108,-0.2293343087394789,8.517501285705409,-0.06185267268937912,-9.901537330621242,2294028.0,0.31047432310220435,-0.0036310750881763595,-0.23143387390581158,-340.26352,0.19700165173146303,0.18500165073146302,0.4005999120220441,1.4466517621442887,13.254223206833668,26.051147381222442,-0.2559384773046092,6.9151366576733455,0.10999999,-45.67915433164329,399.53720455851703,12.404429280561123,96617.21313112223,1.1479722747815633,-0.5173240030681379,-0.2056814863907817,-0.0016757741001980353,0.30661365523647294,0.003139500114228432,-0.25544102635070143,0.0,0.040575890012024066,1.6171399,0.6903881355090181,-0.014673205304609225,0.014008479062124254,0.7231482168897796,1.0,398714136.9370741,327365508.0236473,400146.0041645291,20.503576630180362,-0.17008272186372753,20.497201801322646,-0.04454169278557114,1.578923648252505,0.0,0.0,0.0,39.8714138,32.7364372,-0.26002964361923847,10.144964086326656,0.1402252237214429,-0.7950928133667334,20.858382263707416,0.31660366319038075,-1.352479320905811,9.803471401639277,0.2097540387194389,1.624621479008016,0.1,-0.24871404623847695,-0.06804991209218435,-0.003154656,1.0,11141387.448897796,1.0,0.0,0.0,0.0,0.0
11204130.0,-0.07259346902404809,-0.07201022974148295,0.02560227846492986,1.0,0.0,1513.0,1500.0,2000.0,1536.1382765531062,1462.8617234468938,1465.2066541703407,21.390539246893788,21.808372621903807,20.085245828476957,20.083286849178357,20.475800398276554,20.14080851573146,20.534442564428858,248.69749490601203,248.69749490601203,12.40328829759519,0.0004993982384769539,-0.006682001609218437,0.0038846741703406815,0.019936312513026053,0.004883043038076153,-0.12045389093386774,2.0,-1.0,0.0,11.0,0.0,0.0,1.0,0.0,0.0,0.0,0.0,0.0,0.0,0.0,0.0,0.0411669002244489,-1.5629431420741484,-1.5702805096533066,-0.6217704416492986,319.3880714665331,66.80415396356713,-0.005388949156312625,-0.01334381323046092,0.0,-0.00322824795991984,7.724804199675351,-0.05432695779158321,-9.882523328617234,-302.08576085971947,966.1762806561122,12.404419730681363,0.274635804993988,-0.0019282951603206344,-0.16012637101603205,7.2877204763446874,-0.16250181875951908,-9.854177511563126,2294028.0,0.28198311508416835,-0.006703324432865726,-0.17879910957515027,-340.26352,0.29858504929859725,0.28658504929859724,0.40059987081763526,1.6918007583346695,13.254295462965931,25.989255856092182,-0.25469919881362724,6.14159602293988,0.10999999,-48.60321982785571,399.58971418677356,12.404400684569138,96616.60412282565,1.1479650669258519,-0.07452725529659326,-0.032696041721442845,1.2531924385891784,0.2901279255831663,-0.0067453560180360675,-0.22073991808416832,0.0,0.057459511737474954,1.6171399,0.690246362523046,-0.020777319521042087,0.01983606549699399,0.7229997448376754,1.0,398714136.2308617,327365662.7466934,400149.41619979957,21.19520263739479,-0.23772733947494992,21.179814946432867,-0.04219534828456914,1.5819262183066134,0.0,0.0,0.0,39.8714138,32.7364372,-0.27175884060921845,11.421804711663327,0.14842471595190382,-0.8023389623346693,21.401876550601205,0.307614494498998,-0.9319680308096192,8.27373645849499,0.20496839129659317,1.6077198386052103,0.1,-0.25428909081162326,-0.050415746601202405,-0.003154656,1.0,11204130.362725452,1.0,0.0,0.0,0.0,0.0
11264397.0,-0.07501945103406814,-0.06248982364929858,0.0262019864008016,1.0,0.0,1512.3807615230462,1500.0,2000.0,1537.6192384769538,1461.3807615230462,1468.0460016232464,21.84196211717435,22.268746795490983,20.34266403220441,20.339296581643286,20.736890579238477,20.374821173927856,20.773105333206413,255.42751983667338,255.42751983667338,12.4029011001002,0.0005138708176352706,-0.006699541260521042,0.003929005284569138,0.017568390645290578,0.005427258659318639,-0.1201872718777555,2.0,-1.0,0.0,11.0,0.0,0.0,1.0,0.0,0.0,0.0,0.0,0.0,0.0,0.0,0.0,0.05829906465731466,-1.5621273076693387,-1.5701176260561123,-0.677042443472946,320.8715000186372,66.87550048282566,-0.005679326192384771,-0.013836408436873749,0.0,-0.0035448912665330666,6.367038543452904,-0.29159581463527096,-10.328406346873749,-340.26352,966.1678980645289,12.404384770300602,0.2448757188677354,0.049694230160320735,-0.037233806853707176,6.0647753468517,-0.3035650650420841,-10.299530930140282,2294028.0,0.25449510113026047,0.03500818579759528,-0.05590429216232442,-340.26352,0.43793027542284596,0.42593027542284595,0.40060006327855713,1.9259112964448903,13.254383598617235,25.82561472298597,-0.2514246105250501,5.4469631800380744,0.10999999,-51.57201882362726,399.6448409711423,12.404369422845692,96615.96637074149,1.1479574882464931,-0.3718164079038078,0.5750950621963947,1.9264271364288592,0.26057576030861723,0.030343353523046186,-0.11506686742284547,0.0,0.07445017190180364,1.6171399,0.6900520262825651,-0.02691858531462927,0.025699117981963938,0.7227962006452905,1.0,398714134.87114227,327365820.7731463,400153.59255911823,21.730921174488977,-0.30078644168937885,21.714162686673347,-0.06430510114829668,1.5846353152825652,0.0,0.0,0.0,39.8714138,32.7364372,-0.28144428638276553,12.819602251803609,0.15578422662925853,-0.7957042518416834,21.871127956132266,0.2932282748296593,-0.8994535724368738,6.893556780697393,-0.07507122292184426,1.5961703576072144,0.1,-0.2592540408697395,-0.038694293004008014,-0.003154656,1.0,11264397.32264529,1.0,0.0,0.0,0.0,0.0
11322854.0,-0.0777385999238477,-0.05852494645290581,0.0203031576012024,1.0,0.0,1508.6993987975952,1500.0,2000.0,1539.0,1460.0,1470.975205511022,22.143991018216433,22.576703444589178,20.60008223731463,20.595306311723448,20.9979807602004,20.608833832124247,21.011768103366734,262.15754485350703,262.15754485350703,12.40251390260521,0.0005283431583166333,-0.006717080673346694,0.003973336398797595,0.015200468777555109,0.0059714741422845705,-0.11992065382164328,2.0,-1.0,0.0,11.0,0.0,0.0,1.0,0.0,0.0,0.0,0.0,0.0,0.0,0.0,0.0,0.07543122909018038,-1.5613114734028055,-1.5699547424589178,-0.7323144453967937,322.35492848456914,66.94684700446894,-0.005966402176352706,-0.014306248519038077,0.0,-0.003977419372745491,5.14983828138076,-0.4132538542204408,-11.100565558216434,-340.26352,966.1589,12.404334925631263,0.22662824989779556,0.10967070879759526,0.07371924742084178,5.139234107783566,-0.343471524260521,-11.142328379298599,2294028.0,0.22841920967535068,0.09279530124849704,0.06597482241082171,-340.26352,0.5969970250941885,0.5849970250941885,0.4006003773426854,2.1542568815671346,13.254480025050098,25.60883375763527,-0.24708705965130262,4.79354078398998,0.10999999,-54.56418036330662,399.6283585745491,12.404329902344688,96616.1734492986,1.1479600233346692,-0.4996306363747487,0.6339340356112227,1.8072917265350703,0.23321911069539078,0.09215429125050106,0.03174115217034077,0.0,0.0915676172224449,1.6171399,0.6898079731503006,-0.03310378817835671,0.03160411880761523,0.7225405633086174,1.0,398714132.74969935,327365981.9018036,400158.52213707415,22.11296727771543,-0.3593257650240481,22.102370523507016,-0.11052035685571146,1.5870551462464932,0.0,0.0,0.0,39.8714138,32.7364372,-0.290708550248497,14.223001737955913,0.16107870587975953,-0.7925332552965932,22.27872364436874,0.25405290691983956,-1.026400142144289,5.63954635038076,-0.6771406142645301,1.5900907006933866,0.1,-0.26392981442885766,-0.02439132479358716,-0.003154656,1.0,11322853.615230462,1.0,0.0,0.0,0.0,0.0
11384362.0,-0.07958909452705411,-0.05584764029458918,0.010354308190380761,1.0,0.0,1503.6753507014027,1500.0,2000.0,1539.0,1460.0,1470.8963590360722,22.453067302665332,22.891846591543086,20.85750043823647,20.851316037995993,21.259070941162324,20.842846490320643,21.250430863527054,268.88756987034066,268.88756987034066,12.402126710921843,0.000542815118236473,-0.006734620286573146,0.004017667513026052,0.01283254690981964,0.006515690625250502,-0.11965403534669339,2.0,-1.0,0.0,11.0,0.0,0.0,1.0,0.0,0.0,0.0,0.0,0.0,0.0,0.0,0.0,0.09256339294188376,-1.560495638717435,-1.5697918582805612,-0.7875864481202405,323.8383570086172,67.01819352991984,-0.006252747775551103,-0.0147592440501002,0.0,-0.004553819004008016,4.180296004208417,-0.2842031736973948,-12.369637083466934,-340.26352,966.1589,12.404258300661322,0.19698589638877756,0.181359033250501,0.16229731026252506,4.1281494268076155,-0.3024569362224449,-12.6926174749499,2294028.0,0.20509396993587176,0.1643788952224449,0.1486076648016032,-340.26352,0.7560637755651303,0.7440637755651303,0.40060069220641287,2.3826024656893785,13.254576459478958,25.392052796472946,-0.2427495087775551,4.140118387941884,0.10999999,-57.55634190498998,399.6721438807615,12.404259926653307,96615.63681795592,1.1479536090801603,-0.4026808573046091,0.8691213882224448,1.5858708141442888,0.20789203088176356,0.16426881172745492,0.1253575116993988,0.0,0.1088461909759519,1.6171399,0.6895074406472946,-0.039344614458917834,0.03756222170541082,0.7222257826492986,1.0,398714130.5282565,327366143.03046095,400163.4518150301,22.495013388937878,-0.41786508815831663,22.49057836034068,-0.15673561156312626,1.5894749764108216,0.0,0.0,0.0,39.8714138,32.7364372,-0.3000683436412826,15.575896102144288,0.16202152030260522,-0.8046890411202405,22.58220410933868,0.1601786219539078,-1.3197243494368738,4.599837500627254,-1.8820835477154307,1.593895762240481,0.1,-0.26880832258517035,-0.005842316977955913,-0.003154656,1.0,11384362.104208417,1.0,0.0,0.0,0.0,0.0
11442858.0,-0.08030424508416834,-0.055944559434869756,0.00043739177354710135,1.0,0.0,1498.8136272545091,1500.0,2000.0,1540.0,1459.0,1472.5664275430863,22.665667929919838,23.108599146533066,21.11491863815631,21.107325764268534,21.520161122124247,21.076859148517034,21.489093633687375,275.6175948809619,275.6175948809619,12.401739517615232,0.0005572870781563126,-0.006752159737474951,0.004061998627254509,0.01046462504208417,0.007059906108216431,-0.11938741670941883,2.0,-1.0,0.0,11.0,0.0,0.0,1.0,0.0,0.0,0.0,0.0,0.0,0.0,0.0,0.0,0.10969555695591181,-1.5596798039318636,-1.5696289742645289,-0.8428584499438877,325.32178551643295,67.08954005537075,-0.006537415723446894,-0.015190493611222444,0.0,-0.005249273651302604,3.422196174585171,-0.15087497728657326,-13.503435573406813,-340.26352,966.1527736801603,12.404113564448897,0.16852010230861725,0.21853486236673345,0.18340121660521044,3.337508826134269,-0.06170526485571158,-13.920477530601202,2294028.0,0.17747651975551104,0.20833695944689373,0.166894710743487,-340.26352,0.9263709872264527,0.9143709872264527,0.40060053653507016,2.602934464583166,13.254684473987975,25.165712333466935,-0.23822054201202406,3.5999362588577157,0.10999999,-60.19820308458919,399.6423943216433,12.404121423947895,96616.00882593186,1.1479579731342686,-0.5918064163687383,0.5364219989478969,0.22524397587174413,0.17718514995591184,0.22110126559919838,0.17611870364128254,0.0,0.12627062061723443,1.6171399,0.6891567851022045,-0.0456354111262525,0.043568033625250496,0.7218584522224449,1.0,398714127.83226454,327366307.7995992,400177.0153320641,22.82266594440882,-0.49971596984368727,22.82093907292585,-0.26252485400200376,1.5928742816533064,0.0,0.0,0.0,39.8714138,32.7364372,-0.3129505041062124,17.028969833386775,0.1489839391462926,-0.8538113169058116,22.827704969318635,-0.038895295555109996,-1.7628767294128251,3.5836229784569147,-3.1511599099358705,1.603224656248497,0.1,-0.2729598913426854,0.012298531647294575,-0.003154656,1.0,11442857.521042084,1.0,0.0,0.0,0.0,0.0
11499677.0,-0.08141123949098196,-0.05251809354509018,-0.006513658486973938,1.0,0.0,1495.1591342484971,1500.0,2000.0,1540.0,1459.0,1472.7022204208417,22.819692169078156,23.26570688993988,21.37233684264529,21.363335495971942,21.78125129765531,21.310871806713426,21.727756399278558,282.347619804008,282.347619804008,12.40135232012024,0.0005717590380761523,-0.006769698769539078,0.004106329741482966,0.008096703174348702,0.007604122591182363,-0.11912079819639278,2.0,-1.0,0.0,11.0,0.0,0.0,1.0,0.0,0.0,0.0,0.0,0.0,0.0,0.0,0.0,0.12707234152104205,-1.558529400280561,-1.569405407304609,-0.919420281825651,326.8027855182365,67.11425754963928,-0.0068269874308617235,-0.015610452328657314,0.0,-0.006084082374749497,2.803964752763528,-0.04394954331262536,-14.386864412885771,-289.11517621703433,966.1465609537074,12.403896610921842,0.15093012131262526,0.22165819645290583,0.14475109693186383,2.791713563340682,0.0340399510080161,-14.632458551042083,2294028.0,0.14834576767935875,0.2265534388737475,0.1467129329298598,-289.11517621703433,1.1080722129098193,1.0960722129098193,0.40059990510220445,2.81514340613026,13.254804233947896,24.929681781222445,-0.23349754507815632,3.1745413224388788,0.10999999,-62.48497861501002,399.7413127208417,12.403853943507015,96614.84491090181,1.1479442180941886,-0.05541121937074117,0.42158822277354424,-0.2848400315511018,0.15246416835871748,0.23541747299398796,0.15262350938677366,0.0,0.14388412661523042,1.6171399,0.6887432791583167,-0.05199055582965931,0.04963527766733466,0.721425334262525,1.0,398714123.83366734,327366481.8669339,400212.7551442886,23.010608291122242,-0.6414427454669336,23.00271907783567,-0.5213302824368733,1.5987893718777555,0.0,0.0,0.0,39.8714138,32.7364372,-0.32996631882565125,18.500729614288574,0.12411929288977962,-0.9274133147835669,23.026461262985972,-0.2945097789198392,-2.185691635112224,2.650751754120242,-4.246305742494989,1.6141076319418837,0.10129782986172345,-0.2765852249218437,0.030471569697394747,-0.003154656,1.0,11499677.044088176,1.0,0.0,0.0,0.0,0.0
11560593.0,-0.08080965271342687,-0.053199024899799593,-0.01115761991382766,1.0,0.0,1493.9759519038075,1500.0,2000.0,1540.0,1459.0,1474.0328418356714,22.977549895350702,23.42661751326653,21.629755037995995,21.61934522681363,22.042341474048097,21.54488446490982,21.966419164248496,289.0776448208418,289.0776448208418,12.400965122625252,0.000586230997995992,-0.006787238801603207,0.0041506618557114235,0.005728781306613221,0.008148338074148298,-0.1188541795971944,2.0,-1.0,0.0,11.0,0.0,0.0,1.0,0.0,0.0,0.0,0.0,0.0,0.0,0.0,0.0,0.14525495283567139,-1.5562768577995991,-1.5689819355410821,-1.0661149987454912,328.27578553527053,66.98536985268538,-0.007099644476953908,-0.015977959228456916,0.0,-0.006942864725450903,2.3370409766472937,-0.017397105713426893,-14.714622823046092,-93.9024987016229,966.1471781953908,12.403553548897795,0.11768089689979956,0.21376250080961914,0.07712550049298586,2.294736827677354,0.03568331282364734,-14.980459435971945,2294028.0,0.11997374497194382,0.20397383190380755,0.09243716588376742,-93.9024987016229,1.2897734385070143,1.2777734385070143,0.4005992737314629,3.0273523486773555,13.254923994529058,24.693651228356714,-0.22877454823046092,2.749146386082163,0.10999999,-64.77175413605211,399.7386478280561,12.403474986112224,96614.89069462926,1.1479447793587176,-0.8889401418937849,-0.4972217298697416,-0.4841296822204429,0.12253697968136266,0.22731282660521035,0.09232209236673332,0.0,0.16165998564529063,1.6171399,0.6882778272304608,-0.0584006418216433,0.055754972801603214,0.720937817513026,1.0,398714119.83507013,327366655.9280561,400248.4949478958,23.198550637835677,-0.7831695220040084,23.18449908274549,-0.780135710871744,1.6047044621883766,0.0,0.0,0.0,39.8714138,32.7364372,-0.3546811699198398,19.909393114068138,0.08182992209418827,-1.0274709351082167,23.159972116913828,-0.5880325738236479,-2.375336667733467,1.9279240951402792,-4.769814407400802,1.6229414338517034,0.10661596323046098,-0.27964369485370744,0.04245523665330664,-0.003154656,1.0,11560592.845691383,1.0,0.0,0.0,0.0,0.0
11621317.0,-0.08113258985571142,-0.048112075170340676,-0.012351028833667335,1.0,0.0,1493.0,1500.0,2000.0,1540.0,1459.0,1475.8651268997996,23.052202408496996,23.502784316573145,21.88717324286573,21.875354953086173,22.30343165501002,21.778897128156313,22.205081934168337,295.8076698376754,295.8076698376754,12.400577930180361,0.0006007029579158317,-0.0068047778336673345,0.00419499296993988,0.0033608594388777526,0.00869255405210421,-0.1185875610460922,2.0,-1.0,0.0,11.0,0.0,0.0,1.0,0.0,0.0,0.0,0.0,0.0,0.0,0.0,0.0,0.16360862354909822,-1.5537903562865731,-1.5685160293627254,-1.227697394655311,329.74708739018035,66.82387512144288,-0.007376469356713427,-0.016310537963927854,0.0,-0.00785240080961924,2.0003654639759514,-0.0657573125410823,-14.570738696392786,12.403109584248496,966.1421252170342,12.403109584248496,0.10138979522845691,0.1792389201082164,0.027180376735470885,1.9993934358897794,0.04874366770541082,-14.603269981903807,2294028.0,0.0978108109539078,0.1779790801763527,0.04000030637474944,12.403109584248496,1.483514373715431,1.4715143641202408,0.4005992256573146,3.2350142032344693,13.2550457853507,24.4621823753507,-0.22414274048897795,2.359729144813627,0.10999999,-66.9488721601002,399.8639367226453,12.402980508356714,96613.44923262525,1.1479276098316633,-0.11784494287975972,-0.6177641000040061,-1.1293423468056112,0.09861303145691382,0.19671207214028053,0.024758131312625168,0.0,0.17963539572745493,1.6171399,0.6877464003306614,-0.06487753421042085,0.06193844532665331,0.7203811590460922,1.0,398714115.3314629,327366829.2811623,400294.67801002006,23.364114485631262,-0.928912938214429,23.34390070488978,-1.0383673327815635,1.6107697813166333,0.0,0.0,0.0,39.8714138,32.7364372,-0.38992763294589183,21.37314308194389,0.017162292787575053,-1.1418148298837676,23.258268331603208,-0.8966260714729463,-2.4033942128677355,1.365900508891783,-4.7567184464428856,1.62861270993988,0.15231860871743497,-0.28231275455911825,0.05704070001803609,-0.003154656,1.0,11621316.719438877,1.0,0.0,0.0,0.0,0.0
11678137.0,-0.08091377667935873,-0.046279094434869744,-0.01240629622244489,1.0,0.0,1493.0,1500.0,2000.0,1540.0,1459.0,1476.9909472885772,23.112175606613228,23.56409004258517,22.144591447835673,22.131364679358715,22.564521835971945,22.012909791302608,22.443744704188376,302.537694854509,302.537694854509,12.40019073763527,0.0006151749178356714,-0.006822317851703407,0.004239324084168336,0.0009929375711422838,0.00923677004008016,-0.11832094248496994,2.0,-1.0,0.0,11.0,0.0,0.0,1.0,0.0,0.0,0.0,0.0,0.0,0.0,0.0,0.0,0.18196229524849705,-1.5513038547835671,-1.5680501231843689,-1.3892797905651302,331.218389147495,66.66238039995991,-0.007650940955911822,-0.016606572490981963,0.0,-0.008748889653306613,1.7604980276813624,-0.17087874448496998,-14.077565989959918,12.402592062104208,966.1306758509019,12.402592062104208,0.07753989546292585,0.1626962672304609,-0.006164386579158328,1.7160650476412824,-0.09685138583166342,-14.147751383687375,2294028.0,0.08131247452905811,0.1554353461062124,-0.0051777556633266705,12.402592062104208,1.7027798963446896,1.6907798566392787,0.40060041521643286,3.4330360805370748,13.255171883827655,24.24038445038076,-0.21970425715631264,2.0465858230220437,0.10999999,-68.89351261158316,399.89905317915833,12.402380013246493,96613.01556088176,1.1479224161222445,-0.46502931526052116,-0.6475441154709423,-0.6415617040420838,0.07611339672945891,0.17282098393787576,-0.013016687436873757,0.0,0.197773303246493,1.6171399,0.6871587840741483,-0.0714081246232465,0.06817318753507015,0.719765629012024,1.0,398714108.96452904,327366999.9881764,400377.9863110221,23.45012409779559,-1.0889352749158316,23.423748503206415,-1.2945591079338676,1.61736915202004,0.0,0.0,0.0,39.8714138,32.7364372,-0.4337393807374749,22.898504698416833,-0.06553216461923851,-1.265173700725451,23.334348845651302,-1.2131032558897796,-2.318742906170341,0.9196164555030059,-4.3363741949599195,1.6316691951823645,0.2350130685911824,-0.2846960345751503,0.0765957035731463,-0.003154656,1.0,11678136.785571143,1.0,0.0,0.0,0.0,0.0
11738957.0,-0.08166234474148297,-0.040606284593186374,-0.012928109446893788,1.0,0.0,1493.0,1500.0,2000.0,1540.0,1459.0,1479.8434511282564,23.233704805751504,23.688127970541082,22.40200964775551,22.387374415631264,22.825612016933867,22.246922449499,22.68240746448898,309.2677197713427,309.2677197713427,12.39980354014028,0.000629646877755511,-0.006839856897795591,0.004283655198396794,-0.001374984296593185,0.009780986056112224,-0.11805432442885772,2.0,-1.0,0.0,11.0,0.0,0.0,1.0,0.0,0.0,0.0,0.0,0.0,0.0,0.0,0.0,0.2003159659759519,-1.5488173527755513,-1.5675842160060118,-1.5508621869418837,332.6896910048096,66.50088567380762,-0.007922954863727455,-0.016845469268537073,0.0,-0.009645331801603207,1.5161922906452907,-0.3086272137995991,-13.65953480987976,-194.08239403967923,966.1172766835671,12.401931686312626,0.065053326498998,0.14403600020641286,0.004321169202404801,1.56154518592986,-0.23553153525250492,-13.58098349242485,2294028.0,0.07013771128456914,0.14527780763527054,6.902298196392312e-05,-194.08239403967923,1.92317869256513,1.911178621292585,0.4006016592244489,3.6306299504088173,13.25529818012024,24.019015914468937,-0.2152743574729459,1.7368290098376755,0.10999999,-70.82783123016031,400.07202449018035,12.401665149058116,96611.03843925851,1.1478989498977954,0.0691995595290584,0.11571578421843645,0.01616276968336671,0.06172220058517035,0.1590518238216433,-0.009926066599198398,0.0,0.21609945223446891,1.6171399,0.6865026043747495,-0.07799999288977956,0.07446643820641281,0.7190782887635271,1.0,398714102.1987976,327367170.004008,400469.80061883765,23.517906476232465,-1.2522291578016032,23.48536915184369,-1.5502835194869737,1.624090883761523,0.0,0.0,0.0,39.8714138,32.7364372,-0.4951783249559118,24.430358895731462,-0.17567784578557108,-1.3817872931663324,23.375527290541083,-1.47751982150501,-2.1388298219679363,0.5482923841843689,-3.8074895608577157,1.6326863349058116,0.34515874785170336,-0.28684675651102204,0.09299174465731463,-0.003154656,1.0,11738956.851703407,1.0,0.0,0.0,0.0,0.0
