timestamp,control[0],control[1],control[2],control[3],control[4],output[2],output[3],output[4],output[5],output[6],output[7],indicated_airspeed_m_s,true_airspeed_m_s,indicated_airspeed_m_s.1,equivalent_airspeed_m_s,true_airspeed_m_s.1,equivalent_ground_minus_wind_m_s,true_ground_minus_wind_m_s,differential_pressure_raw_pa,differential_pressure_filtered_pa,temperature,gyro_bias[0],gyro_bias[1],gyro_bias[2],accel_bias[0],accel_bias[1],accel_bias[2],instance_count,seq_reached,seq_current,seq_total,item_changed_index,item_do_jump_remaining,valid,warning,finished,failure,stay_in_failsafe,flight_termination,item_do_jump_changed,execution_mode,nav_roll,nav_pitch,nav_bearing,target_bearing,xtrack_error,wp_dist,acceptance_radius,rollspeed_integ,pitchspeed_integ,yawspeed_integ,additional_integ1,x,y,z,temperature.1,pressure,temperature.2,gyro_rad[0],gyro_rad[1],gyro_rad[2],accelerometer_m_s2[0],accelerometer_m_s2[1],accelerometer_m_s2[2],device_id,x.1,y.1,z.1,temperature.3,altitude_sp,altitude_filtered,height_rate_setpoint,height_rate,airspeed_sp,airspeed_filtered,airspeed_derivative_sp,airspeed_derivative,throttle_integ,pitch_integ,baro_alt_meter,baro_temp_celcius,baro_pressure_pa,rho,xyz[0],xyz[1],xyz[2],xyz[0].1,xyz[1].1,xyz[2].1,roll_body,pitch_body,yaw_body,q_d[0],q_d[1],q_d[2],q_d[3],thrust_body[0],lat,lon,alt,vel_m_s,vel_n_m_s,vel_e_m_s,vel_d_m_s,cog_rad,ground_contact,maybe_landed,landed,ref_lat,ref_lon,x.2,y.2,z.2,vx,vy,vz,ax,ay,az,yaw,dist_bottom,roll,pitch,yaw.1,thrust_body[0].1,timestamp.1,isTakeoff,isClimbing,isDescending,isCruise,isLand
146566232.0,0.025595128,0.095742559,-0.17009993199999998,0.28282192,0.0,1414.0,1500.0,1282.0,1487.358672,1511.641328,1547.0,13.56693373,13.86774286,14.13573597,14.15330041,14.46703989,15.14589944,15.48164052,123.4695268,123.4695268,12.05939575,-0.000920216,-0.005701512,-0.000136377,-0.255601867,0.194288842,0.0013044139999999998,2.0,6.365873175,7.365873175,11.0,0.0,0.0,1.0,0.0,0.0,0.0,0.0,0.0,0.0,0.0,0.442610003,0.09996727,1.657016344,1.656991229,312.06691780000006,387.3103699,41.00529503,-0.001049973,0.041965478,-0.2,0.0,1.032917232,1.19194693,-10.88222447,-340.26352,960.0335363,12.05983984,0.16961068,0.131763021,0.297125487,2.030556324,1.257169054,-10.82638451,2294028.0,0.106403689,0.115448022,0.287772594,-340.26352,50.01679,53.2536188,-0.161841512,-0.17873041399999998,15.33260932,13.77239926,0.031204211000000006,0.569684781,-0.319685718,108.55106299999998,452.7475886,12.059814,96003.82559,1.140684249,-0.852928575,-0.933990664,0.133932357,0.054853149,0.107000896,0.282416431,0.71526271,0.159456236,1.6609736940000002,0.650413699,0.180291083,0.307931079,0.670541539,0.483314751,398752408.4,327325626.6,453180.8728,13.9234927,10.71888151,8.864294589,0.147301453,0.690788283,0.0,0.0,0.0,39.8714138,32.7364372,426.7807496,-329.4980376000001,-53.12847039,10.37954128,9.352934326,0.055398667,-2.552107066,3.775496226000001,-0.190215231,0.809704658,53.29794967,0.487827816,0.322587579,0.16940409899999995,0.478726874,146566232.0,0.0,0.0,0.0,0.0,1.0
146711814.0,0.10505841756112223,0.16076351384368737,-0.18467952673747495,0.43202723450901803,0.0,1407.6380107655311,1500.0,1432.1322645290581,1452.4553846693386,1546.5446153306614,1579.7114228456915,13.828375644328657,14.134882523186374,14.35988710767535,14.377848648697395,14.696558158837677,15.416440083066133,15.75817027008016,127.18111568256512,127.18111568256512,12.059474197995991,-0.000919934879759519,-0.005702064955911823,-0.0001335038016032064,-0.2555712113146293,0.19447738145691382,0.0008960840200400802,2.0,6.3751600019338674,7.3751600019338674,11.0,0.0,0.0,1.0,0.0,0.0,0.0,0.0,0.0,0.0,0.0,0.5399565260460921,0.17458533454108216,1.6613560588136271,1.6613310648036073,310.6381608102204,385.8313241845691,42.50775264428858,-0.0018824191803607213,0.040809003104208416,-0.2,0.0,4.078888927270541,1.1589602477875751,-11.81587325496994,-60.05240876012027,960.0499518370742,12.059954515450903,0.4857409970701403,0.302067878753507,0.3180998154749499,4.744516253116232,1.2915224232985973,-12.413982386432865,2294028.0,0.3898596722945892,0.24218809511222444,0.3070416908236473,-60.05240876012027,50.01679,53.223031531082164,-0.1603121616973948,-0.15385429968537073,15.332593101142285,13.810482193987974,0.030442227086172346,0.5595264977194389,-0.3199270954509018,107.77466279378757,452.5838006899799,12.05992370541082,96005.69896272545,1.1407065083326653,1.899229543058116,0.6010738897434866,0.30839265689979944,0.04987400575751503,0.10903135316032064,0.2809452225951904,0.7125946650320641,0.2334994243026052,1.664737761224449,0.6565882730861724,0.1524543501703407,0.3296749199258517,0.6610062871783567,0.5369194185490982,398752552.24569136,327325789.3006012,453166.4071925852,13.992104761643287,10.31681537509018,9.425435832366732,0.13287981773346694,0.7398436135771542,0.0,0.0,0.0,39.8714138,32.7364372,428.33427291603203,-328.03994085170336,-53.117590454488976,10.101222284629259,10.077420888416833,-0.004373184591182359,-1.3795222089098198,6.05961641112024,-0.8787364079559118,0.8598899211883767,53.287070454488976,0.3461715281262525,0.42736687566332665,0.1552568193747495,0.5344664882765531,146711814.15430862,0.0,0.0,0.0,0.0,1.0
146868828.0,0.05447374183567135,0.20635486107014026,-0.18046666453707416,0.5144962178356713,0.0,1409.7114228456915,1500.0,1514.2765531062123,1473.3732663466935,1525.6267336533065,1602.2845691382765,14.405690635170341,14.724993510460923,14.5840382553507,14.602396885971944,14.926076426252505,15.68698071755511,16.03470002016032,130.89270456513026,130.89270456513026,12.059552645991984,-0.0009196527595190381,-0.005702618054108217,-0.00013063160320641283,-0.25554055548697396,0.19466592091382767,0.00048775389779559124,2.0,6.384446828867736,7.384446828867736,11.0,0.0,0.0,1.0,0.0,0.0,0.0,0.0,0.0,0.0,0.0,0.6373030492344689,0.2492033990821643,1.6656957736272544,1.6656709004649297,309.2094037204409,384.3522784691383,44.01021026715431,-0.002580997408817635,0.039715259386773547,-0.2,0.0,5.712111937110221,1.2415307264969941,-14.068829691843687,-340.26352,960.0521428611223,12.05987999753507,0.5555407452084169,0.47847162166533064,0.31135445966533065,5.958569395721443,1.1636422660681363,-14.860866624729459,2294028.0,0.5623414622024048,0.4323973221783567,0.32329465008617236,-340.26352,50.01679,53.1940795642485,-0.158864560496994,-0.12911416448496996,15.332513750100201,13.852938033046092,0.029591518398797596,0.5483712606853708,-0.3201838600541082,106.9836890751503,452.6125087779559,12.05993158749499,96005.3671509018,1.1407025765350702,2.0646399243667335,1.2169502367354712,0.5574491155010023,0.2336306081563126,0.17104417113627252,0.2996883716873748,0.6917933732805611,0.30343817505410825,1.6692869099899799,0.6623828054328658,0.1196612208236473,0.3438303381382765,0.6547503459859719,0.5512659008136274,398752693.6202405,327325968.68537074,453148.1063637274,14.405889585531062,10.0681609251503,10.274222219158316,0.04175297563326655,0.7950349901362725,0.0,0.0,0.0,39.8714138,32.7364372,429.81697338677355,-326.47614822825653,-53.129854893346696,9.857209157659318,11.13986218476954,-0.26459616203807607,-2.187229582034068,8.078219322198397,-2.6040350231262526,0.9216695237835671,53.29933351428858,0.1822905123907816,0.5046075245511022,0.14440108005410823,0.5508843293386773,146868828.1703407,0.0,0.0,0.0,0.0,1.0
147017272.0,-0.006140984647294581,0.22919925853507014,-0.16652451051703407,0.5467297431663327,0.0,1416.6528905691382,1500.0,1547.1847082825652,1503.2200248376753,1495.7799751623247,1613.6528905691382,15.150972185731462,15.486753637074148,14.808189403026052,14.826945118957916,15.155594686513027,15.957521359198397,16.31122977024048,134.6042934476954,134.6042934476954,12.059631093987976,-0.0009193716392785571,-0.005703171581162324,-0.00012775940480961925,-0.2555098992304609,0.19485445937074147,7.945473747494997e-05,2.0,6.393733656801603,7.393733656801603,11.0,0.0,0.0,1.0,0.0,0.0,0.0,0.0,0.0,0.0,0.0,0.6702080174088176,0.27591702793386774,1.669746942248497,1.6697222012124249,307.5421811008016,382.64630266112226,45.004608912965935,-0.003078128424849699,0.039062767959919836,-0.2,0.0,6.134289432631262,1.130114631270541,-16.489665350981962,-340.26352,960.0340977166333,12.059326034388777,0.42635254997795596,0.604671616260521,0.32262172149098195,6.051362138256513,1.1113075604488978,-17.082845313026052,2294028.0,0.47273308912024053,0.5722578166853707,0.31792624636673344,-340.26352,50.01679,53.16635211519038,-0.15747819554308617,-0.10215133127855712,15.332452079258518,13.910959781462925,0.028429846927855714,0.5373642557855711,-0.3204745388496994,106.13988109859719,452.7528427328657,12.059584376573147,96003.7628102004,1.1406834979699398,-0.14020972661723421,1.1409497103046096,0.3115631584088177,0.5320871681402806,0.34805506159719435,0.3213960215551102,0.6471579509038076,0.2794569625150301,1.6730395544709418,0.6619585189318637,0.11295591661923848,0.322193586995992,0.6672363316933868,0.4458112534669339,398752828.25410825,327326161.1665331,453172.91890761524,15.013783542885772,9.74564066301002,11.392816010621242,-0.30417628996793583,0.8615425789098197,0.0,0.0,0.0,39.8714138,32.7364372,431.27993015310625,-324.7050333006012,-53.19828765210421,9.358133058847695,12.44079207242485,-0.799288760264529,-4.656125228691382,8.942505069328657,-4.388850692749499,0.9979250835430863,53.36776682533066,0.0002771362344689693,0.43636606434268543,0.20544651977755513,0.4697652365130261,147017272.04809618,0.0,0.0,0.0,0.0,1.0
147167424.0,-0.04364492230460921,0.22598810481362727,-0.15111662367935874,0.5400898783166332,0.0,1423.9919839679358,1500.0,1538.3807505250502,1523.4849864368737,1475.5150135631263,1612.1543086172344,15.681832195771541,16.029570111703407,14.98801582743487,15.007397621803607,15.340097984589178,16.177190439679357,16.535823345531064,137.60906288857717,137.60906288857717,12.05924647733467,-0.000919522755511022,-0.0057038636232464935,-0.0001251394148296593,-0.2554949518797595,0.1950081884509018,-0.0003361896212424849,2.0,6.403020483735472,7.403020483735472,11.0,0.0,0.0,1.0,0.0,0.0,0.0,0.0,0.0,0.0,0.0,0.6041636135450902,0.22907386891182366,1.673355050713427,1.6733304616653306,305.50879696773546,380.5918778148297,45.21888802062124,-0.0034148549338677355,0.03837412514829659,-0.2,0.0,5.128388377408818,1.1243227286252506,-17.954718773527052,-340.26352,960.0096012266533,12.058120402665331,0.22969622729859723,0.5740903330721443,0.394983353004008,3.96942689032465,1.0507507023907816,-18.10155146170341,2294028.0,0.3031932656392786,0.6011982800861724,0.36597025611422845,-340.26352,50.01679,53.146842648276554,-0.15650272219839678,-0.07880212810220441,15.332472401342686,13.925293280521043,0.02814359289779559,0.5281758921302605,-0.32074425534468937,105.39402201082164,452.79194139338676,12.05861109230461,96003.3101664529,1.1406781273547095,-1.1621361060781572,0.9720419623807619,-0.5352125613246497,0.5458512719498998,0.5185028398977956,0.31398885156913825,0.5739406133046092,0.21442715010020041,1.6765038753186374,0.6602510950601203,0.11190303305210421,0.2778546209639279,0.6886906348577154,0.3098772774228457,398752956.60380757,327326371.32464933,453258.36871062126,15.658812643647295,9.181036662813627,12.655284129138277,-0.8737206440561122,0.941813746767535,0.0,0.0,0.0,39.8714138,32.7364372,432.65153489398807,-322.69163778496994,-53.37232897759519,8.394342904771543,13.755315586553106,-1.5602524554148294,-7.811762798993987,7.814518839651304,-5.243226538184369,1.0910382253466935,53.541808638076155,-0.1644150874589178,0.28813056897996,0.27667303093987977,0.3257891712625251,147167424.34068137,0.0,0.0,0.0,0.0,1.0
147311299.0,-0.07125232534068136,0.16904877557915834,-0.1152598101242485,0.3824384562725452,0.0,1441.969373004008,1500.0,1375.931751771543,1536.0830337294587,1462.9169662705413,1583.1531366913828,15.99961216993988,16.354499280240482,15.013987576793587,15.03479024725451,15.368350676793588,16.2202802095992,16.58014226691383,138.16040466072144,138.16040466072144,12.057254494168337,-0.0009211753386773547,-0.005705037529058116,-0.00012339926853707414,-0.25553453084969935,0.19504108681362725,-0.000777080276553106,2.0,6.41230731152505,7.41230731152505,11.0,0.0,0.0,1.0,0.0,0.0,0.0,0.0,0.0,0.0,0.0,0.5381192106813627,0.18223070988977957,1.6769631597474948,1.6769387216873748,303.4754128346693,378.53745295410823,45.43316712827655,-0.003631104875751503,0.03770334382164329,-0.2,0.0,1.9402699019318645,1.1476499439198398,-17.064639552825653,-340.26352,959.9920007527054,12.056288159559118,-0.00623163765931857,0.34160042540480967,0.45748775669138275,1.1534025361743494,1.0973877521563127,-15.878619315070141,2294028.0,0.08264279384769546,0.4397279543346694,0.4420308965571142,-340.26352,50.11426358921844,53.13061392432866,0.7030322765591178,-0.05477911703607215,15.332541771222445,13.968482275791583,0.027281203024048097,0.6321599257094188,-0.32100757894989984,104.67015133847696,453.15573964028056,12.05689953280561,95999.13133971943,1.1406284584048096,-0.8963373736172349,0.11380873766132338,0.8392762306873741,0.3991455865791584,0.6336722714869739,0.33506708520040085,0.4924818341763527,0.15100923240080164,1.6799934384108215,0.6591798034248497,0.10776312467935871,0.2298194830460922,0.7078277458817636,0.24179380829458919,398753078.13747495,327326606.63366735,453428.23072324647,16.19884602685371,8.190975063821643,13.952997659178356,-1.6508151252464927,1.0397060351222445,0.0,0.0,0.0,39.8714138,32.7364372,433.8391916294589,-320.5246845024048,-53.65864225042084,6.994163094374749,14.68797008973948,-2.287523660022044,-10.19766324424048,4.130627994941886,-3.7815674266993997,1.191234586240481,53.82812125042084,-0.29305526151703404,0.14089986767535073,0.29794039843086173,0.24268079959919842,147311299.08016032,0.0,0.0,0.0,0.0,1.0
147468276.0,-0.0858428321462926,0.11137898240280561,-0.10783467465531063,0.27155767957915833,0.0,1445.130131048096,1500.0,1270.003298737475,1542.2602620961923,1456.7397379038077,1555.198914685371,15.899357088496995,16.25229892032064,15.03995933042084,15.062182868436873,15.396603361883766,16.263369983787577,16.624461178296592,138.71174643286574,138.71174643286574,12.055262521002005,-0.0009228286332665331,-0.005706211434869739,-0.00012165912224448898,-0.25557411081963927,0.1950739856032064,-0.0012179719318637272,2.0,6.421594138603207,7.421594138603207,11.0,0.0,0.0,1.0,0.0,0.0,0.0,0.0,0.0,0.0,0.0,0.4721478040701403,0.13809396500400803,1.6803748876192384,1.680350600547094,301.41377811462934,376.46204901623247,45.567949573446896,-0.0037679428156312624,0.037166867400801606,-0.2,0.0,0.5348359834689382,1.053871054276553,-14.115881014168338,-340.26352,959.9493907272545,12.053970495070141,-0.1757913360561122,0.19109592110621246,0.41990793407615234,0.1725914256192386,1.0014078851583166,-12.78644026470942,2294028.0,-0.10109206036873741,0.24524520815030063,0.43423003376753505,-340.26352,50.38055699330661,53.12178298763527,2.004938637352705,0.026335110907815554,15.332576008857714,14.07729314250501,0.025105664931863732,1.0434475710320639,-0.32125436421242487,103.96430451623246,453.4751796903808,12.054560174529056,95995.45147152305,1.1405847555811623,-1.5317188871643286,-1.6495537753006007,0.3959387666793588,0.18934121924248504,0.5487016469078156,0.4138781824529058,0.4164822347154309,0.10423647690581163,1.681972116961924,0.6594603429659319,0.09966395137875753,0.18785161981362727,0.7210110783326653,0.21471882735671344,398753178.50921845,327326870.71523046,453749.84119098197,16.190898758577152,6.6740101791462925,14.695705141823648,-2.259300172875751,1.1444647320881765,0.0,0.0,0.0,39.8714138,32.7364372,434.7750714468938,-318.2968497150301,-54.02412381246493,5.512630215126253,15.078659086713428,-2.635176177717435,-9.43204337643487,1.6387423154488983,-1.0478863086012031,1.2780544210681362,54.19360381246493,-0.3570819908977956,0.0541133678436874,0.29770529195791584,0.2154086015430862,147468276.41482967,0.0,0.0,0.0,0.0,1.0
147613326.0,-0.08908001683366734,0.07369723138677356,-0.10395832381563128,0.22883072881763528,0.0,1447.997995991984,1500.0,1226.2799550981963,1544.868038981964,1454.131961018036,1534.2739430741483,15.644227666072144,15.991856632945892,15.065931075511022,15.089575488156312,15.424856045531062,16.306459759418836,16.66878008967936,139.2630882052104,139.2630882052104,12.05327053783567,-0.0009244810721442886,-0.005707385340681363,-0.00011991797795591182,-0.25561368978957916,0.19510688453907815,-0.0016588625871743487,2.0,6.4308809655370744,7.430880965537074,11.0,0.0,0.0,1.0,0.0,0.0,0.0,0.0,0.0,0.0,0.0,0.4067859622144289,0.11655746275350702,1.682146716448898,1.6821225803627253,299.11623349038075,374.2114572739479,45.038885639058115,-0.0038547974268537074,0.03695269596192385,-0.2,0.0,0.029841336284569253,0.9452803519278559,-11.569661395030062,-340.26352,959.8991099883771,12.051548068737475,-0.2784431539438878,0.12178232155310624,0.33880276150501004,-0.08920403319438881,0.918677636991984,-10.721835877755511,2294028.0,-0.23867678148096189,0.1572111650701403,0.3806756199619239,-340.26352,50.92692022885772,53.128066483907816,3.0087177140781556,0.2569053125591182,15.332444743647294,14.304329604569139,0.020562301585170344,2.074747334370741,-0.3214653865811623,103.28221026893789,453.88112783326653,12.052037445190381,95990.79673899799,1.1405294899098195,-0.5274052193466932,-1.0380865637735468,-0.44564520627054094,-0.029225705346693318,0.3229815117715432,0.4599316414669339,0.3492688129118237,0.08769429140080161,1.683811731262525,0.6609611450861724,0.08341387753707415,0.1582264306232465,0.7287865961623246,0.20889142201603206,398753258.7611222,327327135.4517034,454110.8843384769,16.015332960961924,5.2678454015210425,15.08702886238477,-2.494114317488978,1.23520844,0.0,0.0,0.0,39.8714138,32.7364372,435.5176245841684,-316.01670608416833,-54.41558822611222,4.211231745845692,15.22451572519038,-2.6336251905691386,-7.815743130949901,0.4138683527655314,0.9725524462905805,1.3491143878476957,54.58506822611222,-0.39670682689378756,0.009195203388777572,0.26218210755711424,0.2088634735470942,147613326.11422846,0.0,0.0,0.0,0.0,1.0
147772617.0,-0.09398378686372745,0.04621191499198399,-0.11018209023647293,0.210307074749499,0.0,1444.430861723447,1500.0,1210.0860088897796,1546.7397531723448,1452.2602468276552,1522.7411560561122,15.415615724068136,15.758464183146293,15.091902830561123,15.116968113607214,15.453108739178356,16.34954952935872,16.713099006753506,139.8144300202405,139.8144300202405,12.051278560360721,-0.0009261345110220441,-0.005708559246492986,-0.00011817782965931864,-0.25565326875951905,0.19513978290180362,-0.0020997538116232463,2.0,6.440167793470941,7.440167793470941,11.0,0.0,0.0,1.0,0.0,0.0,0.0,0.0,0.0,0.0,0.0,0.34143785810220445,0.0955303035731463,1.6838815870821644,1.683857601985972,296.81337203186376,371.9569173987976,44.49486057318637,-0.003921919613226453,0.03702660754509018,-0.2,0.0,-0.0940698680360722,0.7583690501583166,-10.063237481138277,-340.26352,959.8512495250501,12.048912183687374,-0.3453630743547094,0.07070283265130263,0.2949348592284569,0.025908158090180364,0.6900990187915832,-9.611043908873748,2294028.0,-0.3163499625230461,0.10262792415631267,0.31758598431062124,-340.26352,51.547367724468934,53.2053849355511,3.4245758701923847,0.7995285691162323,15.33246700240481,14.881087325931862,0.00902758641883768,2.917422084931863,-0.3216884660180361,102.89017940901805,454.26883632565125,12.049610792645291,95986.33671687375,1.1404764891943888,-0.759886497811623,-0.5041891601482963,-0.4825484606693385,-0.18571184596392779,0.1925821668396794,0.41032143420440886,0.28996254417635275,0.07515925290981965,1.685602519248497,0.6619767869559118,0.06830850751703407,0.13250938992184372,0.7345346439278557,0.21221390139679358,398753322.0971944,327327403.56513023,454487.6446012024,15.765972968697394,4.008401532450902,15.234268467615232,-2.441704497236473,1.313356714743487,0.0,0.0,0.0,39.8714138,32.7364372,436.08103244468936,-313.6771451376754,-54.79202151012024,3.1316040622024057,15.249984669138277,-2.39683843198998,-6.4757977619238485,-0.011520061068136155,1.9052116589759518,1.405493467743487,54.96150111539078,-0.3972215876212425,-0.010680546228456907,0.23181397794989983,0.21187084928857716,147772616.68136272,0.0,0.0,0.0,0.0,1.0
147927354.0,-0.09141751129458915,0.033838539198396814,-0.1234042952064128,0.20974491559118236,0.0,1437.7194388777555,1500.0,1209.1402805611222,1545.5084323386775,1453.4915676613225,1516.6882904208417,15.123459949999999,15.460126108076151,15.117874575631262,15.144360739058117,15.481361424228457,16.392639300681363,16.757417922444887,140.3657718492986,140.3657718492986,12.049286581503006,-0.0009277869498997995,-0.005709733012024048,-0.00011643768336673346,-0.2556928477294589,0.19517268226452905,-0.002540644897795591,2.0,6.449454620404809,7.449454620404809,11.0,0.0,0.0,1.0,0.0,0.0,0.0,0.0,0.0,0.0,0.0,0.27614257439078166,0.07453801253106215,1.6856149172965933,1.6855910831883767,294.5106750400802,369.70228398276555,43.95193046847695,-0.003972365761523045,0.0372524571002004,-0.2,0.0,0.07827260302003979,0.6645727049679362,-9.284109540531063,-46.53427124302581,959.7980799212424,12.046931144709419,-0.3696491794188377,0.019467575879759617,0.2953670017735471,0.16526101193386755,0.6140912945531067,-8.96747090871944,2294028.0,-0.358903660260521,0.04325553821843696,0.2949226363126252,-46.53427124302581,52.132605984749496,53.36583552268537,2.9255770264348713,1.4751511803827644,15.33256133997996,15.563161220681362,-0.004612002789579136,3.36160400366533,-0.32203836101803607,102.69342788056112,454.6465991763527,12.047454144068137,95981.97987076153,1.1404246890300602,-0.3511109303186371,-0.24098172142685007,-0.10508952900200352,-0.29244142482364716,0.12603258550300606,0.3325566120300602,0.238182793729459,0.06533628856112225,1.6874583396072145,0.662518731745491,0.054698598807615254,0.11027444848496998,0.7388557624729458,0.21727942791783567,398753370.67294586,327327680.545491,454853.77158356714,15.544986084228457,2.93033972456914,15.248558301983968,-2.2014956537875756,1.3804136133386773,0.0,0.0,0.0,39.8714138,32.7364372,436.4956437180361,-311.3511878398798,-55.123497590080156,2.227073180895793,15.233035278957916,-2.0741723622144295,-5.444438045927858,-0.19495442043687375,2.1330170759839677,1.4521593654889777,55.29297746971944,-0.3942240948777555,-0.020201331689378748,0.18782157933466942,0.21750203547094188,147927354.00400802,0.0,0.0,0.0,0.0,1.0
148084904.0,-0.09004731266132264,0.027574439541082164,-0.14056898521242484,0.21474376711222445,0.0,1430.5771543086173,1500.0,1213.7114228456915,1544.0661758416834,1454.9338241583166,1513.2885771543085,15.051848596412826,15.387036508857715,15.143846330701404,15.17175335739479,15.509614116472946,16.435729076312626,16.801736833827654,140.9171136214429,140.9171136214429,12.047294598336673,-0.0009294403887775551,-0.005710907058116233,-0.0001146975370741483,-0.25573242669939883,0.19520558062725452,-0.0029815362645290583,2.0,6.458741447338677,7.458741447338677,11.0,0.0,0.0,1.0,0.0,0.0,0.0,0.0,0.0,0.0,0.0,0.22839257748496997,0.06512783086172345,1.6868365595651302,1.6868128764448898,292.26257467274553,367.41660863246494,43.772714558597194,-0.004004318789579159,0.03759514800400802,-0.2,0.0,0.22910379457915828,0.4632802360040081,-8.782247395883767,-190.34635295571172,959.7823564627254,12.04529968496994,-0.36768233240080167,-0.027243207945891783,0.29795219687575153,0.28363768405410805,0.3896783841402805,-8.47850513826052,2294028.0,-0.3701595759438879,-0.00912595377154306,0.29116330086172343,-340.26352,52.61347358777555,53.62384302422846,1.8734022911723454,2.150343064392785,15.33272802282565,16.226985530200402,-0.01788514747094188,3.2308897369679364,-0.32258414893987974,102.67238731382766,454.7691606226453,12.045639071603206,95980.56064276553,1.1404078654008016,0.29680143592384817,0.28180229450701305,0.11543366469739319,-0.3482644615390782,0.08062572073747498,0.2962865528797595,0.1920782115210421,0.05800448936472946,1.688214442244489,0.6631351029318637,0.04211068079358718,0.09081408043086174,0.7417695802344689,0.22112669536272545,398753403.3893787,327327952.26813626,455163.02015851706,15.390136840581162,2.083759445322646,15.243006841683366,-1.875307882961924,1.4345420595531062,0.0,0.0,0.0,39.8714138,32.7364372,436.7747496601203,-309.06647152164334,-55.39747897378757,1.4768176183346697,15.212101366352705,-1.7274973598937877,-4.633554252028056,-0.1423088761022044,2.369707953246493,1.4925690569178358,55.56695897378757,-0.38152909756312625,-0.012832732452905816,0.14040321578156317,0.22145950175551102,148084904.23446894,0.0,0.0,0.0,0.0,1.0
148239642.0,-0.08604170373947896,0.02995512423647295,-0.15597882656513026,0.21982876398797596,0.0,1422.4090370621243,1500.0,1218.5909629378757,1542.003505511022,1456.996494488978,1514.9741673226454,14.963016181462926,15.296414561963928,15.140560060180361,15.168173876753507,15.506096365430862,16.433607503607217,16.799720639178357,140.92819483186372,140.92819483186372,12.046097293246492,-0.0009319958316633267,-0.005711811773547095,-0.00011294926052104208,-0.25580621577955914,0.19517452413827655,-0.0034898698176352707,2.0,6.4680282752725455,7.468028275272544,11.0,0.0,0.0,1.0,0.0,0.0,0.0,0.0,0.0,0.0,0.0,0.1857961127334669,0.05911963294789579,1.6879079055390782,1.6878843736893787,290.0305107817635,365.1218154557114,43.70033149128256,-0.004013811567134269,0.038041124030060124,-0.2,0.0,0.3271969374689379,0.36766609077354706,-8.288324791076153,-294.80849926452913,959.7681543266533,12.043937443727454,-0.3544363822064128,-0.0466015136492986,0.26474521898997994,0.35644029087174356,0.38888289146893795,-8.212808974503007,2294028.0,-0.36094329762525046,-0.03914238264128257,0.2830412966492986,-340.26352,52.87960095847695,54.005115813627256,0.8819189422284567,2.6096453451342687,15.332978456412826,16.681169441382764,-0.026963803955911827,2.2446374534288576,-0.3234361018717435,102.8136413707415,455.0112561490982,12.04417087761523,95977.78940188377,1.140374894276553,-0.12666253652905757,-0.510943663358717,0.3540242470661319,-0.3680456506112225,0.014878487789579141,0.2934471786693387,0.1514723409078156,0.05277881925250501,1.6889804499659318,0.6634691616292585,0.03056105314629258,0.07402192132865731,0.7439009754088177,0.22313411113827655,398753426.15631264,327328220.35110223,455416.909545491,15.290196421142285,1.356386798308617,15.226732140380761,-1.532136860022044,1.481734776723447,0.0,0.0,0.0,39.8714138,32.7364372,436.9533059496994,-306.77131601523047,-55.62025562074148,0.8301988927535068,15.198838520741482,-1.360231145781563,-4.042676340120241,-0.11146563324048092,2.427529061460922,1.5304197741042085,55.78973562074148,-0.3592683280761523,0.0010328073086172387,0.1036020107274549,0.22333967977955912,148239641.6973948,0.0,0.0,0.0,0.0,1.0
148393809.0,-0.08180370078557113,0.03624686986773547,-0.17112781609218436,0.2220483860521042,0.0,1415.2925851703408,1500.0,1221.8537074148296,1541.122149480962,1457.877850519038,1516.877850519038,14.905972743807615,15.238211006933868,15.119392954188378,15.145666019739478,15.483162336833669,16.403855343026052,16.769387070921844,140.60909959839682,140.60909959839682,12.045385651723448,-0.0009351037254509018,-0.005712552571142285,-0.00011119682965931865,-0.25590091275951904,0.19510438147895792,-0.004039420472945892,2.0,6.477315102206412,7.477315102206412,11.0,0.0,0.0,1.0,0.0,0.0,0.0,0.0,0.0,0.0,0.0,0.14319964798196397,0.05311143503406814,1.6889792510781563,1.6889558707875751,287.7984469619239,362.8270222789579,43.627948426853706,-0.004005366699398797,0.03859877337274549,-0.2,0.0,0.3701659515811622,0.2844106250861724,-8.275672009863728,-340.26352,959.7534055298597,12.0428382252505,-0.3427168699158317,-0.04796848217434869,0.22514614451903814,0.3851939968577155,0.2396136206292585,-8.264385110753507,2294028.0,-0.3487755656753507,-0.04523337991783566,0.2454105064388778,-340.26352,52.99524485226453,54.37982093633266,0.4406996218877758,2.608792674250501,15.333210807054108,16.720626063086172,-0.02774830447695391,1.3398805271903813,-0.3243660663386774,102.95515369338678,455.22206898216433,12.043082181142283,95975.38663543086,1.1403464033346695,-0.0941007364388764,-0.7146728592284549,0.13374685467535039,-0.3688269101763527,-0.025289850909819625,0.2889896286893788,0.11550674213827658,0.04951718376953908,1.6897408068436874,0.6635858561202405,0.019821498647294596,0.05956180998396794,0.745459034280561,0.21818498650701404,398753440.63667333,327328488.8769539,455619.7824695391,15.236295649298597,0.7192417386112229,15.213704161422845,-1.1829521444869742,1.5234601259338678,0.0,0.0,0.0,39.8714138,32.7364372,437.0397286699399,-304.38526278857717,-55.79007190394789,0.2530613357114232,15.199869236833669,-0.979033053689379,-3.482893392653307,0.056834220150300485,2.3456563346032064,1.5659852590761523,55.9595514468537,-0.33408300055911827,0.0156184233767535,0.06840395726653309,0.21594850525050102,148393809.0220441,0.0,0.0,0.0,0.0,1.0
148562807.0,-0.0756600066733467,0.04308529202204408,-0.18006385497194388,0.22100357735470944,0.0,1410.1503006012024,1500.0,1221.7254509018037,1537.4136751262527,1461.5863248737473,1520.4248496993987,14.945981547094188,15.279179840781564,15.098225851122244,15.1231581597996,15.460228298236473,16.374103178196393,16.73905350266533,140.29000436492987,140.29000436492987,12.0446740002004,-0.000938211619238477,-0.005713293368737475,-0.00010944482364729459,-0.2559956091643287,0.1950342391022044,-0.004588970420841682,2.0,6.48660192956513,7.48660192956513,11.0,0.0,0.0,1.0,0.0,0.0,0.0,0.0,0.0,0.0,0.0,0.10782849950701406,0.04957136472745491,1.6897517814428857,1.6897285805090179,285.5070260571142,360.51630357895795,43.630973283326654,-0.003981129665330661,0.039258950196392785,-0.2,0.0,0.3822659837935873,0.34799668342885776,-8.414851386254508,-308.4059116128261,959.7422320202403,12.042225598416834,-0.3279716566513026,-0.052362281581162344,0.17366968786973958,0.300133884310621,0.24917530611823718,-8.377555594266534,2294028.0,-0.3328463750821644,-0.04622153754108217,0.19620731243887782,-308.4059116128261,53.059545070961924,54.73248341967936,0.18813383467134298,2.424314205725451,15.33343606715431,16.546506781422845,-0.024261416775551114,0.6254618098416844,-0.32530352983366734,103.02842257875751,455.3281452102205,12.042343284569139,95974.17287823648,1.1403319480501002,-0.14922397500801637,0.3076842224789613,-0.08401650974949315,-0.3533611572865732,-0.03302985546292587,0.2595958294589179,0.08418511376152309,0.04761608208617235,1.6904451684388777,0.6635370088657314,0.01012127975350703,0.04725448549499,0.7465775442284569,0.21077052632665333,398753447.10981965,327328765.1559118,455769.39355851704,15.222451616352705,0.157243214016033,15.228766186773548,-0.8343767584529064,1.5602491346492986,0.0,0.0,0.0,39.8714138,32.7364372,437.0457574703407,-302.1026935410822,-55.89950849388777,-0.23318963651102126,15.210537975931864,-0.6474959404028061,-3.1143347009739486,0.10125793503406817,2.0625459168857723,1.5946425674629254,56.068986620420844,-0.3038945306112225,0.031169203238476932,0.0430080483166333,0.20882001881362725,148562807.00601202,0.0,0.0,0.0,0.0,1.0
148736382.0,-0.06798146866733468,0.0506137136012024,-0.19069875219038074,0.21210908659318636,0.0,1405.004008016032,1500.0,1213.0080160320642,1534.0061479238477,1464.9938520761523,1523.995991983968,14.927411263386775,15.260312186012024,15.077058746593186,15.100650301322647,15.43729426963928,16.34435101190381,16.70871993440882,139.97090913186372,139.97090913186372,12.043962348717436,-0.0009413195130260521,-0.005714034166332665,-0.0001076929639278557,-0.25609030571943886,0.19496409672144288,-0.005138521218436873,2.0,6.495888757074149,7.495888757074149,11.0,0.0,0.0,1.0,0.0,0.0,0.0,0.0,0.0,0.0,0.0,0.08071995385771547,0.048853752402805616,1.6901825984769538,1.690159608244489,283.1477267230461,358.1873732388778,43.720231842044086,-0.003945002715430861,0.03993497914028056,-0.2,0.0,0.3458783802004008,0.21376919328256513,-8.476545209843687,-158.261565974737,959.7336665322646,12.041872027374751,-0.3109053056673347,-0.05099361515430863,0.13893943885370744,0.29217743228657317,0.08462626977154337,-8.50306991675952,2294028.0,-0.3178936632705411,-0.048162245006012024,0.15146914132064132,-158.261565974737,53.09564017865731,55.06387578478958,0.03967269322444897,2.1281981675470947,15.333707013947896,16.228914645771543,-0.017904148042084175,0.09995107200200427,-0.32623886471543084,103.00595378016033,455.3867464529058,12.041915808056112,95973.47305062124,1.140323708300601,0.34335973172745315,-0.4893824559559101,-0.6389046442885753,-0.3395561102985972,-0.03818047084969939,0.20888306857114236,0.05784911236873749,0.04684955870340681,1.691229352995992,0.6633186834649298,0.0016552364629258583,0.037166601759519045,0.7474110224448898,0.20448876014028058,398753445.30320644,327329036.9953908,455858.4788458918,15.240132684168335,-0.32279335052104174,15.250132345811622,-0.5047157269779562,1.591866278450902,0.0,0.0,0.0,39.8714138,32.7364372,436.9808269312625,-299.82343715591185,-55.96028817268537,-0.6568076564148293,15.22384503985972,-0.3641581872745493,-2.617521725583167,0.0696715001122245,1.7540026213667337,1.617181680488978,56.129767139278556,-0.27893508063727457,0.045946483028056095,0.023670745386773565,0.20293082925851702,148736381.98196393,0.0,0.0,0.0,0.0,1.0
148881435.0,-0.06152599034468938,0.05756195637875752,-0.19649692786172346,0.20585736170340682,0.0,1401.1566419879762,1500.0,1205.589507719439,1530.7090894749497,1468.2909105250503,1527.567134268537,14.972041449398798,15.305962517935871,15.055891647735471,15.078142437174348,15.414360241042084,16.314598851282568,16.678386376152304,139.65181394128257,139.65181394128257,12.043250701482966,-0.0009444274068136272,-0.005714774396793587,-0.00010594053707414829,-0.2561850026993988,0.19489395391583167,-0.005688071591182365,2.0,6.505175584008016,7.505175584008016,11.0,0.0,0.0,1.0,0.0,0.0,0.0,0.0,0.0,0.0,0.0,0.0536114082004008,0.04813614107014028,1.6906134149438878,1.6905906369719441,280.78842728897797,355.85844285551104,43.809490400761526,-0.0039058630761523044,0.04062544129058116,-0.2,0.0,0.18827709118436872,0.04401750857314628,-8.629154192478959,-340.26352,959.7256812725452,12.041760684589178,-0.2906393458917836,-0.04850713842885772,0.1292829411062124,0.1648249169358717,0.0407366132705411,-8.66919372387976,2294028.0,-0.30114563156112223,-0.043627245861723445,0.13378029788176354,-340.26352,53.11480238260521,55.37157172763527,-0.04567701655711424,1.7604930557074148,15.33409557008016,15.818604779799598,-0.009690175913827655,-0.22580455154709422,-0.3271630267795591,102.8420939987976,455.4607341106212,12.041761418837675,95972.63413330661,1.1403136761783568,-0.05738697180561109,-0.1867338846232466,-0.0787407566152307,-0.3231328303066132,-0.03515584950901804,0.16433596046693386,0.03447717072144288,0.04737197258517034,1.6908463345671343,0.6634347088016033,-0.00628616835470942,0.028604286234468937,0.74765919950501,0.19823409501202405,398753437.7851703,327329305.66492987,455910.56186452904,15.262421401082165,-0.7411638357955912,15.259999,-0.21094316313627254,1.6193309792945891,0.0,0.0,0.0,39.8714138,32.7364372,436.8576948699399,-297.52479796212424,-55.982233248717435,-1.0194621899158316,15.233992358296593,-0.11570176105611218,-2.248248464308617,0.03565386362725451,1.5068652686152304,1.6359282091623246,56.15171156290581,-0.25057912776953906,0.06261224045290582,0.006752145707414829,0.1969811199759519,148881435.24048096,0.0,0.0,0.0,0.0,1.0
149028593.0,-0.055000761869739484,0.06530512678356712,-0.2007286636713427,0.19966592985971943,0.0,1399.8617234468938,1500.0,1199.7234468937877,1527.0456143106212,1471.9543856893788,1531.2765531062123,15.008719402865731,15.343537663386774,15.03472454753507,15.055634574368737,15.391426211062125,16.284846690701404,16.64805280789579,139.3327187507014,139.3327187507014,12.042539054248497,-0.0009475353006012024,-0.005715515623246493,-0.00010418810621242485,-0.25627969881763524,0.19482381111022043,-0.0062376219639278556,2.0,6.514462411941883,7.514462411941883,11.0,0.0,0.0,1.0,0.0,0.0,0.0,0.0,0.0,0.0,0.0,0.028600061805611234,0.04771493052905811,1.690984106232465,1.6909615249338676,278.4420838108216,353.54390162084167,43.89826310771543,-0.0038639046993987976,0.04133252063727455,-0.2,0.0,0.211315197066132,0.08263527429258515,-8.80818867655511,-340.26352,959.721540597996,12.041887382765532,-0.26627732117835673,-0.03911555096593187,0.11330463932264531,0.08647393919238466,-0.043190410462925925,-8.913685373799598,2294028.0,-0.27047167275350703,-0.040346466106212446,0.12456866585771546,-340.26352,53.12303891222445,55.5876187604008,-0.08664719864328654,1.405916764,15.334211259378758,15.496729636212425,-0.0032503675791583225,-0.33037195372745487,-0.3278924703026052,102.55680982064128,455.5486313629259,12.041816060400802,95971.61317054108,1.1403015239058116,-0.25943907980962094,0.7104956891623271,-0.00996279830661277,-0.30404116735871745,-0.040062828232464924,0.13865314607815632,0.016552641336673363,0.048046695164328655,1.691654955468938,0.663046545729459,-0.012493100412825647,0.022121194721442892,0.7481463566292585,0.19432060020841682,398753425.43627256,327329574.5302605,455931.48811883765,15.287849643767535,-1.101227239801603,15.25685930242485,0.040818159867735286,1.642946847733467,0.0,0.0,0.0,39.8714138,32.7364372,436.6802729957916,-295.1902797382766,-55.96783991993988,-1.3276673186953905,15.244672552084168,0.09147747590180345,-1.8053102982585174,0.024083161739479147,1.2068632328937878,1.6531103031983967,56.1373194293988,-0.22012837377555114,0.07604300011623245,-0.005363334843687363,0.1929549836472946,149028593.06412825,0.0,0.0,0.0,0.0,1.0
149194813.0,-0.048590894977955934,0.07257230109418837,-0.20609415133867737,0.19473511134268537,0.0,1396.0,1500.0,1195.2905811623245,1524.2905811623245,1474.7094188376755,1535.6967883446896,15.024991694969938,15.36009105024048,15.016303415971944,15.036074666212425,15.37149547721443,16.25903743036072,16.62173884933868,139.04916633707415,139.04916633707415,12.041911189378759,-0.000950657382765531,-0.005716324663326653,-0.00010243709418837675,-0.25637341453306617,0.19475525343687375,-0.006789987310621241,2.0,6.523749238875752,7.523749238875752,11.0,0.0,0.0,1.0,0.0,0.0,0.0,0.0,0.0,0.0,0.0,0.01483103448096195,0.048882618062124246,1.691032484496994,1.6910100246172344,276.165191698998,351.30649520120244,43.98443128132265,-0.0038140888937875754,0.04203591152705411,-0.2,0.0,0.06279836642685421,0.07041569653707419,-9.041389842623246,-53.51111571246524,959.7418815993988,12.042159591563125,-0.2417480013807616,-0.030003017186372816,0.09543691346893787,-0.0182783989839672,-0.05971505858717447,-9.177216369507013,2294028.0,-0.25186798907815633,-0.03216553505611224,0.09979454360721449,-53.51111571246524,53.12765041927856,55.75235708170341,-0.11176597110220438,1.0587399937454918,15.334295234669339,15.252370785851705,0.0016384897114228377,-0.3361469341122245,-0.32855696973547094,102.1969254492986,455.37866276292584,12.042081109198397,95973.57762945892,1.1403248968236472,0.131302468583166,0.1991887216472934,-0.037323323603205366,-0.2782987279819639,-0.03708139541482969,0.12498032157515034,0.000749419174348722,0.04937559006813627,1.6912424983306613,0.6630709265450901,-0.018225551941883758,0.016653213414829667,0.748148888480962,0.1904389479178357,398753408.29478955,327329851.6509018,455919.60095751507,15.324996951503005,-1.3909762515611217,15.242001117795592,0.23398416723446858,1.6622673864448898,0.0,0.0,0.0,39.8714138,32.7364372,436.4591617679359,-292.85149223867734,-55.92650554661323,-1.5831511639559113,15.256320154088176,0.25294459819438847,-1.4986027052444897,0.08261932103807593,0.8919932666452913,1.6685987471963928,56.09598554661323,-0.18765608639078166,0.08841648911022042,-0.007633785735470965,0.18891409485571145,149194812.97394788,0.0,0.0,0.0,0.0,1.0
149375865.0,-0.041664204537074166,0.0785575155531062,-0.20602548438076151,0.19035897673346697,0.0,1396.7194388777555,1500.0,1190.7194388777555,1520.7627101002004,1478.2372898997996,1538.0,15.013616919158316,15.348419798156312,15.032154694689378,15.05330791957916,15.389048820781563,16.28243933541082,16.645593437955913,139.20922177955913,139.20922177955913,12.042329042304608,-0.0009539603607214428,-0.005717987669338677,-0.00010069964729458918,-0.25645488164529057,0.1947064694008016,-0.007377482202404808,2.0,6.53303606580962,7.53303606580962,11.0,0.0,0.0,1.0,0.0,0.0,0.0,0.0,0.0,0.0,0.0,0.001062006156312667,0.05005030459519038,1.6910808637615231,1.6910585243006013,273.8882994871743,349.0690888234469,44.07059945492986,-0.003765524895791583,0.04273617539879759,-0.19999991106212425,0.0,0.009072212585170499,-0.0045348320641277265,-9.30306446663527,-340.26352,959.7464179288577,12.042567849038075,-0.20904251468537077,-0.023487887565130264,0.06088242980360728,-0.007822425092183699,-0.10181303018236565,-9.409774955246494,2294028.0,-0.22815763907014044,-0.021003688727454898,0.06723409141482976,-340.26352,53.13024091689379,55.87460366416833,-0.12732088338677353,0.720887120250502,15.334382913907815,15.081738753106213,0.005052889072144283,-0.2780955608256516,-0.3292028789519038,101.76494883126253,455.3192280709419,12.042466979278556,95974.26544480961,1.1403330970541083,0.2829490622625245,0.048578160278553835,-0.5136833437034088,-0.2595483731362727,-0.024253456681362764,0.10838359708216438,-0.011749990160320615,0.05083184064729459,1.690797558987976,0.6630953287815632,-0.022911075643286562,0.012465180661322654,0.7480801236032064,0.18789222638677355,398753387.3166333,327330124.2787575,455877.4981975952,15.355715414268538,-1.6357232929679353,15.265715414268536,0.36286164684368705,1.6778852267494988,0.0,0.0,0.0,39.8714138,32.7364372,436.20572816813626,-290.5492020845692,-55.867368211402805,-1.7873813619759513,15.265714354408818,0.3652770009519035,-1.2205269559478968,0.08816690331863701,0.5473806827555121,1.6810343173026052,56.03684767356713,-0.16049474811823658,0.09633198865931862,0.0015510966092184145,0.1866963154509018,149375864.9058116,0.0,0.0,0.0,0.0,1.0
149548197.0,-0.03437971156513026,0.08335775470340681,-0.2009133235771543,0.18755681486172346,0.0,1398.7034068136272,1500.0,1188.0,1518.0,1481.0,1540.8517034068136,15.045384896893788,15.380845508016032,15.050060544949899,15.072746861222445,15.408849269158317,16.308791375711422,16.67245554450902,139.39587084509017,139.39587084509017,12.04280958521042,-0.000957273380761523,-0.0057197026693386775,-9.897414829659319e-05,-0.25653561531062125,0.19465887149699398,-0.007967083084168337,2.0,6.542322893743488,7.542322893743488,11.0,0.0,0.0,1.0,0.0,0.0,0.0,0.0,0.0,0.0,0.0,-0.012707022168336673,0.05121799212825651,1.6911292428777553,1.691107023983968,271.6114073753507,346.8316824747495,44.156767628537075,-0.0037179400981963927,0.0434512838737475,-0.1999569893987976,0.0,-0.0400163375511022,-0.0714189434509018,-9.497555837282565,-340.26352,959.7533700394789,12.043057919098196,-0.19052376880961924,-0.011541611981963925,0.034109929284569136,-0.0387209500681363,-0.09406992956513024,-9.570376152202405,2294028.0,-0.2043832824288577,-0.011939657803607215,0.04615764872945892,-340.26352,53.131651829499,55.95513331551102,-0.136427327501002,0.39743305480160324,15.334484174308617,14.990069520501002,0.006888298076152304,-0.1788510536492986,-0.3298741341342685,101.24737478116232,455.26831712925855,12.042948674188375,95974.83621084169,1.1403397943907816,0.7300340861182363,-0.5021414107815628,-0.37946999429058115,-0.23644415240681363,-0.010004192294589181,0.08265337438476954,-0.019053971054108217,0.05250295179559119,1.691590820781563,0.6626903133206412,-0.025961455046092187,0.01027712607014028,0.7483727604148298,0.18572881524248497,398753363.8529058,327330393.5222445,455816.80264629255,15.385433256172345,-1.8348828855030062,15.28385831228457,0.46244146219438886,1.6905025487935872,0.0,0.0,0.0,39.8714138,32.7364372,435.9265196186373,-288.2524918983968,-55.79314873623247,-1.9508262676492987,15.276307018977956,0.4416348106993988,-0.9497766283927855,0.0524121094729459,0.37376346363326657,1.6898277214008017,55.962626978096196,-0.13311924214428858,0.10073146079559119,0.008237777997995991,0.18472865848096193,149548196.86973947,0.0,0.0,0.0,0.0,1.0
149712195.0,-0.028687814176352706,0.08623248426452906,-0.1959139982985972,0.1851806040480962,0.0,1401.0,1500.0,1185.5771543086173,1514.5771543086173,1484.4228456913827,1542.0,15.101653529198396,15.438222454288576,15.067966395210421,15.092185812865733,15.42864971753507,16.335143406012023,16.699317651062124,139.58251981062125,139.58251981062125,12.043290128116233,-0.0009605874008016032,-0.005721416965931864,-9.718857715430862e-05,-0.2566163482725451,0.1946112733126253,-0.008556684246492986,2.0,6.551609720677355,7.551609720677354,11.0,0.0,0.0,1.0,0.0,0.0,0.0,0.0,0.0,0.0,0.0,-0.018343149432865725,0.0527491446753507,1.6911794150380761,1.6911573427975952,269.33450760641284,344.4890756210421,44.22840278693387,-0.003670450501002004,0.044148178819639276,-0.19977151911823648,0.0,-0.0060375947755512555,-0.22157260310420826,-9.606927107867735,-340.26352,959.7756475312625,12.043665694108215,-0.15998054135671344,-0.002840095663326692,0.021450297603206433,-0.059662348076152026,-0.1093441660440882,-9.705681888749499,2294028.0,-0.1748168748637275,-0.00853736959118238,0.023092870054108237,-340.26352,53.132211598657314,55.976639926873744,-0.1395688536993988,0.15908612499599226,15.334594626272546,14.965448491142284,0.007382918887775551,-0.10028247641082173,-0.33046347681763527,100.76238783567135,455.1337099138276,12.043494655971942,95976.38120352705,1.1403581798697395,0.034858087837675335,-0.011207166446893634,-0.3858953178396807,-0.20507048035871744,-0.00896606173346694,0.0552377254208417,-0.024953975150300598,0.054213948591182365,1.6911973653687373,0.6627349328116232,-0.028554452989979957,0.008642277705410824,0.7482594480941884,0.18411666738677354,398753337.9749499,327330662.1973948,455739.90281322645,15.415151108076152,-1.9906043254929857,15.29,0.5338633298256513,1.7004265468176352,0.0,0.0,0.0,39.8714138,32.7364372,435.6189666470942,-285.91137524208415,-55.70707522362726,-2.0696601089819637,15.289091744609218,0.4890906626773547,-0.632102245947896,0.10057465749098181,0.18345075424248505,1.6952592796773547,55.87655522362726,-0.10866580911422849,0.10431088648496993,0.013197654324649295,0.1832580008016032,149712194.7034068,0.0,0.0,0.0,0.0,1.0
149867492.0,-0.02404761748496995,0.08813316041883766,-0.1919638661963928,0.18364819344488978,0.0,1402.993987975952,1500.0,1184.0,1512.0027576673347,1486.9972423326653,1543.0,15.189865509559118,15.528319919258516,15.085872245470942,15.111624754509018,15.448450165911824,16.36149543631263,16.726179757555112,139.7691687761523,139.7691687761523,12.043770661022043,-0.0009639004208416834,-0.005723131114228458,-9.550300601202406e-05,-0.25669708108617234,0.1945636751282565,-0.00914628540280561,2.0,6.560896547611223,7.560896547611223,11.0,0.0,0.0,1.0,0.0,0.0,0.0,0.0,0.0,0.0,0.0,-0.022520600254509006,0.05434548655310621,1.691229908995992,1.691207988737475,267.0576064667335,342.1276005476954,44.29743136028056,-0.0036284473166332664,0.04481836865731463,-0.19951301593587176,0.0,-0.15010297077354665,-0.09707265631262567,-9.780804653082164,-19.21196782765601,959.7731795208416,12.044220076332664,-0.12924445116633274,-0.004550891078156325,0.008296621675350757,-0.07307778382565142,-0.14865482642284514,-9.821432519875751,2294028.0,-0.1465281398316634,-0.0033721009478957916,0.020805650933867735,-19.21196782765601,53.13254162633267,55.96938254971944,-0.1404577741763527,-0.04295799681763486,15.334632056412826,14.994466532004008,0.006803306082164332,-0.03388694641082177,-0.33105517293787573,100.2849200478958,455.0843438743487,12.04407286767535,95976.97202793587,1.1403652030601201,0.012132202414831622,0.15847566831663273,-0.5795626775571135,-0.18288779776352707,0.0008921995691382791,0.032745984979959945,-0.028430774366733465,0.05580945998196392,1.6907980650841683,0.6628107311943888,-0.030301466418837672,0.007876674338677355,0.748132184995992,0.18332432956513026,398753309.0486974,327330940.03226453,455647.03454388777,15.444868949979961,-2.109475714817635,15.29,0.5561517154669338,1.708206605258517,0.0,0.0,0.0,39.8714138,32.7364372,435.2954376589179,-283.5586578503006,-55.615972995130264,-2.1512589839398797,15.305988523607216,0.5149922076893787,-0.3990677492805617,0.10492993830060135,0.029773767446894188,1.6988185800060118,55.78545291561122,-0.08618458371342691,0.10546367773747495,0.015226466741482961,0.18373203046092185,149867492.28857714,0.0,0.0,0.0,0.0,1.0
150026791.0,-0.018660918769539077,0.09002439699398798,-0.19165388135470943,0.18352951717434868,0.0,1403.1376934228456,1500.0,1183.0,1509.5595281943888,1489.4404718056112,1544.0,15.206087860581162,15.544885908717434,15.103778095731464,15.131063696152305,15.468250614288579,16.387847466613227,16.75304185981964,139.95581784168337,139.95581784168337,12.044251203927855,-0.0009672144408817635,-0.00572484626252505,-9.371743486973947e-05,-0.2567778148997996,0.19451607694388778,-0.009735886136272546,2.0,6.570183375545089,7.570183375545089,11.0,0.0,0.0,1.0,0.0,0.0,0.0,0.0,0.0,0.0,0.0,-0.026698050076152308,0.05594182800801603,1.6912804033767534,1.6912586336773547,264.7807052270541,339.7661254731463,44.366459943627255,-0.0035884373386773547,0.04546227361723447,-0.19922898852705412,0.0,-0.05967472738877752,-0.0748969203246492,-9.834644830693387,-340.26352,959.7760242172344,12.044775283867736,-0.115261079507014,-0.004798308256513007,0.0052163966192384885,-0.12434642882164353,-0.0893878691823649,-9.881788641875751,2294028.0,-0.12312537321242484,-0.007518770056112218,0.003909359737474939,-340.26352,53.13272637444889,55.936501023607214,-0.13950479173747496,-0.21282718605410833,15.334585645651302,15.05592410991984,0.005573232523046092,0.023327887398797632,-0.3316769871603206,99.80233650358717,454.89951700841686,12.044651391122244,95979.07317787575,1.1403902228296594,0.06834454280962038,-0.1800033989539081,-0.39538624274148193,-0.15606886261923844,0.003606677366733458,0.019591050637274544,-0.02970254935470942,0.057007787098196386,1.6904394714749498,0.6629075768637275,-0.031169465643286574,0.007804033621242485,0.7480114297254508,0.18413165682164329,398753279.4094189,327331213.5759519,455557.2396230461,15.468440099238476,-2.1607334630480963,15.320732887154309,0.5907335011803608,1.7110517851002005,0.0,0.0,0.0,39.8714138,32.7364372,434.96749616432874,-281.2514273194389,-55.524053058196394,-2.1962241203627255,15.32159286507014,0.5201476781743487,-0.17556290157114224,-0.00958814862124247,-0.09293806418837681,1.7009011928657314,55.69353145519038,-0.066803446250501,0.10453889298997997,0.009796792156312621,0.18501339384769538,150026790.8737475,0.0,0.0,0.0,0.0,1.0
150174634.0,-0.015204496044088179,0.09032479771142285,-0.19254461413226454,0.18473558673346693,0.0,1403.099003032064,1500.0,1184.0,1507.8637274549098,1491.1362725450902,1545.0,15.152515218657314,15.490118791723447,15.121683945991984,15.150502637795592,15.48805106266533,16.41419950691383,16.779903960721445,140.14246680721445,140.14246680721445,12.044731746833667,-0.0009705274609218437,-0.0057265604108216435,-9.203186372745492e-05,-0.25685854771342687,0.19446847862324648,-0.01032548686973948,2.0,6.579470202478958,7.579470202478957,11.0,0.0,0.0,1.0,0.0,0.0,0.0,0.0,0.0,0.0,0.0,-0.02777813644288577,0.05727298197595191,1.6911442754589179,1.6911226571823648,262.4429410923848,337.39956577635263,44.423811379058115,-0.0035574025450901808,0.046095438064128254,-0.198944403496994,0.0,-0.05054721199398793,-0.045458532190380756,-9.946597710448899,-340.26352,959.7830668611223,12.045421580861724,-0.09230519725450903,0.0020689177875751487,-0.0027029535831663318,-0.019135432220440736,-0.11834259246492988,-9.934644490042084,2294028.0,-0.09919814137074148,0.0026451100040080083,0.002682966448897798,-340.26352,53.132827403086175,55.8783799465531,-0.1368774200721443,-0.348952780509018,15.334446418256512,15.119542379378757,0.004298093268537075,0.07410521522845691,-0.33236398411222445,99.2993776846493,455.0000140302605,12.045229845711422,95977.91841833667,1.1403765048336671,0.2039687805110224,-0.5495437334248506,-0.2439040838977956,-0.12932798913026053,0.006426792226452897,0.013339949787575155,-0.027877269613226452,0.058133081026052115,1.691063102511022,0.6626858128196393,-0.030987785741482966,0.008850382761523046,0.7482037728877756,0.1851215756753507,398753249.66893786,327331483.70681363,455466.2980052104,15.487152326893787,-2.201456972635271,15.336423194488978,0.6028476758336674,1.713366510549098,0.0,0.0,0.0,39.8714138,32.7364372,434.6363753869739,-278.95193188276556,-55.4327064348497,-2.216831664763527,15.33906295472946,0.5174431511523047,-0.08535688202004019,0.09376074046693385,-0.10312101104408815,1.7018118543106213,55.6021864348497,-0.05023936778557115,0.10340132525651302,0.004123722004008018,0.18565535298597194,150174633.5490982,0.0,0.0,0.0,0.0,1.0
150329387.0,-0.011612901505010025,0.09014408280360721,-0.19238215900801603,0.1853823648296593,0.0,1404.0,1500.0,1185.0,1506.0,1493.0,1545.0,15.1945514797996,15.533039756733467,15.137102761603206,15.167551276052105,15.505414471643286,16.43545770220441,16.801565656693388,140.31239093707416,140.31239093707416,12.045225791362725,-0.0009734305270541082,-0.005728033250501002,-9.058777555110221e-05,-0.25692743079358715,0.1944069307274549,-0.010867492705410821,2.0,6.588757030120241,7.588757030120241,11.0,0.0,0.0,1.0,0.0,0.0,0.0,0.0,0.0,0.0,0.0,-0.0262050865490982,0.058376982050100196,1.6908482910440883,1.690826823755511,260.0530431398798,335.02865064488975,44.471160421743484,-0.0035321530400801607,0.04672430299799599,-0.198689419,0.0,-0.08697742539078171,-0.03231210274549109,-9.96201230777555,-340.26352,959.7925951893787,12.045957029539078,-0.07276000870140281,0.012724252494989968,-0.015105872462925827,-0.11621487747695372,-0.03760412790380759,-9.989265401490982,2294028.0,-0.07882393354709423,0.009576182815631286,-0.011996039837675318,-340.26352,53.13286682507014,55.80745904511022,-0.13352796192985972,-0.4252365286633265,15.334423683086172,15.197600774408818,0.0027364589438877776,0.09966738307414826,-0.333000894747495,98.87905725182364,454.8942400807615,12.045807493126253,95979.14974406813,1.1403910204308618,-0.06300729590180179,0.07762997803206245,-0.10132830897996058,-0.10742321855711427,0.012632754234468914,0.002104161669338705,-0.026208249272545094,0.05931380543687375,1.6907969252525048,0.6627937672164329,-0.030874848244488978,0.009870427386773543,0.7481000215991984,0.18565848194188378,398753219.74549097,327331753.02464926,455375.14267014025,15.502011193326652,-2.238039772278557,15.333562348116233,0.587988751739479,1.7156811725531063,0.0,0.0,0.0,39.8714138,32.7364372,434.2977537607214,-276.6035117943888,-55.340420832484966,-2.2112771601783567,15.35836343973948,0.5038818133266534,0.1472437736573145,0.12283991534669335,-0.09083992134468964,1.7012932775571141,55.509900832484966,-0.03451002269539081,0.10254751646893788,-0.0005483833747494937,0.18588324986773547,150329387.04408818,0.0,0.0,0.0,0.0,1.0
150486437.0,-0.008271494661322643,0.09031339617034068,-0.19168929364328655,0.18557922641282565,0.0,1404.0,1500.0,1185.0,1504.0,1495.0,1545.0,15.204312641322645,15.54287552789579,15.149011625551102,15.181226465470942,15.51933848254509,16.44952695146293,16.815887972805612,140.45871119278556,140.45871119278556,12.045738893086172,-0.0009757533406813627,-0.005729163302605211,-8.964428857715432e-05,-0.2569795893266533,0.19432569438276553,-0.01134232606813627,2.0,6.598043857346693,7.598043857346693,11.0,0.0,0.0,1.0,0.0,0.0,0.0,0.0,0.0,0.0,0.0,-0.02463203637675351,0.059480982260521044,1.6905523066292585,1.6905309903286574,257.66314508737474,332.65773551342687,44.51850946306613,-0.0035179013126252507,0.04733648168737475,-0.19844165025851704,0.0,-0.14802608171943918,-0.1047732213226455,-10.007447641482965,-38.17066058488846,959.8246915326654,12.046495751823647,-0.04950067226853715,0.002021830374749495,-0.01992133453707414,-0.08382724052104233,-0.13005514160721418,-10.007379798296592,2294028.0,-0.05913777280561126,0.007979051903807637,-0.01403076010420838,-38.17066058488846,53.13289097392786,55.728796294569136,-0.12972622007815632,-0.47571564506212416,15.334330268797595,15.280101155971943,0.0010845785350701443,0.11640949910020036,-0.33364204993587177,98.48937522791583,454.7166409657315,12.04635335993988,95981.2052812024,1.1404154766933867,0.43503801884369186,0.0219653605691377,0.011605815028055378,-0.08425996124649306,0.013350370082164375,-0.008778044993987957,-0.023571802825651314,0.06030793515831663,1.6903026263066132,0.663004502008016,-0.030369956100200404,0.011193821503006008,0.7479152934689378,0.18650433093587174,398753188.5765531,327332032.1831663,455293.2140318637,15.516869750941884,-2.2315649143226453,15.35530525458918,0.5731298286452906,1.7150970697274548,0.0,0.0,0.0,39.8714138,32.7364372,433.95873890200403,-274.2396556260521,-55.25211528420842,-2.191840519170341,15.376381054048096,0.48190917930661326,0.1823031669659317,0.05305729095991969,-0.12136482082765539,1.6993535589138276,55.42159356819639,-0.020951259923847713,0.10081784328657314,-0.0034612156893787517,0.1876305305811623,150486436.61322644,0.0,0.0,0.0,0.0,1.0
150632584.0,-0.005935437611222449,0.0904372573507014,-0.19456493849098197,0.1871032924248497,0.0,1402.1028863226454,1500.0,1186.0,1503.0,1496.0,1545.0,15.123042163827655,15.459709420841683,15.16092048507014,15.194901644889779,15.533262493446893,16.463596200721444,16.830210288917833,140.6050314334669,140.6050314334669,12.04625199480962,-0.0009780771543086173,-0.0057302943547094184,-8.874509018036073e-05,-0.25703174685971947,0.19424445803807616,-0.011817158581162323,2.0,6.607330684280561,7.6073306842805595,11.0,0.0,0.0,1.0,0.0,0.0,0.0,0.0,0.0,0.0,0.0,-0.02250072051102206,0.0604974819759519,1.6902529701503006,1.6902318048376752,255.27327074148297,330.2851840308618,44.56285824280561,-0.0035049517374749497,0.04793898549098197,-0.19820601478757516,0.0,-0.0517527477535072,-0.04249512118036084,-10.040546773887774,-108.79405970593373,959.8147748146292,12.046984045490982,-0.04295666800000003,0.0061710628316633456,-0.022039623184368647,-0.06997178198997858,-0.10586144412825602,-9.958602498228457,2294028.0,-0.04024899080160328,0.005893075853707391,-0.015177843813627311,-340.26352,53.132904,55.6416631306012,-0.12543793872945894,-0.5065659879178357,15.334228731863728,15.366918820561121,-0.0006538021242484904,0.12684309743687375,-0.33431652713827653,98.11503984697394,454.5786973290581,12.046877299398798,95982.77113176353,1.1404340827094188,0.2643123239919874,0.014851856328654545,-0.3202113017755489,-0.06260779758917845,0.016980766344689452,-0.014298945338677403,-0.020070057112224465,0.061041168657314626,1.6898804668917837,0.6632043807755511,-0.029480421729458927,0.012752781729458911,0.7477486841162324,0.18837251015831663,398753157.9775551,327332306.80200404,455212.0764066132,15.531728888216433,-2.206541809252505,15.383458189498997,0.5465418092525051,1.7134251616733467,0.0,0.0,0.0,39.8714138,32.7364372,433.62982968036073,-271.9158041637275,-55.17112995164329,-2.1562713205631265,15.397548859779558,0.4567228760120241,0.25428128440080133,0.16246656365731402,-0.1546042415511018,1.6966856016012024,55.34060995164329,-0.010539989040080204,0.09942331821843688,-0.00517024653106212,0.1890694234468938,150632584.41683367,0.0,0.0,0.0,0.0,1.0
