timestamp,control[0],control[1],control[2],control[3],control[4],output[2],output[3],output[4],output[5],output[6],output[7],indicated_airspeed_m_s,true_airspeed_m_s,indicated_airspeed_m_s.1,equivalent_airspeed_m_s,true_airspeed_m_s.1,equivalent_ground_minus_wind_m_s,true_ground_minus_wind_m_s,differential_pressure_raw_pa,differential_pressure_filtered_pa,temperature,gyro_bias[0],gyro_bias[1],gyro_bias[2],accel_bias[0],accel_bias[1],accel_bias[2],instance_count,seq_reached,seq_current,seq_total,item_changed_index,item_do_jump_remaining,valid,warning,finished,failure,stay_in_failsafe,flight_termination,item_do_jump_changed,execution_mode,nav_roll,nav_pitch,nav_bearing,target_bearing,xtrack_error,wp_dist,acceptance_radius,rollspeed_integ,pitchspeed_integ,yawspeed_integ,additional_integ1,x,y,z,temperature.1,pressure,temperature.2,gyro_rad[0],gyro_rad[1],gyro_rad[2],accelerometer_m_s2[0],accelerometer_m_s2[1],accelerometer_m_s2[2],device_id,x.1,y.1,z.1,temperature.3,altitude_sp,altitude_filtered,height_rate_setpoint,height_rate,airspeed_sp,airspeed_filtered,airspeed_derivative_sp,airspeed_derivative,throttle_integ,pitch_integ,baro_alt_meter,baro_temp_celcius,baro_pressure_pa,rho,xyz[0],xyz[1],xyz[2],xyz[0].1,xyz[1].1,xyz[2].1,roll_body,pitch_body,yaw_body,q_d[0],q_d[1],q_d[2],q_d[3],thrust_body[0],lat,lon,alt,vel_m_s,vel_n_m_s,vel_e_m_s,vel_d_m_s,cog_rad,ground_contact,maybe_landed,landed,ref_lat,ref_lon,x.2,y.2,z.2,vx,vy,vz,ax,ay,az,yaw,dist_bottom,roll,pitch,yaw.1,thrust_body[0].1,timestamp.1,isTakeoff,isClimbing,isDescending,isCruise,isLand
77024559.0,-0.043616554,-0.018927909,-0.106387197,0.0,0.0,1440.0,1500.0,1000.0,1521.0,1478.0,1517.0,13.43518051,13.76473897,13.40755791,13.59039961,13.923737699999998,14.62808212,14.9868704,109.88192250000002,109.88192250000002,11.74972066,-0.001431419,-0.005966709000000001,0.000111345,-0.224949198,0.165249326,-0.008776955,2.0,2.101020204,3.101020204,11.0,0.0,0.0,1.0,0.0,0.0,0.0,0.0,0.0,0.0,0.0,0.272548948,-0.208593845,1.549106115,1.55873504,0.440056504,254.14373540000003,39.59985946,-0.025587849,0.024133705,-0.172103903,0.0,-0.69230094,0.554374093,-9.121326464,-340.26352,954.6047881,11.75048321,-0.13670417,0.002871848,0.278573936,-0.78267029,0.495997991,-9.250635422,2294028.0,-0.139744389,0.024037925,0.286817729,-340.26352,95.23889737,100.8564422,-1.65440785,-1.899633517,15.36809817,13.50997046,0.037162548,-0.055117609000000005,-0.100276639,59.34220118,500.4377663,11.74988535,95456.76332,1.13418426,0.606228571,-0.28156493,-0.305585825,-0.145950345,-0.012621444,0.319890093,0.265267187,-0.197363036,1.5622909319999998,0.69127261,0.162210334,0.023313453,0.703764313,0.0,398733320.4,327299677.3,501021.0682,13.53652931,5.169603921,12.51938179,1.791014195,1.179143445,0.0,0.0,0.0,39.8714138,32.7364372,213.8134168,-550.7487739000002,-100.70802059999998,4.81594539,12.77563823,2.066190713,-3.702360121,1.698005505,1.73228684,1.248657887,100.8775006,-0.082961315,0.027011845,0.181795974,0.0,77024559.0,0.0,0.0,1.0,0.0,0.0
77059539.0,-0.04246068676152305,-0.01557453944488978,-0.10818238916032065,0.0,0.0,1443.3026052104208,1500.0,1000.0,1519.3486973947895,1479.6513026052105,1507.9178356713426,13.377704057815631,13.705945529679358,13.394783317454909,13.577346021623246,13.91033774264529,14.623274715751503,14.981917193987975,109.73646197815631,109.73646197815631,11.749923679398798,-0.001430779120240481,-0.005966616527054108,0.00011062585771543086,-0.22493592813226454,0.165239563498998,-0.008759693108216433,2.0,2.103167326725451,3.103167326725451,11.0,0.0,0.0,1.0,0.0,0.0,0.0,0.0,0.0,0.0,0.0,0.267830830509018,-0.20751262241883767,1.5519906343346692,1.5591815134188378,0.32623346793587177,253.69652294068135,39.66043880885771,-0.025561765849699398,0.024144503693386773,-0.17223291431863727,0.0,-0.725487523486974,0.522519928246493,-9.153803595046092,-280.43739821162325,954.6089762162325,11.750942462024048,-0.13561774003607216,-0.026437705675350708,0.27174211814829663,-0.6988982234909819,0.5311232706232465,-9.034864756957916,2294028.0,-0.14054589578156312,0.006254144807615228,0.27931731358517037,-280.43739821162325,95.14284269921843,100.78160566132264,-1.8841446999318636,-1.9689142447595191,15.36803296831663,13.53499222729459,0.03666081126252505,0.002377996643286584,-0.1002138242745491,59.03629109743487,500.20437333647294,11.750358481222445,95459.4237666533,1.1342158758396794,-0.2811578568797596,-0.39756447371943887,-0.007223062274549108,-0.14371634641883768,-0.009068254444889779,0.30918187365731464,0.2575606956252505,-0.1990670944208417,1.5621641796633268,0.6917996719398798,0.16013073881763526,0.019986694186372743,0.703823147260521,0.0,398733336.08737475,327299730.55450904,500947.55072184367,13.550270888837677,5.0424942506993995,12.581218762665332,1.856286710991984,1.189426410987976,0.0,0.0,0.0,39.8714138,32.7364372,213.9804058492986,-550.3009951264531,-100.63558274348696,4.687969839362726,12.833970015651303,2.125873294731463,-3.6879849513887777,1.6231924618817637,1.621496894268537,1.2583491697975953,100.80506274348699,-0.08233515756513027,0.03609973687174349,0.17380021404008014,0.0,77059539.36873747,0.0,0.0,1.0,0.0,0.0
77095362.0,-0.04409047398196393,-0.0017135082665330655,-0.1147409330741483,0.0,0.0,1445.3026052104208,1500.0,1000.0,1521.012145991984,1477.987854008016,1498.1843687374749,13.436575202324649,13.766093798276554,13.38200872490982,13.564292433246493,13.89693778529058,14.618467318016032,14.976963987975953,109.59100145631263,109.59100145631263,11.750126692284569,-0.0014301385891783568,-0.005966524054108216,0.00010990671543086173,-0.22492265891583166,0.16522980099799597,-0.008742431216432867,2.0,2.1053144494509017,3.1053144494509017,11.0,0.0,0.0,1.0,0.0,0.0,0.0,0.0,0.0,0.0,0.0,0.26311271236673345,-0.20643139983767536,1.5548751543206412,1.5596279868376755,0.2124104325230461,253.24931041623245,39.72101815771543,-0.025531018070140278,0.02415771676553106,-0.17236478876352704,0.0,-0.7597005318737475,0.49508663688977955,-9.071225626392785,-170.574840060521,954.6096065268538,11.751410389398798,-0.13074613211623246,-0.051609724080160325,0.264792299244489,-0.7272497534248497,0.4900740700360721,-8.87657142633467,2294028.0,-0.13916927861523049,-0.019068443501002008,0.27279539175751505,-170.574840060521,95.04678802192385,100.7067691226453,-2.11388155051503,-2.038194972519038,15.367967760120239,13.560013994589179,0.0361590745250501,0.059873602286573145,-0.10015100889779559,58.73038102138276,500.1311457787575,11.750845459138276,95460.25689917836,1.1342257472905812,0.31346967395791586,0.3315286166793588,-0.6360741186372747,-0.14197277023246493,0.007000317775551105,0.3054424971002004,0.2544389922765531,-0.19450171135871744,1.5665417306332667,0.6908628114348698,0.15743685976753508,0.02085334393987976,0.7053181630340681,0.0,398733351.7096192,327299783.8090181,500874.03324368736,13.564012474188377,4.915384579747495,12.643055728817636,1.9215592269839679,1.199709376975952,0.0,0.0,0.0,39.8714138,32.7364372,214.13672714809618,-549.8655970292587,-100.56327996713428,4.565558704907816,12.889481263727454,2.1793519039178357,-3.6201897141422847,1.590212684745491,1.6142166238376754,1.2671561686272546,100.73275996713427,-0.08546064186372745,0.03350866516633266,0.16829518504208416,0.0,77095361.87174349,0.0,0.0,1.0,0.0,0.0
77133992.0,-0.042522708699398795,0.009202202102204411,-0.11944855738677354,0.0,0.0,1445.5451810460922,1500.0,1000.0,1521.0928619198396,1477.9071380801604,1494.0,13.503124698396794,13.834176798316633,13.37284727761523,13.554915382064129,13.887300989498998,14.616563417094188,14.974981694468939,109.50170330641284,109.50170330641284,11.750363276212425,-0.0014295350861723447,-0.005966441597194389,0.00010919281963927856,-0.22490876363326653,0.16521902210821643,-0.008725087288577155,2.0,2.1074615721763528,3.1074615721763523,11.0,0.0,0.0,1.0,0.0,0.0,0.0,0.0,0.0,0.0,0.0,0.2583945945270541,-0.20535017725651303,1.557759674480962,1.560074460256513,0.09858739728456911,252.8020978743487,39.78159750657314,-0.025499239096192384,0.024155057326653306,-0.17249995559318637,0.0,-0.7915328196412825,0.470667932256513,-8.95691663276553,-65.45422470792381,954.6100724158317,11.751884554889779,-0.1326878864048096,-0.06518826054509018,0.2592634149519038,-0.769623091272545,0.43423060688577153,-8.692519249901803,2294028.0,-0.13747542659118236,-0.044256216739478965,0.26635167533667337,-65.45422470792381,94.95073334288577,100.63193253627254,-2.343618401272545,-2.1074757002785574,15.36790255018036,13.585035766653307,0.035657337787575155,0.11736920792985972,-0.1000881938236473,58.42447094707415,500.11487127815633,11.751335666753507,95460.4437651503,1.1342279530781563,0.39454119960921824,0.6783733431202404,-0.7418633831342685,-0.1374496943767535,0.032053971442885784,0.30731192926052103,0.25102377044488977,-0.1917787424048096,1.5705949650741484,0.6899143912905812,0.15528062018837674,0.02092904934268537,0.7067228822164329,0.0,398733367.31442887,327299837.06352705,500800.5157655311,13.577754061282565,4.788274909098196,12.704892693226453,1.986831743452906,1.2099923434408817,0.0,0.0,0.0,39.8714138,32.7364372,214.29019401222445,-549.4304314016032,-100.49008901402806,4.444696404847695,12.94428938248497,2.232324981236473,-3.534992542763527,1.5693646268617234,1.6421290954929861,1.2756784131202406,100.65956901402805,-0.09075248948296594,0.027506187078156313,0.16351892292585168,0.0,77133992.03607215,0.0,0.0,1.0,0.0,0.0
77172480.0,-0.039756802280561124,0.013316920184368738,-0.12220912240881764,0.0,0.0,1444.429212991984,1500.0,1000.0,1520.6031524028056,1478.3968475971944,1494.3005471923848,13.518612334509019,13.850065328917836,13.38203437230461,13.564208806853706,13.896774540841683,14.629404284068137,14.988086491042084,109.69761312905811,109.69761312905811,11.750770345390782,-0.0014291197675350702,-0.005966410038076152,0.0001085063627254509,-0.22489168918236474,0.1652030808977956,-0.008707326310621242,2.0,2.109608694901804,3.1096086949018034,11.0,0.0,0.0,1.0,0.0,0.0,0.0,0.0,0.0,0.0,0.0,0.25367647673346694,-0.2042689543727455,1.5606441943386775,1.5605209336753507,-0.015235637953907841,252.35488536272544,39.84217685240481,-0.025469373935871745,0.02413421543687375,-0.17264055892985972,0.0,-0.809879816248497,0.4555483250360721,-8.837876411895792,-52.434802532232496,954.6145400603207,11.752378601703407,-0.13778368398597196,-0.0658088215751503,0.2511169826252505,-0.7936594040601201,0.4216468753587174,-8.548985649426854,2294028.0,-0.13713154300601202,-0.058510989214428856,0.2589749301783567,-52.434802532232496,94.8551242590982,100.55660826673346,-2.539506598480962,-2.175789579274549,15.36784041773547,13.612105740701404,0.03511469790380762,0.17240092175951904,-0.10003375460521043,58.123811006593186,500.0706657993988,11.751829456513025,95460.95240531061,1.1342340076513027,-0.05713541880160326,0.35063073041683346,-0.2625352663106212,-0.1326312878196393,0.05204060036272545,0.3078318482905812,0.24540044843286574,-0.1921247303226453,1.5723997106272545,0.6896859741482966,0.15344209056513025,0.018956505142284568,0.7074036494569138,0.0,398733382.949499,327299890.3180361,500726.9982873748,13.591495648376753,4.6611652387975955,12.76672965763527,2.052104259967936,1.220275309951904,0.0,0.0,0.0,39.8714138,32.7364372,214.44366738116233,-548.9796157975951,-100.41220423286573,4.324135160160321,12.99936109965932,2.291164604691383,-3.4340436136813626,1.5532559983507013,1.7080473736833668,1.2839567050681362,100.58168423286573,-0.08890622605611222,0.03046026994589179,0.15946674381362724,0.0,77172480.4749499,0.0,0.0,1.0,0.0,0.0
77207974.0,-0.03923502637675351,0.013031622693386773,-0.12505419510621243,0.0,0.0,1442.6211591883769,1500.0,1000.0,1521.9940712725452,1477.0059287274548,1496.0201233767534,13.48084793026052,13.811391446673348,13.418370650380762,13.601127763567133,13.934524466052105,14.664062063867735,15.023514701302606,110.3155272741483,110.3155272741483,11.751429670521041,-0.0014289827094188378,-0.0059664537975951904,0.00010786070340681363,-0.22486991110621243,0.16517950112224447,-0.008688948266533067,2.0,2.111755817755511,3.111755817755511,11.0,0.0,0.0,1.0,0.0,0.0,0.0,0.0,0.0,0.0,0.0,0.24895835854509019,-0.2031877310941884,1.5635287138016034,1.5609674070941884,-0.1290586731923848,251.90767289058115,39.90275619428858,-0.025442100460921845,0.02410598169739479,-0.17278907258917833,0.0,-0.8082734753106213,0.4541880074168337,-8.711835690997997,-175.6917298486974,954.6249289004008,11.752902065911824,-0.13763470441082165,-0.05726893396793587,0.23891085361523048,-0.8069279721402806,0.4589147641763527,-8.522840739719438,2294028.0,-0.13878512262925852,-0.05658888701803607,0.2502176413446894,-175.6917298486974,94.76061563432866,100.48007965591182,-2.651800674721443,-2.2417156858797593,15.367785883787574,13.64423403785571,0.03447104175951904,0.22134769996392786,-0.1,57.83611702895792,499.9585214875751,11.752335309418838,95462.2357196994,1.134249274232465,-0.25543559921843695,-0.2752824087895792,0.1276962648156312,-0.13057608227254508,0.054805888138276554,0.3013819307034068,0.237866066749499,-0.1934295792284569,1.5722513909799598,0.6902136566092184,0.1512952336513026,0.015819404597194386,0.7074312696412826,0.0,398733398.36753505,327299943.5212425,500652.82455911825,13.60539348268537,4.534836806877755,12.82809789450902,2.117689274492986,1.230495553503006,0.0,0.0,0.0,39.8714138,32.7364372,214.59715043927858,-548.5056439098196,-100.32737432825651,4.2040193682004015,13.054822848356714,2.358684588242485,-3.309787798723447,1.5441600053166333,1.8302004561042085,1.2918740355851703,100.4968543282565,-0.07652249228456914,0.04611689182965932,0.15608773339278556,0.0,77207973.86973947,0.0,0.0,1.0,0.0,0.0
77246257.0,-0.035081528052104204,0.013175428032064129,-0.1251786777274549,0.0,0.0,1440.138590026052,1500.0,1000.0,1521.999686527054,1477.000313472946,1502.6309490521041,13.472187756312627,13.802331674008016,13.454706928456915,13.638046720280562,13.972274391262525,14.698719850641284,15.058942911563127,110.93344148897795,110.93344148897795,11.752089002625251,-0.0014288456513026051,-0.005966497557114228,0.00010721504408817636,-0.2248481337274549,0.1651559213466934,-0.00867057091983968,2.0,2.113902941306613,3.113902941306613,11.0,0.0,0.0,1.0,0.0,0.0,0.0,0.0,0.0,0.0,0.0,0.24424024105410821,-0.20210650851302606,1.5664132339619237,1.5614138805130262,-0.2428817084308618,251.46046034869738,39.96333554314629,-0.025412426553106212,0.024094939436873748,-0.17294685950701402,0.0,-0.8066671343727455,0.4528276891002004,-8.585794970797597,-298.9486571184369,954.6353177404809,11.753425537094188,-0.13310230149298596,-0.048654734761523044,0.2392120231382766,-0.8240986781683367,0.3991289818116232,-8.471461479663327,2294028.0,-0.14043870155511023,-0.054666784821643284,0.24146035181362724,-298.9486571184369,94.6679027871944,100.4015856470942,-2.6276814268657316,-2.3037452978557114,15.367743742545091,13.684616783426854,0.03366254171142285,0.26036475635671347,-0.1,57.5695816047495,499.8362050450902,11.752869811302604,95463.62756963928,1.1342657814789578,-0.32366919306212427,-0.3632912917474951,-0.16623491362124265,-0.12632079352705408,0.05027116596593187,0.2954381850440882,0.23024333769939878,-0.1952959020741483,1.572102336975952,0.6906988935310622,0.14930997078156313,0.012452660316633264,0.7074494017695392,0.0,398733412.3210421,327299996.44549096,500575.0824709419,13.620140911222446,4.412756358653306,12.886917425410823,2.1849734997915835,1.2403747438036072,0.0,0.0,0.0,39.8714138,32.7364372,214.7506335671343,-548.0316720917835,-100.24254435390782,4.0839035762404805,13.110284604028056,2.426204572490982,-3.1855319830681363,1.5350640129799598,1.9523535385250503,1.2997913661022045,100.41202435390781,-0.08191437674148297,0.044705938795591184,0.14998985267134268,0.0,77246256.84368737,0.0,0.0,1.0,0.0,0.0
77281422.0,-0.0365398372745491,0.013077785981963928,-0.12805159424448898,0.0,0.0,1438.4408817635272,1500.0,1000.0,1519.0105724188377,1479.9894275811623,1505.925022745491,13.502212486412825,13.833086597034068,13.491043214328657,13.674965676993988,14.010024316472945,14.733377637414831,15.094371121823649,111.5513556258517,111.5513556258517,11.752748326933867,-0.001428709372745491,-0.005966542096192385,0.00010656938476953908,-0.2248263563486974,0.1651323423507014,-0.008652192793587175,2.0,2.116050064078156,3.116050064078156,11.0,0.0,0.0,1.0,0.0,0.0,0.0,0.0,0.0,0.0,0.0,0.23952212278356713,-0.20102528593186375,1.5692977541222446,1.5618603531523045,-0.3567047444488978,251.01324788476953,40.02391489200401,-0.025380761651302607,0.024104359823647295,-0.1731020863527054,0.0,-0.8098236291402806,0.4295579631082164,-8.528698767719439,-332.6728553707415,954.6429927014028,11.753972402845692,-0.13405287696192386,-0.04309820028456914,0.23379680647895792,-0.7821714455551102,0.3886475657294589,-8.493159628641282,2294028.0,-0.13948135535671344,-0.04880472302004008,0.23630750120240482,-332.6728553707415,94.57518994006011,100.32309163827655,-2.603562178230461,-2.3657749106112225,15.367701601302606,13.724999528997996,0.03285404166332666,0.299381812749499,-0.1,57.30304618054108,499.8198493182365,11.753426951583167,95463.8390345491,1.1342683813907817,-0.13376439427054107,-0.7328975849699398,-0.15236742386573146,-0.13634178996993987,0.025361428298597194,0.28582706353907816,0.23126506253507012,-0.19023418403206413,1.5801678287134269,0.6881394032865732,0.14784906198196393,0.015196980527054108,0.7101860693627254,0.0,398733425.2611222,327300049.21382767,500494.5175991984,13.63556046004008,4.2940364822084165,12.943720681222445,2.253601967210421,1.2499841271342684,0.0,0.0,0.0,39.8714138,32.7364372,214.88784378817635,-547.5801179773547,-100.15740668757515,3.976179403446894,13.160433134208416,2.4940043334909823,-3.121462610687375,1.4931857449078154,1.9883952188817635,1.3070721772444889,100.32688668757514,-0.08833743237675351,0.037741917993987975,0.1446220002204409,0.0,77281421.58116232,0.0,0.0,1.0,0.0,0.0
77316401.0,-0.03835442776352706,0.023276158410821653,-0.13383455549098197,0.0,0.0,1436.7895791583167,1500.0,1000.0,1519.2756531082164,1479.7243468917836,1507.5073618236472,13.590199506012025,13.9232539753507,13.52737949460922,13.71188463975952,14.047774241683367,14.768035424188378,15.129799332084168,112.16926981863728,112.16926981863728,11.753407650781563,-0.0014285725350701405,-0.005966586076152304,0.0001059237254509018,-0.22480457836472945,0.16510876279559117,-0.008633814621242485,2.0,2.118197186803607,3.118197186803607,11.0,0.0,0.0,1.0,0.0,0.0,0.0,0.0,0.0,0.0,0.0,0.23475589508016032,-0.20060452464128256,1.571924592026052,1.5622786447274548,-0.46193585690981964,250.55227493767535,40.0975971251503,-0.025353532633266535,0.024103729539078158,-0.17326478748296592,0.0,-0.8143703380581162,0.3998931425390782,-8.491726645022045,-340.26352,954.649875604008,11.754526104769539,-0.13223990668937877,-0.036184015555110215,0.2328935057054108,-0.7627298877394789,0.38320153273947893,-8.509046653831662,2294028.0,-0.1377619112284569,-0.04179263316833667,0.23220674248897796,-340.26352,94.48247709292585,100.24459762945891,-2.5794429301543085,-2.4278045234128256,15.36765946006012,13.765382274569138,0.03204554161523046,0.338398869747495,-0.1,57.036510750280556,499.78038213066134,11.753982277234469,95464.27149350701,1.1342735294348698,0.059197975525050184,-0.45968419862925824,-0.47003725394990004,-0.1363127687274549,0.005483154158316624,0.2791449075711423,0.2261163215250501,-0.18897441590380762,1.5823236701402807,0.6878439959799599,0.1456267892204409,0.013970427264529055,0.7109558164128257,0.0,398733438.14128256,327300101.91242486,500413.7857671343,13.651019742565131,4.175515303414829,13.000404722825651,2.322309914240481,1.259577557262525,0.0,0.0,0.0,39.8714138,32.7364372,215.020304148497,-547.13510739499,-100.07217923226453,3.8720721961963926,13.20903079757515,2.5618857578076155,-3.0749609419218435,1.4417387213767534,1.999302010713427,1.3141671968436874,100.24165923226452,-0.08218806953907816,0.032708353012024044,0.14445676351903808,0.0,77316401.34468938,0.0,0.0,1.0,0.0,0.0
77349658.0,-0.037295600466933865,0.030751031951903807,-0.1374021351943888,0.0,0.0,1435.569138276553,1500.0,1000.0,1519.0656186172343,1479.9343813827657,1508.430861723447,13.64524424234469,13.979614649158316,13.56371577268537,13.748803600420842,14.085524166893789,14.802693206653307,15.16522754234469,112.78718399038077,112.78718399038077,11.754066974629259,-0.0014284354769539078,-0.005966629835671342,0.00010527806613226453,-0.22478280059118236,0.16508518302004008,-0.00861543687975952,2.0,2.120344309529058,3.120344309529058,11.0,0.0,0.0,1.0,0.0,0.0,0.0,0.0,0.0,0.0,0.0,0.22991911750701405,-0.20115228209819638,1.574173558016032,1.5626556091482966,-0.5545675268256514,250.07112334428857,40.19049380519038,-0.025327697663326654,0.02409504672945892,-0.17343078449498997,0.0,-0.816411050993988,0.3735808776613227,-8.48409312518036,-340.26352,954.6574302911823,11.75509095729459,-0.1293326742725451,-0.026160485314629243,0.22979915745691382,-0.8065387289118237,0.3554218849398797,-8.538213441146294,2294028.0,-0.13624720948496993,-0.03395522262525049,0.22856855508817636,-340.26352,94.38976424579158,100.16610362064128,-2.555323681867735,-2.489834135783567,15.367617318817635,13.80576502014028,0.031237041567134267,0.3774159265350702,-0.1,56.769975322124246,499.7138793779559,11.75456273264529,95465.02495817635,1.134282443751503,0.21684923832665343,-0.7336497078697404,-0.5367951602464928,-0.1345415263727455,-0.015169444741482987,0.2718353416633267,0.21857828588577152,-0.18989305708416834,1.5821490034609218,0.6883847064789579,0.14335421001603207,0.010955270484969937,0.710946778242485,0.0,398733451.0214429,327300154.63206416,500333.0539561122,13.66647902719439,4.056994124410822,13.057088764428856,2.391017861701403,1.2691709876012023,0.0,0.0,0.0,39.8714138,32.7364372,215.15138108797595,-546.6829183997995,-99.9837855785571,3.768301822222445,13.25840576735471,2.6302715633667333,-3.0316097748997994,1.404663504799599,1.9897852605210422,1.3213297434468938,100.15326557855711,-0.07942948150100201,0.04864169814028059,0.1358898206052104,0.0,77349657.87174349,0.0,0.0,1.0,0.0,0.0
77381336.0,-0.034647506775551104,0.03024417243286573,-0.137560495002004,0.0,0.0,1434.743486973948,1500.0,1000.0,1518.1311358436874,1480.8688641563126,1509.0,13.654617782064129,13.989138279378757,13.600052050761523,13.785722557134267,14.123274092104209,14.837350987735471,15.200655752605211,113.40509814829659,113.40509814829659,11.754726298476953,-0.0014282984188376754,-0.005966673851703407,0.00010463240681362726,-0.22476102295591183,0.16506160324448899,-0.008597059276553106,2.0,2.122491432254509,3.122491432254509,11.0,0.0,0.0,1.0,0.0,0.0,0.0,0.0,0.0,0.0,0.0,0.2250337527855712,-0.20236704825450902,1.5761622877955912,1.5630041118657316,-0.638522094729459,249.57607493466935,40.296623271322645,-0.025298856877755512,0.024096288613226453,-0.17359496116032064,0.0,-0.8133062657034068,0.35648175023847695,-8.518003921196392,-340.26352,954.6665797741483,11.75567202038076,-0.1304119515470942,-0.012620259831663323,0.2250040861783567,-0.8530068973687375,0.3337721715450902,-8.61394514220441,2294028.0,-0.13548599518436874,-0.02524904985571142,0.22520796861923847,-340.26352,94.29718879472946,100.08520210881763,-2.5302181139238473,-2.552021433755511,15.367573130601203,13.846880328436875,0.030413849991983967,0.41630116601402806,-0.1,56.505270008056115,499.6012270332665,11.75516917216433,95466.3254203006,1.1342978794388776,0.19196264106012015,-1.2107481731843686,-0.2917373064749499,-0.13463051382765528,-0.037212349190380765,0.26230257515430866,0.21394754853907816,-0.1913702309759519,1.5846384574008014,0.6877235418617235,0.14226327896192384,0.008968170348697395,0.7118343297935872,0.0,398733463.90160316,327300207.39118236,500252.32215891784,13.681938313206413,3.938472945012024,13.113772806032063,2.4597258093006014,1.2787644183346694,0.0,0.0,0.0,39.8714138,32.7364372,215.2824513725451,-546.2146746346693,-99.88983918288577,3.6632693164188375,13.309951848236473,2.699507340593186,-2.984806531420842,1.3979172606072143,1.9570627158637275,1.3287071281923848,100.05931918288577,-0.08231340914028056,0.07800800485771543,0.12104541214028056,0.016162371462925866,77381335.63527054,0.0,0.0,1.0,0.0,0.0
77413342.0,-0.034702150186372745,0.02692501550300602,-0.13746825880561123,0.0,0.0,1433.8356713426854,1500.0,1000.0,1518.8147481142285,1480.1852518857715,1509.3286573146293,13.680453573406814,14.015551998937875,13.636388329659319,13.822641513847694,14.16102401731463,14.872008774509018,15.236083962865733,114.02301235490981,114.02301235490981,11.75538562232465,-0.001428161360721443,-0.005966718354709419,0.00010398666533066132,-0.22473924483366733,0.1650380235511022,-0.008578681104208416,2.0,2.12463855497996,3.12463855497996,11.0,0.0,0.0,1.0,0.0,0.0,0.0,0.0,0.0,0.0,0.0,0.22014838806412826,-0.20358181497995995,1.5781510175751503,1.5633526150701405,-0.7224766631202405,249.0810264681363,40.40275273745491,-0.02526460263527054,0.02413281221242485,-0.17375604875350698,0.0,-0.8050018201983967,0.3491550683366733,-8.596540660108216,-340.26352,954.6774277823647,11.756271496593186,-0.13824534647695388,0.0025098203647294635,0.2238754423807615,-0.797849085721443,0.3676587418036072,-8.754086389478958,2294028.0,-0.1355137380541082,-0.015611040593186366,0.2221243045991984,-340.26352,94.20494718288577,99.99845093997996,-2.502716025324649,-2.614591870961924,15.367523969298597,13.889775589318639,0.029554961448897795,0.45486612170741486,-0.1,56.24501142649299,499.42363600681364,11.755781197735471,95468.35732048097,1.1343220713206412,-0.136138530511022,-0.5336880880240477,-0.16807668661523067,-0.1345991291462926,-0.054240980649298595,0.25273236460921844,0.21479198936673347,-0.19105332959719437,1.5921892879398798,0.6849902090260522,0.14240617221242485,0.009916544775551104,0.7144238118316634,0.0,398733476.6420842,327300260.3064128,500170.23235851707,13.698063258517035,3.821149958569138,13.17005746244489,2.528300619470942,1.2882463156753508,0.0,0.0,0.0,39.8714138,32.7364372,215.41340832845694,-545.7294405567135,-99.78996792773547,3.5569380231322647,13.363801737074148,2.7695689996192385,-2.9344064086673347,1.4237138986853706,1.899218497739479,1.336312036997996,99.95944792773547,-0.08193317680160321,0.0978558003687375,0.1124773120781563,0.05783098539078152,77413342.05611223,0.0,0.0,1.0,0.0,0.0
77448322.0,-0.03809719283967936,0.039220447094188385,-0.14439076124248498,0.0,0.0,1432.1843687374749,1500.0,1000.0,1516.9531925791584,1482.0468074208416,1512.63126252505,13.793127870080161,14.130910983386773,13.672724615991983,13.859560470561123,14.198773942525051,14.906666561282565,15.271512173126252,114.64092648717434,114.64092648717434,11.756044946172345,-0.0014280243026052104,-0.005966762114228457,0.00010334018036072144,-0.22471746745490984,0.16501444460120238,-0.008560302931863727,2.0,2.126785677705411,3.126785677705411,11.0,0.0,0.0,1.0,0.0,0.0,0.0,0.0,0.0,0.0,0.0,0.21526302334268535,-0.20479658170541082,1.5801397473547094,1.5637011175310624,-0.8064312307675352,248.58597800160322,40.50888220358717,-0.02523684423847695,0.02421665132264529,-0.17393526627655312,0.0,-0.7994239652164329,0.3411298945490982,-8.676991117390783,-340.26352,954.6882169807615,11.75688071991984,-0.12771758561122243,0.008312994761523054,0.2172649865971944,-0.7591904396052104,0.35595190051302605,-8.85435814034068,2294028.0,-0.13539139469539077,-0.005945395919839667,0.21886095910821643,-340.26352,94.11296791042085,99.90710290270542,-2.4733306611723442,-2.677463392140281,15.367470904689378,13.934069601983968,0.028668020398797595,0.49317938549899804,-0.1,55.988247263446894,499.2844634801603,11.756405505711422,95469.98261507014,1.1343412677134268,-0.110958613012024,0.18060568724649384,-0.44399394694388816,-0.137077441250501,-0.05401380434468938,0.254837901755511,0.20762699149098196,-0.17514288037875753,1.5920320641162324,0.686640721482966,0.13437361132264528,0.012911943300601207,0.7143427667254509,0.0,398733488.11863726,327300314.6342685,500075.8548002004,13.7202116602004,3.7146691571663326,13.222728169939879,2.595670703422846,1.2967189718276553,0.0,0.0,0.0,39.8714138,32.7364372,215.54340365831663,-545.2457772436874,-99.69020019571143,3.451064053144288,13.41749505498998,2.8388813234028056,-2.8848540499098196,1.4505837014749499,1.8385449131703406,1.343897429270541,99.85968019571142,-0.08575961978356714,0.13245394622044093,0.09760464544889777,0.005808352244488911,77448322.4248497,0.0,0.0,1.0,0.0,0.0
77483303.0,-0.033660583629258514,0.04097989389579158,-0.1445910003567134,0.0,0.0,1430.5330661322646,1500.0,1000.0,1516.7138033206413,1482.2861966793587,1515.200400801603,13.853392294328657,14.192587632965932,13.70906089498998,13.89647942727455,14.236523867735471,14.941324340721444,15.306940383386774,115.25884069278557,115.25884069278557,11.75670427735471,-0.0014278879779559119,-0.005966805873747496,0.00010269442885771543,-0.2246956900761523,0.16499086491783566,-0.008541924759519037,2.0,2.128932800430862,3.128932800430862,11.0,0.0,0.0,1.0,0.0,0.0,0.0,0.0,0.0,0.0,0.0,0.21037765862124247,-0.20601134843086172,1.5821284771342685,1.564049620725451,-0.8903857991482967,248.09092960841687,40.61501166971944,-0.02520702113226453,0.024341793422845693,-0.1741558865410822,0.0,-0.841620589725451,0.3208659448096192,-8.790973160496993,-340.26352,954.6979755847696,11.757660738356712,-0.13627844252505011,0.014686899583166345,0.21498200919438876,-0.7610876241743487,0.3383252718036072,-8.891875400645292,2294028.0,-0.13263929952905812,0.0042044660200400985,0.2124492933527054,-340.26352,94.02098863795591,99.8157548801002,-2.44394529702004,-2.7403349140521045,15.36741784008016,13.97836360731463,0.027781079348697394,0.5314926492905813,-0.1,55.73148309306613,499.2752665751503,11.757046925470942,95470.06347034068,1.1343422623907815,-0.1438522587755512,0.24564041139478954,-0.524966411468938,-0.13287210926653303,-0.04977918181963927,0.24467565579959916,0.20060199338276552,-0.158561593501002,1.5918356738917836,0.6882408917034069,0.1261353408296593,0.01619046739679359,0.7142266949058117,0.029263600412825705,398733499.1551102,327300369.4022044,499978.0350815631,13.744047365891785,3.611225508845691,13.274386524368737,2.6627033155711426,1.3049089160841685,0.0,0.0,0.0,39.8714138,32.7364372,215.656549198998,-544.7896352969941,-99.59224641543085,3.353203150731463,13.468445067214429,2.895064030168337,-2.8501559456452905,1.4962571642725453,1.7282960249579156,1.3511408499198396,99.76172641543086,-0.08955155241282566,0.10804350002805606,0.09866768556513027,0.0,77483302.79358718,0.0,0.0,1.0,0.0,0.0
77516047.0,-0.03286206105210421,0.0365181172004008,-0.14389207334669338,0.0,0.0,1429.4408817635272,1500.0,1000.0,1517.4278853707415,1481.5721146292585,1515.4408817635272,13.82994776739479,14.168507211783567,13.745397173066133,13.933398383987976,14.274273792945891,14.97598212482966,15.342368593647295,115.87675485170341,115.87675485170341,11.757363603867736,-0.0014277511863727455,-0.00596685019238477,0.00010204876953907815,-0.22467391213827656,0.16496728514228456,-0.008523547146292585,2.0,2.131079923156313,3.131079923156313,11.0,0.0,0.0,1.0,0.0,0.0,0.0,0.0,0.0,0.0,0.0,0.2054922938997996,-0.2072261145971944,1.5841172069138276,1.5643981240120242,-0.9743403670621242,247.5958811685371,40.7211411358517,-0.02517776266733467,0.024460575785571145,-0.17440075623246495,0.0,-0.8898216570120241,0.29906378825651303,-8.90916955591984,-340.26352,954.7076046046093,11.75846222284569,-0.1340588349759519,0.023549602569138278,0.21409345821042083,-0.8101829129679359,0.3178806351462926,-9.03317500082966,2294028.0,-0.12955668966733466,0.014415186426853709,0.20564193651302606,-340.26352,93.92900936549098,99.72440685933867,-2.4145599328677356,-2.8032064360561124,15.36736476987976,14.022657611723448,0.02689413885771543,0.5698059130821643,-0.1,55.474718921763525,499.2261740442886,11.75770717997996,95470.62532865732,1.134348985498998,-0.09304605108216434,0.45136426377154304,0.2092071469659319,-0.13309413666132264,-0.044694273667334666,0.2399116101963928,0.1936069652785571,-0.14474846788777557,1.5916340893827656,0.6895946264629259,0.11886802833066132,0.0185120434248497,0.7141165851963929,0.017590142324649297,398733510.13627255,327300424.1695391,499879.78274168336,13.76809514270541,3.5081635797775554,13.325917648757514,2.729693512671343,1.3130633276853707,0.0,0.0,0.0,39.8714138,32.7364372,215.76757706252508,-544.336952263928,-99.49452061256513,3.2563493551723446,13.519050297975951,2.949596567048096,-2.817324768981964,1.5442939291603208,1.611816361436874,1.3583412910881763,99.66400061256513,-0.08363512511022045,0.07116288362925852,0.10763679696793588,0.0,77516046.68937875,0.0,0.0,1.0,0.0,0.0
77549264.0,-0.035009527096192386,0.03155822034268537,-0.14436903730661324,0.0,0.0,1428.6152304609218,1500.0,1000.0,1516.8456913827656,1482.1543086172344,1516.1543086172344,13.824871870961925,14.163237364168337,13.781733451142285,13.970317344549098,14.312023718156313,15.010639911603207,15.377796803907817,116.4946690224449,116.4946690224449,11.75802292771543,-0.001427614128256513,-0.005966894392785572,0.00010140311022044088,-0.22465213431863726,0.16494370575150302,-0.00850516941482966,2.0,2.1332270458817635,3.1332270458817635,11.0,0.0,0.0,1.0,0.0,0.0,0.0,0.0,0.0,0.0,0.0,0.20060692879358719,-0.20844088088176355,1.5861059366933867,1.5647466269138277,-1.0582949350941884,247.10083270200403,40.82727060198397,-0.025149891316633265,0.024520443521042084,-0.17462683586372746,0.0,-0.921202861725451,0.28253987792384766,-9.025836721747496,-340.26352,954.719599083968,11.759222071422844,-0.12751992772945892,0.027479063995991985,0.21255680031863727,-0.8293165156372746,0.32941216309819643,-9.216112653751503,2294028.0,-0.12768476358316633,0.023064411116232468,0.20138513741883768,-340.26352,93.83703009302606,99.63305884242484,-2.385174568715431,-2.866077957675351,15.367311700861723,14.06695161997996,0.026007198248496993,0.6081191768737475,-0.1,55.217954754308614,499.1388342991984,11.758375603306613,95471.63891318638,1.1343610462685372,-0.28503259337474973,0.28716601256512986,0.3288425708216428,-0.13298535812024048,-0.0367252300761523,0.23580600085771541,0.18665346728256516,-0.14437322863326654,1.5914335681242486,0.6901104211402806,0.11634102788176352,0.016148141172344685,0.7140931974368737,0.0,398733521.11743486,327300478.9486974,499781.5304018036,13.792142918336673,3.4051016505911824,13.377448771963927,2.7966837098897797,1.3212177394048097,0.0,0.0,0.0,39.8714138,32.7364372,215.8782316492986,-543.870210186974,-99.39249041328657,3.157715327533066,13.571205179178357,3.0006278156653305,-2.797825856196393,1.5632819342665332,1.4639369754729459,1.3657202386553104,99.56197041328657,-0.07941000377154309,0.03300760979358716,0.11573240483166333,0.0,77549263.53106213,0.0,0.0,1.0,0.0,0.0
77584244.0,-0.035882109472945886,0.032573323464929874,-0.1465071659458918,0.0,0.0,1428.0,1500.0,1000.0,1515.300204258517,1483.699795741483,1517.5791583166333,13.887107685350701,14.226942613346694,13.818069729218436,14.007236307414829,14.349773643366733,15.045297696272545,15.413225016272547,117.11258321623247,117.11258321623247,11.758682251563126,-0.0014274770701402804,-0.00596693815230461,0.0001007574509018036,-0.22463035693987976,0.16492012659118235,-0.00848679124248497,2.0,2.135374168607214,3.135374168607214,11.0,0.0,0.0,1.0,0.0,0.0,0.0,0.0,0.0,0.0,0.0,0.19572156345691383,-0.20965564760721442,1.5880946664729458,1.5650951295851703,-1.1422495033567135,246.60578425651303,40.93340006601202,-0.02512098071743487,0.02449981926252505,-0.1748083013967936,0.0,-0.9292800031022045,0.2733290226713427,-9.140385126943888,-340.26352,954.7348709741483,11.759924231923847,-0.12567856944088177,0.024178373989979955,0.20940317928056112,-0.7903948014729458,0.3445032165711422,-9.364059261663327,2294028.0,-0.12749024999398798,0.029550170094188383,0.2006621578737475,-340.26352,93.74284516825652,99.53680433773546,-2.3646628858657315,-2.9250504080120243,15.367245426032065,14.113345346472945,0.02507799838076152,0.645456172759519,-0.1,54.95797290519038,499.00622082264533,11.75905063244489,95473.16370302606,1.1343791569178356,-0.5158686086633261,-0.1471930747635267,-0.37677765378957895,-0.13060715928857716,-0.026235885753507007,0.23012639314228456,0.1816785805390782,-0.15859449253507016,1.5929908453927857,0.6889996863587174,0.11963043953707415,0.00949520951102204,0.7147410358496994,0.0,398733532.0985972,327300533.7509018,499683.2780619238,13.816190691663326,3.302039720963928,13.428979890761523,2.8636739075490985,1.3293721513547094,0.0,0.0,0.0,39.8714138,32.7364372,215.98836906372748,-543.3839892032064,-99.28449643855711,3.05661477292986,13.625507110180362,3.0468079993927857,-2.7967989088917835,1.5420226342024048,1.2725530059218435,1.3733465083166334,99.45397643855712,-0.08173075849498998,-0.0004029965370741708,0.11923121277555111,0.0,77584243.8997996,0.0,0.0,1.0,0.0,0.0
77619224.0,-0.03089095654308618,0.0443438413246493,-0.14945268204208417,0.0,0.0,1427.9278557114228,1500.0,1000.0,1516.411293557114,1482.588706442886,1516.0721442885772,13.955657139499,14.297175078837675,13.85440600765531,14.044155264128255,14.387523568577153,15.0799554751503,15.448653234428857,117.73049735210421,117.73049735210421,11.75934157541082,-0.0014273400480961922,-0.0059669819118236475,0.00010011330661322645,-0.2246085795250501,0.16489654681563126,-0.00846841307014028,2.0,2.1375212913687376,3.1375212913687376,11.0,0.0,0.0,1.0,0.0,0.0,0.0,0.0,0.0,0.0,0.0,0.19083619873547092,-0.21087041429659317,1.590083396252505,1.5654436328356713,-1.2262040710400803,246.1107358689379,41.0395295242485,-0.025085758316633268,0.024420876328657314,-0.17495085811022046,0.0,-0.9254263969018036,0.26780772271543085,-9.253261328222445,-338.4472920260521,954.7517432731463,11.760597532004008,-0.13059853049498998,0.020426237032064132,0.20504781831863728,-0.7553287321022046,0.2666584920541083,-9.447569228440882,2294028.0,-0.12810347436673347,0.0347658493486974,0.20172611665931864,-338.4472920260521,93.64214033366733,99.42604623789579,-2.3703818126272544,-2.972497201579158,15.367140101743486,14.165945828597193,0.02402388139078156,0.6799073198216434,-0.1,54.688479573366735,498.7817288687375,11.759744097655311,95475.7236350501,1.1344095826533067,0.058565181040079746,0.20458521889979958,-0.1939397553847699,-0.13090181729258515,-0.01726393302805609,0.22857308441282564,0.18211480329258517,-0.17502624615430865,1.599450729965932,0.6856549767354709,0.1255499778216433,0.004310110797595181,0.7169943467154308,0.0,398733543.0148297,327300588.5961924,499584.507758517,13.840603233386773,3.1989777942945894,13.4805839546493,2.9296427721142284,1.3375201968937878,0.0,0.0,0.0,39.8714138,32.7364372,216.09797748697395,-542.8883995855713,-99.173565598998,2.9543956147494987,13.680836889539078,3.090328856046092,-2.8043247896292582,1.501293671292585,1.0616075928517033,1.381084809322645,99.34304559899799,-0.08223096613426854,-0.022814389875751507,0.1213003450480962,0.0,77619224.23246492,0.0,0.0,1.0,0.0,0.0
77654204.0,-0.03358817275150301,0.04380495275551102,-0.15188671033867734,0.0,0.0,1426.2765531062125,1500.0,1000.0,1516.059000531062,1482.940999468938,1517.7234468937875,13.897535143587175,14.237371421122244,13.890742293987977,14.081074220841684,14.425273493787575,15.114613261923848,15.484081444689378,118.34841156693388,118.34841156693388,11.760000899258516,-0.0014272038156312626,-0.005967025671342685,9.950232464929863e-05,-0.2245868013206413,0.16487296704008017,-0.008450034897795592,2.0,2.1396684149198397,3.1396684149198397,11.0,0.0,0.0,1.0,0.0,0.0,0.0,0.0,0.0,0.0,0.0,0.18595083401402807,-0.2120851801963928,1.592072126032064,1.5657921352965931,-1.3101586395130262,245.6156874024048,41.14565899038076,-0.02505179845290581,0.024300259406813626,-0.17505328841082166,0.0,-0.9184211815430862,0.262083891757515,-9.352991632647294,-296.87585173346685,954.7673620362725,11.761277835651303,-0.1268612669358717,0.02325452621042085,0.2006118902785571,-0.8512358111082167,0.3441287072925853,-9.509730333643287,2294028.0,-0.12782655009418836,0.03613259866332666,0.20278128663927855,-296.87585173346685,93.53988133094188,99.31183086306613,-2.3823534254288576,-3.0171965826132263,15.367025468316632,14.220025832044088,0.022939987002004007,0.7136705555170342,-0.1,54.41671895709419,498.6045544198397,11.760434143987975,95477.75079064128,1.1344335851623246,-0.2398191344869745,0.1561465597174348,-0.4526853775250506,-0.12654913554509015,-0.0034197265591182115,0.22375100008416834,0.17697808554509017,-0.19139544457515034,1.6008134649639278,0.684452892014028,0.12956681351703406,-0.003151923390781578,0.7174290917575149,0.0,398733552.5098197,327300645.73126256,499474.399809018,13.873000015350701,3.0959159323707413,13.533784705511021,2.973255790062124,1.345528902240481,0.0,0.0,0.0,39.8714138,32.7364372,216.20173023326652,-542.4033928553107,-99.06437504717435,2.8549983887935872,13.7348951701002,3.12934610398998,-2.794559534254509,1.47997318154509,0.9041229699018033,1.3885372329298598,99.23385504717434,-0.08720873031863728,-0.024923872809619243,0.11584738881563125,0.0,77654203.7755511,0.0,0.0,1.0,0.0,0.0
77686435.0,-0.03510786308617234,0.03796391244689379,-0.15057305808416832,0.0,0.0,1425.312625250501,1500.0,1000.0,1517.374749498998,1481.625250501002,1516.625250501002,13.94671523991984,14.287690539178357,13.927078573446893,14.117993177555109,14.463023418997997,15.149271048697395,15.5195096549499,118.96632571302605,118.96632571302605,11.760660223106212,-0.0014270668957915831,-0.005967070118236472,9.885010020040081e-05,-0.22456502380360724,0.16484938726452905,-0.008431657412825653,2.0,2.1418155377835673,3.1418155377835673,11.0,0.0,0.0,1.0,0.0,0.0,0.0,0.0,0.0,0.0,0.0,0.18106546929258518,-0.21329994678356715,1.5940608558116234,1.5661406384448897,-1.3941132072985971,245.12063893587174,41.251788456513026,-0.025020251961923846,0.024186325142284568,-0.17512853510220444,0.0,-0.9060245794549099,0.25601359368136273,-9.430233545561121,-187.29605839599196,954.7808363963927,11.761970113366733,-0.12315877697795591,0.024772346426853706,0.19892662083767534,-0.8131603792745491,0.3087748079859719,-9.548531347547094,2294028.0,-0.12602686735470942,0.03091506773747495,0.2038214230460922,-187.29605839599196,93.43762232821643,99.19761548823647,-2.3943250382304613,-3.06189596295992,15.366910841763527,14.27410584236473,0.021856093300601204,0.7474337918997996,-0.1,54.14495834082164,498.62705126893786,11.761143450561123,95477.49614388777,1.1344305875911824,-0.20070389768336672,0.2667042177154309,-0.25526668617234466,-0.12595858571543084,0.009548932198396797,0.22121276304008017,0.17045131183767534,-0.20669272125450902,1.6008484510861722,0.6838685172985972,0.13272844916833668,-0.010819334843687377,0.717330096492986,0.0,398733562.0048096,327300702.93507016,499364.0087298597,13.905596170360722,2.9928540711342686,13.587025330981964,3.016310549046092,1.3535341274088175,0.0,0.0,0.0,39.8714138,32.7364372,216.29546614228457,-541.9364900637274,-98.95816157038077,2.760428579206413,13.786778315130261,3.160659129264529,-2.7552147163667335,1.4918543329358718,0.8380925235611222,1.3955006127735472,99.12764157038076,-0.0870314863266533,-0.009377178476953903,0.1084522050501002,0.0,77686434.50701402,0.0,0.0,1.0,0.0,0.0
77720573.0,-0.03589206245290581,0.033588375557114226,-0.15097616602004008,0.0,0.0,1425.0,1500.0,1000.0,1516.9739478957915,1482.0260521042085,1517.5390781563126,13.983363404088177,14.325187099739479,13.963414851523046,14.154912134268535,14.500773344208417,15.183928830340681,15.554937865210421,119.58423989659319,119.58423989659319,11.761319552084169,-0.0014269298376753507,-0.005967114190380761,9.818957915831663e-05,-0.22454324591182365,0.164825808002004,-0.008413279553106213,2.0,2.143962660509018,3.1439626605090183,11.0,0.0,0.0,1.0,0.0,0.0,0.0,0.0,0.0,0.0,0.0,0.1761801045711423,-0.21451471350901802,1.5960495855911823,1.5664891417314628,-1.4780677754589178,244.62559052064128,41.3579179226453,-0.024990235480961926,0.024124902368737475,-0.175212762749499,0.0,-0.8925434121763527,0.24987359813827656,-9.50295155413026,-64.03528440452097,954.7938793238477,11.76266480498998,-0.12346318225250502,0.024502963941883765,0.19308616855711422,-0.8044658111062124,0.31542322367334674,-9.587044920965932,2294028.0,-0.12392085711022044,0.02437300230260521,0.20485853520641284,-64.03528440452097,93.33536332549099,99.08340011853707,-2.4062966510320645,-3.106595343681363,15.366796211462926,14.328185848937876,0.0207721992244489,0.7811970284208417,-0.1,53.8731977245491,498.5413780056112,11.761856503386774,95478.47324024048,1.1344421993667335,0.32078796222044137,0.25375038560320634,-0.11098824828056109,-0.1262231843767535,0.019252276559118243,0.21882066510821643,0.16377031407414827,-0.2109751353787575,1.6005771941242484,0.6841239187895791,0.131951697,-0.014724532791583167,0.717173612765531,0.0,398733571.448497,327300760.15270543,499253.56074589177,13.93823243761523,2.889792210549098,13.640273977875752,3.0592530052064126,1.361538652482966,0.0,0.0,0.0,39.8714138,32.7364372,216.38718695110222,-541.4732291723448,-98.85254697527054,2.666829883046092,13.838223891322645,3.1904223249759522,-2.7099194913727453,1.5104145316693387,0.7904595646432865,1.4023656140641283,99.02202697527055,-0.08836540223847696,0.005432275022044096,0.1007053648977956,0.0,77720572.74348697,0.0,0.0,1.0,0.0,0.0
77755671.0,-0.034906836196392774,0.037131956364729504,-0.15309496448296595,0.0,0.0,1424.3226452905812,1500.0,1000.0,1516.2027729058116,1482.7972270941884,1519.0021678737476,14.02822834226453,14.371084768316633,13.999751129599199,14.191831094368737,14.538523269418837,15.21858661224449,15.590366075470943,120.20215407755511,120.20215407755511,11.761978880801603,-0.0014267927795591183,-0.0059671579498998,9.752905811623247e-05,-0.2245214680460922,0.16480222871342684,-0.008394901380761523,2.0,2.146109783234469,3.1461097832344693,11.0,0.0,0.0,1.0,0.0,0.0,0.0,0.0,0.0,0.0,0.0,0.1712947398496994,-0.21572947989579158,1.5980383153707414,1.5668376446793586,-1.5620223435931866,244.1305421028056,41.46404738877756,-0.024959712807615234,0.02412405982965932,-0.17531360911222443,0.0,-0.8778288622645289,0.25623643054308626,-9.548499100144287,-39.79746100537112,954.8075059304609,11.763363716272545,-0.1241443658757515,0.018335219503005967,0.18728166226653306,-0.8141668747795591,0.33163221370340673,-9.612650180961923,2294028.0,-0.12316132913426854,0.01936334724649298,0.20179473197595188,-39.79746100537112,93.23391233242485,98.9694031751503,-2.412039534807615,-3.1505827937575153,15.366683345931865,14.382153763727455,0.01969058244088176,0.8145817703066134,-0.10000224407615231,53.60301049150301,498.41846136533064,11.762579848356713,95479.87172468938,1.134458808014028,0.39002949318236174,0.19164131071743487,0.07362468897996112,-0.1260411318517034,0.028054283947895824,0.21460517646893787,0.15729061776753506,-0.20668147117835667,1.6003103627895792,0.6849163534849699,0.1282169785511022,-0.015569981571142285,0.717075777014028,0.0,398733580.8947896,327300817.37034065,499143.1127593186,13.970868704609218,2.7867303499378755,13.693522621382765,3.1021954613667337,1.3695431778957916,0.0,0.0,0.0,39.8714138,32.7364372,216.47794991523048,-540.9921764080161,-98.74217570100201,2.571314717376753,13.891504066072144,3.2182565333767537,-2.6655964745831664,1.5211305537454909,0.7440072034869738,1.4092741174188377,98.911655701002,-0.0910305881002004,0.013319094040080165,0.09396223919238475,0.0,77755671.15631263,0.0,0.0,1.0,0.0,0.0
77790782.0,-0.03287592894188377,0.05059886423246495,-0.15561798910821645,0.010354019218436953,0.0,1423.0,1500.0,1000.0,1516.6646618036073,1482.3353381963927,1519.0053491322647,14.115055948637275,14.459973062064128,14.036087409318638,14.22875005769539,14.576273194629259,15.253244399018037,15.625794285731462,120.82006820981962,120.82006820981962,11.762638204649297,-0.0014266557214428859,-0.0059672018737474955,9.686853707414829e-05,-0.22449969066733466,0.16477864893787575,-0.008376523372745491,2.0,2.14825690595992,3.1482569059599204,11.0,0.0,0.0,1.0,0.0,0.0,0.0,0.0,0.0,0.0,0.0,0.1664415884749499,-0.21655438723046092,1.5998518233106211,1.567159778963928,-1.639146841036072,243.63273076212425,41.570902186813626,-0.024927748058116234,0.024169747452905812,-0.17542682760521042,0.0,-0.8613281854268536,0.28070527794989986,-9.554699643683366,-158.96007955791603,954.8219778346694,11.764068734749499,-0.12329877216032065,0.010438031458917857,0.1841545546993988,-0.8075152698737476,0.2956288954468937,-9.617750120801603,2294028.0,-0.12435171436873747,0.01657285778356713,0.19279217328256512,-158.96007955791603,93.13807409891784,98.85692350372746,-2.374515191833667,-3.189624889697395,15.36658276216433,14.435343062765531,0.018624784749498996,0.845337338238477,-0.10002007580761522,53.34375260240481,498.3425028306613,11.76331775280561,95480.73545711424,1.1344690881102206,-0.3034605119919835,0.19143645142685367,0.23184872100801499,-0.12497456492585171,0.03700367256513026,0.2092256201242485,0.15105265891382766,-0.20043339771943888,1.6000854344609219,0.6857873881743487,0.12387247580961924,-0.01564454377955912,0.7170099889979961,0.0,398733590.3076152,327300874.5879759,499032.6138478958,14.003618049498998,2.684233891492986,13.746658182184369,3.1446855958316635,1.3775023101402806,0.0,0.0,0.0,39.8714138,32.7364372,216.56732582505012,-540.4853582993987,-98.62491602845692,2.473024208991984,13.947441025791584,3.2432972723226454,-2.6226813641022044,1.5204870031362725,0.6992645293186373,1.4162456180961924,98.79439602845692,-0.08936101352705408,0.01315264422044087,0.09085123813827657,0.0,77790782.4268537,0.0,0.0,1.0,0.0,0.0
77829065.0,-0.03511746489378757,0.0671054444248497,-0.15855186174949898,0.062376652364729446,0.0,1423.0,1500.0,1000.0,1516.9959791583167,1482.0040208416833,1519.0000641382765,14.202906601302605,14.549929001703408,14.072423695651302,14.265669014408816,14.61402311983968,15.287902185791584,15.661222495991984,121.43798234208417,121.43798234208417,11.763297528496993,-0.0014265186633266535,-0.005967246458917835,9.620801603206413e-05,-0.22447791328857716,0.16475506916232466,-0.008358146026052104,2.0,2.150404028685371,3.150404028685371,11.0,0.0,0.0,1.0,0.0,0.0,0.0,0.0,0.0,0.0,0.0,0.1617180761783567,-0.21581035155911824,1.6009601701883767,1.5673757974168336,-1.6887844705831663,243.12380053767535,41.68067600348697,-0.024896592106212426,0.02423256465531062,-0.17554462245090177,0.0,-0.8447764644008017,0.3056915653567134,-9.559775713214428,-282.22085361963934,954.8364738771544,11.764773931783568,-0.12823294525851703,0.024339632252505006,0.17499125114028058,-0.8272492904589177,0.22231934105811624,-9.630580106292584,2294028.0,-0.12559782529458918,0.013845788501002003,0.18361989406813628,-282.22085361963934,93.06014821250501,98.74928601026052,-2.198909491144289,-3.212884574274549,15.366521374989981,14.486047514709417,0.017609469783567134,0.867702262022044,-0.10008765288977955,53.11937419887776,498.14796914569143,11.764054242024049,95482.9706933467,1.1344956526152306,0.012030427462925819,0.1764902944008016,-0.46048526353707403,-0.12327968196793587,0.04086879813627254,0.20860781167535072,0.14506491677354708,-0.1978659127975952,1.5998654991182364,0.6863902003186373,0.12090955675551102,-0.016910226769539075,0.7169096971342684,0.0,398733599.38977957,327300931.8056112,498921.910190982,14.036822483567134,2.58401283396994,13.799338673647293,3.185355411278557,1.3852787606012025,0.0,0.0,0.0,39.8714138,32.7364372,216.6566621216433,-539.9778039402805,-98.50745949338678,2.374654385537074,14.003453911963929,3.2682581783827658,-2.5798064891523045,1.5195188138697393,0.6545707156513026,1.4232189195551102,98.67693949338678,-0.07152852568737475,0.005510849230460925,0.09668699273547093,0.0,77829065.4008016,0.0,0.0,1.0,0.0,0.0
77860823.0,-0.03288091034669338,0.07524312422845693,-0.16151284271142283,0.02687732527454901,0.0,1423.8156312625251,1500.0,1000.0,1514.8102445711427,1484.1897554288573,1518.1843687374749,14.241558245711422,14.58935527961924,14.108759973827656,14.302587971122245,14.651773045050101,15.322559964408818,15.696650706252505,122.05589655591183,122.05589655591183,11.76395685234469,-0.0014263824208416835,-0.005967290228456914,9.554749498997995e-05,-0.22445613509418838,0.16473149020240482,-0.008339767863727454,2.0,2.152551151410822,3.152551151410822,11.0,0.0,0.0,1.0,0.0,0.0,0.0,0.0,0.0,0.0,0.0,0.15711299843486973,-0.21363295976352706,1.601424297238477,1.5674948699378757,-1.7133106405711425,242.60471227835671,41.79311657551102,-0.024857982915831665,0.024286995537074148,-0.1756561401983968,0.0,-0.8494981064769539,0.31094190157515034,-9.599317500296593,-329.83806097314647,954.847897191984,11.765492227855711,-0.13498588879959922,0.03493131247895794,0.17049665029058114,-0.828851301995992,0.2720208321082166,-9.631544206613226,2294028.0,-0.1277019117955912,0.022268533971943907,0.177071567507014,-329.83806097314647,92.98222231793586,98.64164850863727,-2.0233037896392783,-3.2361442596673347,15.36645997965932,14.536751958496994,0.01659415563326653,0.8900671858056113,-0.10015522997194388,52.8949957953507,498.05549393246497,11.764786636773549,95484.01924318637,1.1345080496052105,-0.13307330332665368,-0.17541140731463012,-0.6399199654609222,-0.12375285212224449,0.04160474865931864,0.20440307226052104,0.14306082946092186,-0.1969917020300601,1.6028838776272545,0.6854751120801603,0.11993758545691383,-0.0171384675751503,0.7179360913807615,0.0,398733606.7591182,327300989.18637276,498809.93194709416,14.072859344008016,2.497953939304609,13.849186714268537,3.214695501659319,1.3919182006913826,0.0,0.0,0.0,39.8714138,32.7364372,216.73615905050102,-539.4910757466934,-98.39406204517033,2.2841919619899795,14.055507626112224,3.2911080145931866,-2.5353063245450898,1.507204023310621,0.6198210008517033,1.429609251016032,98.56354204517034,-0.07328898685370741,0.03395403474949907,0.0856612838056112,0.0,77860823.3246493,0.0,0.0,1.0,0.0,0.0
77896517.0,-0.033421388575150306,0.07795066533466934,-0.16318827998597193,0.006711673515030048,0.0,1422.7174348697395,1500.0,1000.0,1514.9289646432867,1484.0710353567133,1524.4128256513027,14.239749569478958,14.587445686593187,14.145096251903809,14.339506927835671,14.689522970260521,15.357217749338677,15.732078916513027,122.67381070661324,122.67381070661324,11.764616176192385,-0.0014262455470941886,-0.005967333987975953,9.495110220440881e-05,-0.22443435753106214,0.16470791061122245,-0.008321389691382765,2.0,2.1546982741362726,3.1546982741362726,11.0,0.0,0.0,1.0,0.0,0.0,0.0,0.0,0.0,0.0,0.0,0.15250937630260522,-0.2114379591703407,1.6018805100400801,1.567612751476954,-1.73752831596994,242.08549929158318,41.90558990865731,-0.0248161860501002,0.024352607400801602,-0.17576782836673346,0.0,-0.8646792451863727,0.3064886427935872,-9.655805081507014,-340.26352,954.8578096681363,11.766216975831663,-0.1330100865791583,0.05239378135270543,0.163903278498998,-0.9020275033026053,0.2826311240200401,-9.784384893987976,2294028.0,-0.13022784050100203,0.036173319583166344,0.17181336224849697,-340.26352,92.90429642967936,98.53401101332665,-1.8476980887655308,-3.259403944428858,15.366398590641284,14.587456402184369,0.015578841492985971,0.9124321095891784,-0.10022280705410821,52.67061738541082,497.94220385951905,11.765538854569138,95485.32213,1.134523558478958,0.2718667238396798,-0.17356039945090174,-0.1093332913126247,-0.12328975246693387,0.037523062999999995,0.1997288443486974,0.14282624893186371,-0.19446789059118236,1.607304931046092,0.6840512172184368,0.11899859562124247,-0.016085110164328655,0.7194747324308617,0.0,398733614.17154306,327301046.5691383,498697.9380448898,14.108931007254508,2.4120690269839677,13.898999964609217,3.243896406228457,1.398543671953908,0.0,0.0,0.0,39.8714138,32.7364372,216.8108182769539,-539.0145871462927,-98.28266033222444,2.1976173778617234,14.105614736252505,3.3129198992905815,-2.490007052232465,1.4893104379318636,0.589960511232465,1.4357129523066132,98.45214033222445,-0.07514234675751502,0.04429828181162325,0.07937300168937875,0.0,77896517.44088176,0.0,0.0,1.0,0.0,0.0
77931253.0,-0.034885125478957925,0.06721197272945885,-0.16252414624849698,0.0,0.0,1420.346349971944,1500.0,1013.2217288156313,1515.8649116793588,1483.1350883206412,1532.1341255370742,14.267170446012024,14.615434011903808,14.181432529979961,14.376425884549098,14.727272890801604,15.391875536112224,15.767507126773546,123.29172488557116,123.29172488557116,11.765275500040081,-0.001426108488977956,-0.005967378214428858,9.432645290581163e-05,-0.2244125801523046,0.16468433083567133,-0.008303011519038075,2.0,2.156845396861723,3.1568453968617236,11.0,0.0,0.0,1.0,0.0,0.0,0.0,0.0,0.0,0.0,0.0,0.1479057543547094,-0.2092429585771543,1.6023367223747496,1.567730633482966,-1.7617459913687374,241.56628627655311,42.01806324180361,-0.024775572238476953,0.024415202300601204,-0.1758980017054108,0.0,-0.8823211512705411,0.29512941170340673,-9.737620962192384,-340.26352,954.8688966186373,11.766970581943887,-0.13139496696392786,0.06986051050100206,0.1582062845551102,-0.8946960246653304,0.26894471473146286,-9.937071690985972,2294028.0,-0.1320367928997996,0.04941506244889783,0.1667456432084168,-340.26352,92.82637053859719,98.42637351985972,-1.6720923876092177,-3.282663629006012,15.366337198797595,14.638160845871743,0.01456352688577154,0.9347970333727456,-0.10029038413627255,52.44623897829659,497.84496828777554,11.766296673887775,95486.44925651302,1.1345369494388777,0.4611622507154306,-0.20025970676753552,-0.0982682437094207,-0.1198781198036072,0.03645995297795592,0.19588459326452906,0.13993479364729455,-0.19051254984368737,1.6092607737034068,0.6837495809699399,0.1166215295771543,-0.015639976190380763,0.7201625408977955,0.0,398733621.5557114,327301103.90521044,498585.94409599196,14.145002672344688,2.3261841146633264,13.948813212124248,3.273097310797595,1.4051691430320643,0.0,0.0,0.0,39.8714138,32.7364372,216.88366115931865,-538.534284993988,-98.17017157785571,2.1112816050400802,14.155731048156312,3.3325595016533067,-2.457464386184369,1.474461465264529,0.5319288876472943,1.441806017797595,98.3396515778557,-0.07638463227254509,0.04311186451703405,0.07604145557314627,0.0,77931252.91583167,0.0,0.0,1.0,0.0,0.0
77966197.0,-0.03406262506613226,0.04777654933466931,-0.15901334748697393,0.0,0.0,1418.0317588697394,1500.0,1020.0312028837675,1516.6756559599198,1482.3243440400802,1538.4139714729458,14.312430860681363,14.661708090741483,14.217768808056112,14.413344841262525,14.765022810681364,15.426533319959919,15.802935337034068,123.90963907114228,123.90963907114228,11.765934826813627,-0.0014259714308617235,-0.005967422507014027,9.366593186372746e-05,-0.2243908024809619,0.16466075106012024,-0.008284633639278557,2.0,2.158992519587174,3.1589925195871746,11.0,0.0,0.0,1.0,0.0,0.0,0.0,0.0,0.0,0.0,0.0,0.14330213211422846,-0.20704795798396794,1.6027929346432865,1.5678485155551103,-1.7859636667675352,241.0470732256513,42.1305365749499,-0.024738271825651303,0.024460097026052105,-0.1760395120220441,0.0,-0.8987745470501002,0.2732121073146292,-9.871340972693387,-340.26352,954.884014203006,11.767792414168337,-0.13255316268336673,0.07734164519438877,0.15435953128857716,-0.8430972887735471,0.25684537762124254,-10.106438560440882,2294028.0,-0.13173905852304607,0.05710838300601202,0.16124621883967935,-340.26352,92.74706222873748,98.31831773492986,-1.5483577050721444,-3.304109790236473,15.366270633386772,14.68889610755511,0.013547491867735469,0.9560784039659319,-0.10034263502204409,52.22433494707415,497.7479125791583,11.76705425496994,95487.56376248496,1.1345501772785571,0.4414805232765533,-0.18640951117635224,-0.4449631298857715,-0.1194297813987976,0.036040726633266525,0.19369685567735473,0.13466609634068136,-0.18712210514228458,1.6090214157715432,0.6843363549498999,0.1136125212004008,-0.016375464490981966,0.7200722925571141,0.0,398733628.9332665,327301161.2346693,498473.95014048094,14.18107433743487,2.2402992023426855,13.998626458977956,3.3022982153667333,1.4117946144028057,0.0,0.0,0.0,39.8714138,32.7364372,216.95534321142284,-538.0371240997995,-98.05352991448899,2.022799321480962,14.207246912805612,3.347453837172345,-2.4576626794829664,1.4712363517214428,0.3993843946773543,1.4480749149759518,98.22300991448898,-0.07635977127855711,0.03489011495791581,0.07461832447895791,0.0,77966197.00400801,0.0,0.0,1.0,0.0,0.0
