timestamp,control[0],control[1],control[2],control[3],control[4],output[2],output[3],output[4],output[5],output[6],output[7],indicated_airspeed_m_s,true_airspeed_m_s,indicated_airspeed_m_s.1,equivalent_airspeed_m_s,true_airspeed_m_s.1,equivalent_ground_minus_wind_m_s,true_ground_minus_wind_m_s,differential_pressure_raw_pa,differential_pressure_filtered_pa,temperature,gyro_bias[0],gyro_bias[1],gyro_bias[2],accel_bias[0],accel_bias[1],accel_bias[2],instance_count,seq_reached,seq_current,seq_total,item_changed_index,item_do_jump_remaining,valid,warning,finished,failure,stay_in_failsafe,flight_termination,item_do_jump_changed,execution_mode,nav_roll,nav_pitch,nav_bearing,target_bearing,xtrack_error,wp_dist,acceptance_radius,rollspeed_integ,pitchspeed_integ,yawspeed_integ,additional_integ1,x,y,z,temperature.1,pressure,temperature.2,gyro_rad[0],gyro_rad[1],gyro_rad[2],accelerometer_m_s2[0],accelerometer_m_s2[1],accelerometer_m_s2[2],device_id,x.1,y.1,z.1,temperature.3,altitude_sp,altitude_filtered,height_rate_setpoint,height_rate,airspeed_sp,airspeed_filtered,airspeed_derivative_sp,airspeed_derivative,throttle_integ,pitch_integ,baro_alt_meter,baro_temp_celcius,baro_pressure_pa,rho,xyz[0],xyz[1],xyz[2],xyz[0].1,xyz[1].1,xyz[2].1,roll_body,pitch_body,yaw_body,q_d[0],q_d[1],q_d[2],q_d[3],thrust_body[0],lat,lon,alt,vel_m_s,vel_n_m_s,vel_e_m_s,vel_d_m_s,cog_rad,ground_contact,maybe_landed,landed,ref_lat,ref_lon,x.2,y.2,z.2,vx,vy,vz,ax,ay,az,yaw,dist_bottom,roll,pitch,yaw.1,thrust_body[0].1,timestamp.1,isTakeoff,isClimbing,isDescending,isCruise,isLand
53001643.0,-0.000662159,0.014117257,-0.054974362,0.14610997,0.0,1472.0,1500.0,1144.567714,1500.0,1499.0,1501.567714,13.15802216,13.484048800000002,13.16034413,13.13485274,13.46021218,12.90509909,13.22476667,106.1652096,106.1652096,11.71732941,-0.001396555,-0.005788234000000001,0.0006235430000000001,-0.196443378,0.188040268,-0.01835959,2.0,0.634326865,1.634326865,11.0,0.0,0.0,1.0,0.0,0.0,0.0,0.0,0.0,0.0,0.0,0.021693109,-0.023349209,-1.597457124,-1.59344627,0.21364443,136.2636794,38.50652629,-0.026634943,0.001800889,-0.041048065,0.0,-0.913639409,0.196973653,-6.074633094,-340.26352,953.9895522,11.71702191,0.006564399,-0.260915471,-0.036244411,-0.931149702,0.150901545,-5.945093002,2294028.0,0.013276814,-0.239343359,-0.036802958,-340.26352,100.0160737,105.5675355,-0.274960177,-1.363837026,15.37161927,13.04518144,0.046528748,-0.973885993,-0.365565603,82.54890873,505.4853892,11.71704095,95399.00814,1.133497972,-0.031571212,0.104881899,0.09030185,0.00529556,-0.258601128,-0.037433522,0.026105673,-0.022459447,-1.5948500209999998,0.6985528879999999,0.001082566,-0.017182946,-0.7153512340000001,0.163680869,398713863.5,327313670.0,505933.154,13.49807762,-0.5598459689999999,-13.48061587,0.401688338,4.670688715,0.0,0.0,0.0,39.8714138,32.7364372,-3.0146634910000003,-433.13473560000006,-105.7717231,-0.507272032,-13.47001321,0.613804208,-0.198364828,0.638878435,3.788580872,-1.632520874,105.9412031,0.066107441,0.223372887,-0.010563314,0.16489449,53001643.0,0.0,0.0,0.0,1.0,0.0
53161620.0,0.0024166706593186354,0.05075348945691383,-0.05497877794388777,0.1522718429498998,0.0,1472.5871743486973,1500.0,1150.4343610501003,1500.1528132985973,1498.8471867014027,1519.7830584448898,13.143971601623248,13.469656509278558,13.164818049038077,13.140260455731463,13.465631024228456,12.9015188748497,13.22097805262525,106.1804446759519,106.1804446759519,11.718458673086172,-0.0013933850480961924,-0.005785541030060121,0.0006211752805611223,-0.19642275150501004,0.18804466969138275,-0.01792705169338677,2.0,0.6436553846372746,1.6436553846372746,11.0,0.0,0.0,1.0,0.0,0.0,0.0,0.0,0.0,0.0,0.0,0.027321321815631263,-0.019271671098196393,-1.595153948480962,-1.5928229286132263,0.12499823720440882,134.29277437955912,38.562378524288576,-0.026500038380761523,0.004563903132264529,-0.04086611014228457,0.0,-0.8776538313266533,0.06011876996793587,-6.383332832410822,-67.96258005819638,954.0157826597195,11.717913680501002,0.00732866492985972,-0.23171567588977957,-0.035413819102204404,-0.9174549659038077,0.13985405618837674,-6.245158338563126,2294028.0,0.005722465492985973,-0.21176785800601203,-0.0312573271503006,-67.96258005819638,100.0164038755511,105.31805308717435,-0.26371674366533066,-1.8294666525931864,15.37152784224449,13.131596703206412,0.04479861440280561,-0.6295568787154309,-0.36615268584168337,81.20967009206413,505.24732403226443,11.718018879539079,95401.72875298598,1.1335303716913827,-0.23656637439278572,-0.1377278882404811,0.4002644330360721,0.008445814302605211,-0.229697947242485,-0.03434331911222445,0.02809545791583166,-0.015982745406813628,-1.595958785757515,0.6981438453567134,0.004086102657314629,-0.015635420885771543,-0.7157749577835671,0.16899464072144288,398713856.0669339,327313430.4226453,505823.5289503006,13.425529359498997,-0.5896972302264529,-13.415377972144288,0.9696257837895791,4.668255777901804,0.0,0.0,0.0,39.8714138,32.7364372,-3.100799382380762,-435.1613432921844,-105.65042067074148,-0.5451316429218437,-13.40189149745491,1.1581698621062124,-0.2897274336973948,0.22394965,3.456535626513026,-1.636628333957916,105.81990067074148,0.06361623652905811,0.2657187144288577,-0.007799071014028057,0.1701172577955912,53161619.81563126,0.0,0.0,0.0,1.0,0.0
53309001.0,0.0031198660440881773,0.08283604416032064,-0.056882973248497,0.15698049948496995,0.0,1471.0,1500.0,1155.1743486973949,1497.8916530821643,1501.1083469178357,1536.4146991743487,13.247549483266534,13.575600096472947,13.265317836332665,13.241600821462926,13.569255718456914,12.993361289699399,13.314874555250501,107.83275575190382,107.83275575190382,11.720510706172345,-0.0013902369218436873,-0.005782455885771543,0.0006186365611222445,-0.19638703201002003,0.18804710220841683,-0.017543239386773546,2.0,0.6529839032745491,1.652983903274549,11.0,0.0,0.0,1.0,0.0,0.0,0.0,0.0,0.0,0.0,0.0,0.03279799066332666,-0.011629735835671343,-1.5929765666212425,-1.5921747028296593,0.03991073366332666,132.20988084328656,38.88419269885772,-0.026362355486973948,0.007473108907815631,-0.040679151893787575,0.0,-0.7707760098316633,0.07764628114629261,-6.798993865208417,-340.26352,954.0456372258517,11.719272935611222,0.015558785883767535,-0.2013150654028056,-0.02657783854108216,-0.8274948300541083,0.11012251470340684,-6.667076327955912,2294028.0,0.015123905585170338,-0.1826356455230461,-0.025187714066132263,-340.26352,100.01658786693386,105.01414860641283,-0.24925712143486978,-2.230795123218437,15.371306895871744,13.265024484308617,0.0421256470240481,-0.3048725939759519,-0.36670579496192385,79.93533651887775,505.0149691661323,11.719480233206413,95404.37779541082,1.1335618140440882,-0.19675205105811633,0.07163902907214413,-0.2987394735090178,0.011478961146292583,-0.19449173844288575,-0.03186096994188377,0.0402537562765531,-0.008389350813627256,-1.587744418230461,0.7009979383066132,0.011121634468937875,-0.017287799661322645,-0.7128609933006012,0.17391826440881764,398713848.1641283,327313193.353507,505643.6572388777,13.389999,-0.6219356062264529,-13.387612118096193,1.4684530410721444,4.665744811767535,0.0,0.0,0.0,39.8714138,32.7364372,-3.194659258240481,-437.20978971563125,-105.44657464529058,-0.5852712121763527,-13.375309010921843,1.6481500708817636,-0.2766953886513026,0.08521891018637276,3.0305375271102206,-1.6403253272765532,105.61605464529059,0.07837327345691382,0.2996882185971944,-0.005531632977955912,0.17477139889779558,53309000.83567134,0.0,0.0,0.0,1.0,0.0
53458528.0,0.0003017794509018036,0.11306213884969939,-0.057436589344689384,0.16187657258517033,0.0,1471.0,1500.0,1159.5230460921844,1499.0,1500.0,1551.0771684168337,13.165233776472945,13.491107513446895,13.365817627114229,13.342941177194389,13.672880415070141,13.085203704549098,13.408771060260522,109.4850668278557,109.4850668278557,11.722562739258517,-0.001387088382765531,-0.005779370090180361,0.0006160976032064128,-0.196351312753507,0.18804953431262525,-0.01715942708016032,2.0,0.6623124226733467,1.6623124226733466,11.0,0.0,0.0,1.0,0.0,0.0,0.0,0.0,0.0,0.0,0.0,0.038267604494989976,-0.0038218337535070174,-1.5908050419318638,-1.5915253184829656,-0.045011070505009985,130.12177284108216,39.21839061328657,-0.02621560329258517,0.010339645208416832,-0.040502168791583165,0.0,-0.8486651030240481,0.10643475558717434,-7.293697958152305,-340.26352,954.0767958859719,11.721347549178356,0.022660931979959918,-0.16731555512224452,-0.028142281060120237,-0.8274184414889779,0.05829118734869738,-7.074751749791583,2294028.0,0.02284682843687375,-0.14993532894388778,-0.0289499417254509,-340.26352,100.01666974048096,104.67812351022044,-0.23281896548096193,-2.5337317694128254,15.37095393775551,13.425658190721443,0.03890592555911824,-0.02945000588176363,-0.36718679692785566,78.82643502649297,504.7292295947896,11.721396938877755,95407.6494009018,1.1336007304028055,0.48615612539879755,0.03832924308016067,-0.026432776284569526,0.025296421741482958,-0.16537027034669338,-0.028428666651302607,0.04383955554509018,-0.00019384628256513352,-1.5873168761082164,0.7010747300380761,0.015300769607214425,-0.01569385610220441,-0.7127506512865731,0.17869809605811623,398713839.1961924,327312953.6779559,505398.3832448898,13.391843804809618,-0.6589861220821642,-13.381994801262525,1.898660996064128,4.662893388841684,0.0,0.0,0.0,39.8714138,32.7364372,-3.295107939228457,-439.2714028879759,-105.1688497767535,-0.628304621012024,-13.389868780360722,2.0704676270460918,-0.3279723356152305,-0.20180832119238465,2.5250280813967936,-1.6436153224168337,105.3383297767535,0.0739751025250501,0.3270921454208417,-0.003076744106212426,0.17962687086172344,53458528.35470942,0.0,0.0,0.0,1.0,0.0
53608342.0,-0.00018204051302605183,0.1367566973727455,-0.05475390113226453,0.16718625941883766,0.0,1472.0,1500.0,1164.3486973947895,1499.459310721443,1499.540689278557,1563.7716125891784,13.343369884849698,13.673440356352705,13.466317412665331,13.444281542925852,13.776505113426854,13.177046119398797,13.502667567014027,111.1373779038076,111.1373779038076,11.724614778857715,-0.0013839408436873747,-0.005776285120240481,0.0006135584709418838,-0.1963155936713427,0.1880519674168337,-0.016775614773547096,2.0,0.6716409415490981,1.671640941549098,11.0,0.0,0.0,1.0,0.0,0.0,0.0,0.0,0.0,0.0,0.0,0.043737217326653303,0.0039860673286573126,-1.588633517242485,-1.5908759346593186,-0.12993287432464928,128.03366488657312,39.5525885312024,-0.02607401648496994,0.013200936364729458,-0.04034781772745491,0.0,-0.7903177625370742,0.10572207674549097,-7.821443423196393,-340.26352,954.1063035250502,11.723525057635271,0.022357199575150304,-0.13452996735671344,-0.023726840386773546,-0.7671367187234469,0.09918500182965934,-7.553735345012024,2294028.0,0.020671677905811623,-0.10392492456312627,-0.02432996070541082,-340.26352,100.01670936132265,104.2977566511022,-0.21399783860721444,-2.759065014338677,15.370746818276553,13.6322531498998,0.03476987359118237,0.21233908340280555,-0.3676358905531062,77.81942979486973,504.37938503667334,11.723662258597194,95411.6516951503,1.1336482888577153,-0.03576710106613193,0.15896145555711455,-0.5854712825350703,0.02649379206012024,-0.1297620978977956,-0.023172727398797596,0.045178652442885776,0.00811161036072144,-1.5886332877575151,0.7005223274468938,0.018721128703406812,-0.013271956767535072,-0.7132611549438878,0.18377310929859722,398713829.458517,327312709.88857716,505063.5384591182,13.441189002004007,-0.6892510046492986,-13.42387651523046,2.2610120771062125,4.660396651935872,0.0,0.0,0.0,39.8714138,32.7364372,-3.400130801266533,-441.3122604795591,-104.83334868216433,-0.6693821863066132,-13.441263217114228,2.4136369011703405,-0.25438659665531066,-0.5036268120821643,2.0205948292785574,-1.6466603568897795,105.00282595450902,0.06954228041683368,0.3451453161723447,-0.0012441011543086176,0.1843471086012024,53608341.841683365,0.0,0.0,0.0,1.0,0.0
53757786.0,-0.0016457999519038078,0.1553522357995992,-0.05225614560320641,0.17221767813627256,0.0,1473.0,1500.0,1169.935871743487,1501.2558163446893,1497.7441836553107,1573.8717434869739,13.46108611533066,13.793765973907817,13.566817195831662,13.545621908657315,13.880129811142284,13.268888534248497,13.596564073126252,112.78968897975952,112.78968897975952,11.72666681543086,-0.0013807923046092185,-0.0057731991503006015,0.0006110194028056112,-0.1962798745250501,0.18805439952104208,-0.016391802466933867,2.0,0.6809694601863727,1.6809694601863727,11.0,0.0,0.0,1.0,0.0,0.0,0.0,0.0,0.0,0.0,0.0,0.04814382252104209,0.011943662318637275,-1.586622051749499,-1.5901807757675352,-0.2132424309218437,125.88723184609219,40.00517560488978,-0.02594841524048096,0.015964213286573145,-0.040213616699398796,0.0,-0.7944614589358717,0.0338053508256513,-8.335847720182365,-68.86497714807615,954.1632448511023,11.725959703807614,0.020067763841683368,-0.09414500396793588,-0.01940959664328657,-0.7241767940420841,0.16501870709018035,-8.108534104529058,2294028.0,0.023062893885771544,-0.07223058413827656,-0.013199712260521041,-68.86497714807615,100.01672,103.85237124028056,-0.1917823483727455,-2.9267236525410825,15.370309952645291,13.876832942725452,0.0298695348496994,0.43318403368737474,-0.36809774961322644,76.8434972957515,504.0118864737475,11.726216330981964,95415.85351903808,1.1336982068216432,0.3887081208777556,0.4886421909278557,0.40105272211623244,0.024946392138276555,-0.09020759818436874,-0.020635666318637273,0.04626715618036072,0.016295506661322644,-1.5897521806112225,0.7000280027394791,0.02201422373547094,-0.010805327811623248,-0.713694090258517,0.18928284086773547,398713819.28597194,327312470.14529055,504690.76026492985,13.522082385010021,-0.7429800963907816,-13.506857961302606,2.547593702645291,4.656754816132264,0.0,0.0,0.0,39.8714138,32.7364372,-3.5097582440200403,-443.3438244042084,-104.4555007773547,-0.7108059868296593,-13.524284764789579,2.68161226629459,-0.20050398666533067,-0.6227237646032064,1.5353701911763526,-1.6493236246352707,104.6249807260521,0.06524241493386775,0.35601504347695395,0.00024688226252505006,0.19013565749498998,53757785.65531062,0.0,0.0,0.0,1.0,0.0
53909507.0,0.002578534372745497,0.17032874816232466,-0.050172951701402804,0.1768554282765531,0.0,1474.0,1500.0,1175.0460921843687,1497.0,1502.0,1582.3148871402805,13.627168065130261,13.963748612404808,13.667316988997996,13.646962274388777,13.983754505370742,13.360730943867734,13.690460575751503,114.44200010801603,114.44200010801603,11.728718848517035,-0.0013776442885771545,-0.005770114180360722,0.0006084806833667334,-0.19624415503006012,0.1880568321482966,-0.016007990160320642,2.0,0.6902979798236473,1.6902979798236475,11.0,0.0,0.0,1.0,0.0,0.0,0.0,0.0,0.0,0.0,0.0,0.0522381976252505,0.019945226182364724,-1.584657599222445,-1.589472171521042,-0.29607843110621235,123.72366725531062,40.49253640386773,-0.025822794224448897,0.01862885854308617,-0.04010332271142285,0.0,-0.7175406358817635,0.03289080496192401,-8.855096567837675,-340.26352,954.1869954168336,11.728579164088178,0.021308402753507018,-0.05691553723246496,-0.01447611534468937,-0.735927170172345,0.07741457712224448,-8.56101512288978,2294028.0,0.029375381490981956,-0.03826795257915835,-0.01644651246693387,-340.26352,100.01672,103.39601243727455,-0.16896447007815632,-3.034727106386774,15.369895374308618,14.12354906230461,0.02492691978156313,0.6142542850901803,-0.3685314110981964,75.97897312617233,503.6818007883768,11.728982571743487,95419.63793875751,1.133743130985972,0.33868012187975627,0.15491850772946003,0.12976863832665464,0.02220272517234468,-0.05596679107615233,-0.0195207551743487,0.05860522465931864,0.024267877685370736,-1.5804303309038075,0.7030858461122245,0.029232904156312623,-0.012280491282565132,-0.7103974285330662,0.1949529947234469,398713808.6785571,327312229.4529058,504284.2638835671,13.630290791002004,-0.7989535030200401,-13.620290683466934,2.7714828216012024,4.653237743232465,0.0,0.0,0.0,39.8714138,32.7364372,-3.6270252443807616,-445.4177530901803,-104.0372898492986,-0.7537188951082164,-13.637058130641282,2.8799039999178357,-0.2247921904008016,-0.8265140620621241,1.0797630198296597,-1.6516864502665332,104.20676904008016,0.07647690907815632,0.360619509741483,0.0016877554769539063,0.19527245984368738,53909506.89378758,0.0,0.0,0.0,1.0,0.0
54061485.0,-0.00017565815230460827,0.180433433250501,-0.04827587392785571,0.18170780064128256,0.0,1475.0,1500.0,1180.1102204408817,1498.5381553587174,1500.4618446412826,1588.2204408817636,13.857953923106212,14.199765206653305,13.774309857354709,13.754991782985972,14.094220760300601,13.461790500861724,13.793789167414829,116.24958420781563,116.24958420781563,11.730906446352705,-0.0013746466633266534,-0.0057673672484969945,0.0006065475931863728,-0.19620306764128256,0.18806340738877755,-0.015621558751503005,2.0,0.6996264984609217,1.699626498460922,11.0,0.0,0.0,1.0,0.0,0.0,0.0,0.0,0.0,0.0,0.0,0.05633257183967936,0.027946789156312622,-1.5826931467595189,-1.588763567274549,-0.37891443229058114,121.56010276452906,40.97989720284569,-0.025688736543086173,0.02112848016633266,-0.040051223188376756,0.0,-0.7034613766733467,0.06629853210621241,-9.252137134348697,-340.26352,954.2694031338677,11.731820916472946,0.03385520218236474,-0.02737462567134271,-0.013184437298597208,-0.648945348036072,0.15714136774348714,-9.190363897655311,2294028.0,0.02892748275150301,-0.01447086285370743,-0.003564315386773537,-340.26352,100.01672,102.96133501462926,-0.1472306852985972,-3.078452926196393,15.369662364108217,14.350373942364728,0.02038576523647295,0.7422766476813627,-0.3689092181763527,75.28155491983968,503.2091783695391,11.73188920509018,95425.03287803607,1.1338071858056111,-0.047781568837676036,-0.1287356339739486,-0.3391903177034075,0.03350644993787573,-0.023628156312625267,-0.018072720396793595,0.05848322056913828,0.03186233786372745,-1.5816238914148297,0.7025472725410822,0.03187971570140281,-0.00958437188977956,-0.710857907268537,0.20078613148697394,398713797.43627256,327311980.98376757,503841.20566192386,13.765134403246492,-0.8288047928056111,-13.754620639879759,2.9402189338456917,4.651553180975952,0.0,0.0,0.0,39.8714138,32.7364372,-3.7527035171242487,-447.5354237460922,-103.58929863046092,-0.7932382539178356,-13.777608038717435,3.0081874518296594,-0.1946035229559118,-0.9388510222545089,0.6182139874969943,-1.653536509747495,103.75877763046091,0.06969878846893789,0.358347073498998,0.0033045289378757503,0.20038468219639277,54061484.59919839,0.0,0.0,0.0,1.0,0.0
54208251.0,-0.0018928981683366734,0.18738642935871744,-0.04664793414629259,0.18657146779559117,0.0,1476.0,1500.0,1184.3947895791582,1500.3026052104208,1498.6973947895792,1591.6973947895792,13.98074890747495,14.325459449318638,13.914835521262525,13.897566671983968,14.24001952462926,13.610450988296593,13.945828764188375,118.85905928036073,118.85905928036073,11.733794112805612,-0.001372422615230461,-0.005766368124248497,0.0006077385350701402,-0.1961342558757515,0.18809137758717437,-0.015221600573146293,2.0,0.7089550170981964,1.7089550170981964,11.0,0.0,0.0,1.0,0.0,0.0,0.0,0.0,0.0,0.0,0.0,0.05929955342084168,0.03503798437074148,-1.5808195641663327,-1.5880183512024049,-0.460752429260521,119.35679726713427,41.459741984509016,-0.02557686114428858,0.023472081228456912,-0.040025501264529056,0.0,-0.6194973888977956,0.1366056705310621,-9.631678635164329,-340.26352,954.3209113390782,11.734699148657315,0.03068668251102205,-0.0021551727635270553,-0.009352650609218444,-0.7110901181122244,0.11904370027655306,-9.530195995523046,2294028.0,0.028944467248496995,0.008947649839679349,-0.006456948326653311,-340.26352,100.01672,102.52357624529058,-0.1253427061983968,-3.057515402224449,15.369426533266532,14.562524158416835,0.016138039539078157,0.8296545414929859,-0.36924502691583166,74.71568286553106,502.5420344324649,11.734902747414829,95432.67275755512,1.1338979921863728,-0.5010559482184356,0.1096550143927863,0.05814430017835647,0.02976346851703408,0.005816794220440865,-0.009635477208416834,0.0574327865270541,0.03848907141883767,-1.5829512070200402,0.7019833783607214,0.03385919982965932,-0.006903442529058118,-0.7113542913406813,0.20831656184569136,398713785.5288577,327311733.1797595,503377.68193106214,13.920444149378758,-0.8586560561142285,-13.888951970861724,2.9929840836713426,4.650226422967935,0.0,0.0,0.0,39.8714138,32.7364372,-3.883146506356713,-449.65090850941885,-103.13404021222445,-0.8296515271262526,-13.932808064889779,3.0693773232565134,-0.22225116642084167,-1.014592092252505,0.23325404133066147,-1.6548116263126254,103.30351999118236,0.061387158062124254,0.35125801629258524,0.00482471341282565,0.20861778855711424,54208251.10420842,0.0,0.0,0.0,1.0,0.0
54349439.0,0.0036850696633266553,0.19060945049098196,-0.045298271973947896,0.19267766181563126,0.0,1477.0,1500.0,1190.569138276553,1499.8617234468938,1499.1382765531062,1594.2845691382765,14.158708925871743,14.507415106192385,14.05536119517034,14.040141568136272,14.385818278957915,13.759111476833668,14.097868370961923,121.46853432444891,121.46853432444891,11.736681778156312,-0.0013701995671342685,-0.005765369605210421,0.0006089294769539078,-0.19606544439478957,0.1881193470701403,-0.014821642394789579,2.0,0.718283536735471,1.718283536735471,11.0,0.0,0.0,1.0,0.0,0.0,0.0,0.0,0.0,0.0,0.0,0.0610376147234469,0.04113682875751503,-1.579045034062124,-1.5872332263527054,-0.541502548258517,117.11017201302604,41.93139390132264,-0.025473015987975953,0.0256481517755511,-0.040016207801603206,0.0,-0.7021810839338677,0.2095870075210421,-10.06323744488978,-90.10207166476941,954.3605361571142,11.737577386893788,0.024551663963927852,0.02782095853306613,-0.007147948747494992,-0.6729010564248497,0.13854198729058115,-9.93310907945491,2294028.0,0.026823859264529057,0.02866248158517034,-0.002559069507014032,-90.10207166476941,100.01672,102.05527715791584,-0.10192768662725452,-2.983551218014028,15.36913201507014,14.759314462945891,0.012196345070140282,0.887733163258517,-0.3695737707254509,74.2198622861523,502.189940851503,11.737894748777554,95436.71147320642,1.133946042226453,-0.07635721938076151,0.44765090854909806,0.017332112136272976,0.029387279010020046,0.030166482370741474,-0.010692638891783571,0.06766308343486974,0.044716782915831664,-1.5740301989318637,0.704846549513026,0.03969823791983968,-0.008176776274549097,-0.7082007666492987,0.2155681636252505,398713774.0178357,327311486.35010016,502923.3902573146,14.081790240420842,-0.8885073030460922,-14.041790240420841,3.0053731708116236,4.648843156036072,0.0,0.0,0.0,39.8714138,32.7364372,-4.016554632613226,-451.7635600220441,-102.67886478196394,-0.8567301621422845,-14.09907449490982,3.073167677503006,-0.13122847370340682,-1.1213496687715432,-0.11359079194188369,-1.6557021882024048,102.84834478196393,0.07026549149498998,0.34010667728056115,0.006429377134268537,0.21571604201202405,54349439.34068136,0.0,0.0,0.0,1.0,0.0
54505478.0,-0.0008344218416833668,0.19042242569939882,-0.043684568867735474,0.19741133516633266,0.0,1478.0,1500.0,1194.8717434869739,1500.0,1499.0,1593.8717434869739,14.19274649218437,14.542051444488978,14.195886867795592,14.182716459979959,14.531617043286573,13.907771965370742,14.24990796773547,124.07800933827654,124.07800933827654,11.739569443507015,-0.0013679765190380763,-0.005764370783567134,0.0006101204188376754,-0.19599663321643285,0.18814731698396794,-0.014421684216432867,2.0,0.7276120553727455,1.7276120553727456,11.0,0.0,0.0,1.0,0.0,0.0,0.0,0.0,0.0,0.0,0.0,0.06277567602605211,0.04723567271342685,-1.5772705039579158,-1.5864481006312625,-0.6222526669539079,114.86354677174349,42.403045816853705,-0.025350418585170342,0.027655336581162326,-0.04004655383567134,0.0,-0.6362119251943887,0.11615294728857717,-10.422161109358717,-340.26352,954.3975809416834,11.740431302244488,0.03344602498396794,0.04201974578156313,0.0003808790621242491,-0.6539814854408817,0.15375728765531066,-10.274837634208417,2294028.0,0.041683057012024044,0.049843200653306614,0.0027926672264529063,-340.26352,100.01672,101.60669049118236,-0.07949831755911824,-2.8726194662905815,15.368786217374751,14.92911677997996,0.008793385470941883,0.9208134155991984,-0.36985620819839676,73.82236575925852,501.8618520519038,11.740871993246493,95440.46184456913,1.133990544264529,0.44465001982164326,0.3214595826513027,-0.13570578107414827,0.03982831904609219,0.053628278270541084,-0.0031656257414829658,0.06523614663126252,0.05023788123046092,-1.5753995228597195,0.7042992334328656,0.040791260008016035,-0.005396542601202405,-0.7087097494549098,0.22349391101803606,398713762.2745491,327311235.83707416,502473.9495765531,14.248061607935872,-0.90999997,-14.208061607935871,2.985372447699399,4.648030206601202,0.0,0.0,0.0,39.8714138,32.7364372,-4.154832570791584,-453.92341378877757,-102.22337171402806,-0.8790339126032064,-14.271963068216433,3.0236791828456915,-0.1317199904749499,-1.1643833306252505,-0.414687288977956,-1.6557018703046094,102.39285171402805,0.060257124825651306,0.3247590749238477,0.008169707963927856,0.22349798967935872,54505478.23246493,0.0,0.0,0.0,1.0,0.0
54651558.0,-0.004026523927855711,0.18893639317234467,-0.042585450148296594,0.20466847547094189,0.0,1478.0,1500.0,1202.0504273146294,1501.591509478958,1497.408490521042,1594.5410821643286,14.38768770002004,14.741354564128256,14.336412532985971,14.325291348977956,14.67741579761523,14.056432453907815,14.401947574509018,126.6874843521042,126.6874843521042,11.742457114268538,-0.0013657529298597194,-0.005763371961923848,0.0006113118196392786,-0.1959278215791583,0.18817528718236473,-0.014021726038076153,2.0,0.7369405744689379,1.736940574468938,11.0,0.0,0.0,1.0,0.0,0.0,0.0,0.0,0.0,0.0,0.0,0.06406320537474951,0.05304851500400802,-1.5755166161803609,-1.5856445333587172,-0.7026191271823647,112.6035556486974,42.852369235691384,-0.025260004468937877,0.02948250912024048,-0.040091248270541086,0.0,-0.6130336592885771,0.08185297620841685,-10.736856387074148,-340.26352,954.4672005122245,11.743660033867735,0.032382346997996,0.05336073440480962,-0.00012645430460921678,-0.6469463924288577,0.08765596571543086,-10.515664551122246,2294028.0,0.03047191969539078,0.05951760706012025,-0.0012814194909819602,-340.26352,100.01672,101.20570585330661,-0.059449115809619237,-2.7324897365991982,15.36840515232465,15.062977298857716,0.006108556236472946,0.9299177888977956,-0.37006695033466935,73.54211538743488,501.33413870501005,11.743763583366734,95446.50936637275,1.134062425549098,0.1202120406933872,0.07550696116833672,0.00646292955511029,0.037625004925851704,0.06330869459118237,0.000592963302605211,0.06222499223246493,0.05576841769338677,-1.5765490424328656,0.7038394733587174,0.04168622488376753,-0.0024024668797595185,-0.7091302201342686,0.22918904993186373,398713748.8478958,327310974.9661323,502021.2685851703,14.419394468436874,-0.910311178246493,-14.38001688492986,2.929086893184369,4.648784497260521,0.0,0.0,0.0,39.8714138,32.7364372,-4.297601817340682,-456.14121030300606,-101.77264521503005,-0.8918057332685371,-14.445456361182364,2.926266049328657,-0.07208360734669336,-1.0801389404008017,-0.7852147561983969,-1.655319645238477,101.94212521503006,0.052012211470941885,0.30818217220440886,0.009757928324649298,0.22913391758316634,54651558.3006012,0.0,0.0,0.0,1.0,0.0
54805186.0,-2.4700927855710576e-05,0.1839339484208417,-0.04125819518637274,0.21131550162324647,0.0,1479.0,1500.0,1210.0460921843687,1498.0460921843687,1500.9539078156313,1591.9539078156313,14.520386449358718,14.877023956332666,14.476938206893786,14.46786623797595,14.823214561943887,14.205092942905813,14.553987171743488,129.29695937054106,129.29695937054106,11.745344783747495,-0.0013635294228456914,-0.005762373186372746,0.0006125033026052104,-0.19585900985971944,0.18820325738076152,-0.01362176785971944,2.0,0.7462690936472945,1.7462690936472947,11.0,0.0,0.0,1.0,0.0,0.0,0.0,0.0,0.0,0.0,0.0,0.06335206545490983,0.05759258345891783,-1.5738543036513026,-1.5847591495731463,-0.7812835863346692,110.28427002585171,43.20263815212425,-0.02517246617034068,0.031148142012024045,-0.04016211962725451,0.0,-0.46624374118436884,0.11200484232464909,-10.855830302725451,-336.0831263721448,954.5094275837675,11.746325481663327,0.02954091428456916,0.06199221210220435,0.005935609741482955,-0.5366846772464933,0.11208095234268522,-10.766814739539077,2294028.0,0.03395022949498998,0.07211731337074144,0.012314873955911828,-336.0831263721448,100.01672,100.82877035110221,-0.04060248712224452,-2.565469167915832,15.368093551623247,15.157797138837676,0.004205932292585174,0.9143671427314629,-0.37021132241683363,73.3526894949499,500.9119964851704,11.746531718817636,95451.32900621243,1.1341197421583167,-0.09622469877354466,-0.27530159922244946,0.23795899549699293,0.032027660142284614,0.08148226533667335,0.0008762029579158137,0.07007838742084169,0.06054787757114228,-1.5680976563466935,0.7065525731422847,0.04615505071943888,-0.003307257731462931,-0.7061459606893788,0.23532840719438877,398713736.7478958,327310719.7320641,501590.32326032064,14.584335749779559,-0.9170152378256513,-14.558366291983969,2.7896944444869742,4.648981267078156,0.0,0.0,0.0,39.8714138,32.7364372,-4.440027575408817,-458.36520538376755,-101.34321306432867,-0.893683723541082,-14.618221513807615,2.7867654394008015,0.051688223154308606,-1.1019255248617235,-1.0400761203306612,-1.654442747064128,101.51269226893788,0.05617046668537076,0.28966080193386773,0.011587895158316631,0.23606134074348695,54805186.418837674,0.0,0.0,0.0,1.0,0.0
54945349.0,-0.004745815062124235,0.17933402913426855,-0.04070070356713427,0.21941354713426853,0.0,1479.0,1500.0,1216.633266533066,1501.0,1498.0,1589.7334669338677,14.662351291743487,15.022199557354709,14.617463870801604,14.610441130641282,14.969013316272545,14.353753430981964,14.706026774388777,131.90643444308617,131.90643444308617,11.748232449559119,-0.0013613063747494989,-0.005761374951903808,0.0006136942444889779,-0.19579019868136271,0.1882312275791583,-0.013221809681362726,2.0,0.7555976122845691,1.7555976122845691,11.0,0.0,0.0,1.0,0.0,0.0,0.0,0.0,0.0,0.0,0.0,0.06264092607615229,0.062136651913827654,-1.5721919901222443,-1.583873766787575,-0.8599480445791582,107.96498443967936,43.55290707396794,-0.02506905578957916,0.03266565560721443,-0.04025754974148296,0.0,-0.4115719844408818,0.21032846368737496,-11.099988533727455,-120.03788885015958,954.549758418036,11.748824141042084,0.03671018437074148,0.07657847685370736,0.010012119400801586,-0.491961186236473,0.13344449457915866,-10.957777925531062,2294028.0,0.029083142300601227,0.090164308,0.01232933575751501,-120.03788885015958,100.01672,100.44995704348698,-0.02166168064529061,-2.3608638903747496,15.367887039879761,15.279921654428858,0.0017593171422845728,0.881810459743487,-0.3703119456492986,73.2380260558517,500.4377566462926,11.749114759819639,95456.74897148296,1.1341841080521042,-0.10981260374148805,0.08524641085371015,0.0020219610601160953,0.033726160689378726,0.08778197217835675,0.008921509811623242,0.0654143314729459,0.06454181384769539,-1.5694250047855711,0.7060992095430862,0.04591435244689379,-0.0002769951523046135,-0.7066225690761523,0.23960079468737475,398713724.38356715,327310459.91823643,501181.21338276553,14.739561353567133,-0.8976095279278558,-14.719561796553107,2.6270039296973953,4.65098733546493,0.0,0.0,0.0,39.8714138,32.7364372,-4.579793023052104,-460.5806316709419,-100.94311268056113,-0.8897645208697395,-14.77797675490982,2.622500828412826,0.032136310523046,-0.9895812882745493,-1.133341687346693,-1.6527594554328657,101.11259268056112,0.04516318668336675,0.2704359307154309,0.013174721925851703,0.2398440476753507,54945348.60320641,0.0,0.0,0.0,1.0,0.0
55094207.0,-0.007710751993987969,0.1714574387795591,-0.039030408523046095,0.2261548978557114,0.0,1480.0,1500.0,1224.2204408817636,1503.0,1496.0,1585.6117701002004,14.77487199717435,15.13721379258517,14.713306437454909,14.707822981062124,15.068538434909819,14.456895527895792,14.811457668396795,133.57773450420842,133.57773450420842,11.750475067855712,-0.0013593791883767534,-0.005761191587174349,0.0006136314649298598,-0.1957320793747495,0.1882408530280561,-0.012907408004008017,2.0,0.7649261319218436,1.7649261319218437,11.0,0.0,0.0,1.0,0.0,0.0,0.0,0.0,0.0,0.0,0.0,0.06190094475551102,0.06664032678156312,-1.570528042244489,-1.582984829172345,-0.9386615911122244,105.64463128496993,43.89896888921844,-0.02498845743286573,0.03402813830661323,-0.04034973152304609,0.0,-0.3950096570601203,0.17696682340881764,-11.201052380060121,-340.26352,954.5981600256513,11.751195926653306,0.030696144737474947,0.08658265665731464,0.01722994012825655,-0.42791528864128253,0.11952150131262544,-11.169829371963928,2294028.0,0.021826524198396795,0.08425920808216433,0.014448444334669333,-340.26352,100.01672,100.10551646072145,-0.0044395654288577335,-2.1484191313126257,15.367678552024048,15.381780410781563,-0.00028203158917835516,0.8385748921543087,-0.3703671919358717,73.19011786330661,500.12342623346694,11.751547195591183,95460.36031142285,1.1342269733607215,-0.13000941202004032,0.13477078129058295,-0.22925974580160352,0.034417303098196385,0.09597463533867738,0.010683189981963935,0.06014789713026053,0.06829575619238476,-1.5707049965811624,0.7056813559078157,0.0453803783246493,0.002882775827655307,-0.7070685482084169,0.24268349671543085,398713711.7064128,327310194.1685371,500792.3133911824,14.886876391422845,-0.866118181761523,-14.864936101422845,2.443713748951904,4.653735423498998,0.0,0.0,0.0,39.8714138,32.7364372,-4.718927777789579,-462.8338140973948,-100.56615719679358,-0.8750213907535072,-14.93141201240481,2.432696637637275,0.14389678665931863,-0.9687885652184368,-1.2769064678436874,-1.6507153876533065,100.73563719679359,0.03481824154308619,0.24996541680761528,0.0146494793507014,0.2429049560721443,55094207.18236473,0.0,0.0,0.0,1.0,0.0
55257303.0,-0.0030888984709418815,0.16353502501202405,-0.03816524714428858,0.2319885495250501,0.0,1480.0,1500.0,1229.807615230461,1500.7695390781564,1498.2304609218436,1582.192384769539,14.850746188396794,15.214624645350701,14.777937275130261,14.773636904709418,15.135740820260521,14.52824246274549,14.884331796853708,134.5937075737475,134.5937075737475,11.752267120340681,-0.001357658344689379,-0.00576157722244489,0.0006126942124248496,-0.1956814284729459,0.18823766403006012,-0.012652769625250502,2.0,0.7742546505591181,1.7742546505591181,11.0,0.0,0.0,1.0,0.0,0.0,0.0,0.0,0.0,0.0,0.0,0.060128673803607216,0.06969822085571142,-1.5688055934408818,-1.5819686595771543,-1.0191320961603205,103.28606657815632,44.09444850901804,-0.024916047048096194,0.035260155879759524,-0.04042076390380762,0.0,-0.324749686228457,0.12541532638877764,-11.203275360781564,-340.26352,954.6434846192385,11.753672917254509,0.017894283046092228,0.0875195716332665,0.015508140110220446,-0.37758665371743516,0.12414289177354701,-11.231413526192384,2294028.0,0.02280207839879758,0.08219982119438878,0.02453417171743486,-340.26352,100.01672,99.81318170002004,0.01017708826853706,-1.9411758498436875,15.367427839158315,15.443072904288577,-0.0015129095871743473,0.7855043836272546,-0.37037200328456915,73.20861220727456,499.68368888096194,11.753757251943886,95465.39375146292,1.1342867918156312,-0.04987820438877444,-0.36781110795591243,0.40055643126452645,0.021160447773547104,0.09734643538476953,0.01762567647695389,0.0662798320260521,0.07165574573947896,-1.5624223661182366,0.7083799632605211,0.04872070963126253,0.0021048655050100173,-0.7041442101482966,0.245344327496994,398713698.9925852,327309921.802004,500424.3965476954,15.028670631743488,-0.8511925214368737,-14.999266023667333,2.2272921076132266,4.655038207084169,0.0,0.0,0.0,39.8714138,32.7364372,-4.855714753144289,-465.14260363627255,-100.21603056753507,-0.850396773232465,-15.074263614248498,2.2247798330400803,0.12610258260120227,-0.8989046552184372,-1.3053877048356712,-1.6479291573486974,100.38551056753508,0.04224527763126253,0.23099598100801605,0.015513932545090179,0.24548453168336673,55257303.23446894,0.0,0.0,0.0,1.0,0.0
55410860.0,-0.008144817747494988,0.15634265950901804,-0.03754462289178356,0.23792907745490982,0.0,1480.40641204008,1500.0,1236.3947895791582,1503.3947895791582,1495.6052104208418,1578.5806497715432,14.928018675791584,15.293606725270543,14.842568112805612,14.839450838356713,15.20294321561122,14.59958938759519,14.957205925310621,135.60968060480963,135.60968060480963,11.75405917503006,-0.0013559385010020039,-0.005761963637274549,0.0006117559599198396,-0.1956307785711423,0.1882344754268537,-0.012398130466933867,2.0,0.7835831691963927,1.7835831691963928,11.0,0.0,0.0,1.0,0.0,0.0,0.0,0.0,0.0,0.0,0.0,0.05819208052905812,0.07252597404609219,-1.5670738314088175,-1.5809322368156313,-1.0998822758376754,100.9214194228457,44.26595829567134,-0.02482666253507014,0.03636084218436873,-0.04049624901603207,0.0,-0.3841759600761523,0.1673318285591182,-11.347530621523047,-313.18597315851724,954.6762602062124,11.755622583086172,0.02202767290380761,0.08674199273947897,0.02138493283967937,-0.35849594711021987,0.16064773834068127,-11.281444613266533,2294028.0,0.011204146879759534,0.0851813350240481,0.021304183068136275,-313.18597315851724,100.01672,99.5529672008016,0.023187874763527044,-1.7299456695210422,15.367220159859718,15.50010270795591,-0.002657649214428857,0.7139075972805612,-0.37032245422244486,73.28572223478957,499.43347968957914,11.755775658937877,95468.23798036072,1.1343205876813627,-0.18066757523647242,-0.010893356250499059,0.11263362460520973,0.027571345537074153,0.09930054659519039,0.020660133306613218,0.060850610000000006,0.07444398782965932,-1.5635019822945893,0.7080635999098196,0.04777958858316633,0.004980257771543084,-0.704512553503006,0.24815145443887776,398713687.6761523,327309656.2250501,500110.7253893788,15.149864566492985,-0.8362669160440882,-15.112997721262525,2.0383365409919842,4.65670011136473,0.0,0.0,0.0,39.8714138,32.7364372,-4.986318601921844,-467.46116780000006,-99.89945477258517,-0.8152502446252505,-15.200168748997996,2.0065409630861724,0.30782453118637265,-0.7954571464148298,-1.4197372524649299,-1.644615379272545,100.06893445490982,0.03303334524448899,0.21291306622845693,0.016548224955911826,0.24823003896392784,55410859.81362726,0.0,0.0,0.0,1.0,0.0
55561330.0,-0.010780933883767534,0.14793374238877757,-0.036677822088176354,0.24107385140280563,0.0,1481.0,1500.0,1239.9819639278558,1505.0,1494.0,1574.0333986573146,14.984930935210421,15.351741940360721,14.907198960480962,14.905264771823646,15.270145600961923,14.67093631244489,15.030080053767536,136.6256536569138,136.6256536569138,11.75585122953908,-0.0013542176573146294,-0.0057623500521042075,0.0006108187074148297,-0.19558012766933866,0.18823128703406813,-0.012143492290581162,2.0,0.7929116888336674,1.7929116888336674,11.0,0.0,0.0,1.0,0.0,0.0,0.0,0.0,0.0,0.0,0.0,0.05625548806212425,0.07535372725450902,-1.5653420691843687,-1.5798958140721444,-1.18063245551503,98.556772237495,44.4374680804008,-0.024745644723446893,0.037359476743486976,-0.04058732797595191,0.0,-0.33797121432064126,0.1442549855190381,-11.23778804242485,-149.9769973992201,954.7096102647295,11.757357143527054,0.015600240697394794,0.08246195988977958,0.028294506825651284,-0.2935666645831665,0.12691991413627254,-11.364850883807616,2294028.0,0.009896553695390775,0.08102802551703407,0.024554748627254513,-149.9769973992201,100.01672,99.30493187697395,0.03558959853907814,-1.5012308268657317,15.367060801182365,15.5569394649499,-0.003797571068136272,0.6251941024649299,-0.3702184069719439,73.42762439480963,499.25599356392786,11.757564115811622,95470.2855356513,1.1343449029619237,-0.42880088291983964,-0.22746385681563008,-0.1431134154048088,0.02158147355511021,0.09843471521442886,0.021548252482965925,0.05543429260320642,0.0765095453266533,-1.5646528493286573,0.7077371346472946,0.0465922601723447,0.007594245392785567,-0.7048968402184369,0.25156641603006014,398713676.4577154,327309383.4995992,499819.5151901804,15.256281557034068,-0.8040238951983968,-15.224939825791584,1.825790067200401,4.659300155673346,0.0,0.0,0.0,39.8714138,32.7364372,-5.108940726222444,-469.7646898156313,-99.61908076693388,-0.7730833745751503,-15.30398933232465,1.787184290188377,0.317723323501002,-0.6187309974989981,-1.4849276468637276,-1.641154039689379,99.78855676693387,0.023219399873747503,0.1941860347995992,0.017322945579158318,0.25187682094188374,55561330.01002004,0.0,0.0,0.0,1.0,0.0
55722959.0,-0.013566789707414833,0.13882788149298597,-0.035440083745490986,0.2443055809018036,0.0,1481.569138276553,1500.0,1243.569138276553,1506.569138276553,1492.430861723447,1569.8617234468938,15.058960485771543,15.427327959158317,14.971829798156312,14.971078695651302,15.337347992004007,14.74228323729459,15.10295417222445,137.641626748497,137.641626748497,11.757643274408817,-0.001352497382765531,-0.005762735466933867,0.0006098804549098196,-0.19552947733667334,0.18822809803607213,-0.011888853150300601,2.0,0.8022402074709419,1.8022402074709418,11.0,0.0,0.0,1.0,0.0,0.0,0.0,0.0,0.0,0.0,0.0,0.05440516230260521,0.07721877285771543,-1.563577296529058,-1.5787569459478958,-1.2613826099318637,96.24982256613227,44.52921735559118,-0.024675783541082165,0.03824717245691383,-0.04063101855310621,0.0,-0.2676434521603207,0.18340619958717436,-11.260197339819639,-340.26352,954.7221444611222,11.758906406172345,0.009070630937875749,0.08309312438076152,0.02077293840480962,-0.34408954506613226,0.23061219815631273,-11.310837434809619,2294028.0,-0.0006612394829659256,0.08344143087174348,0.009644179907815634,-340.26352,100.01672,99.09096993062124,0.046287671591182356,-1.285244403498998,15.36683269024048,15.59613291226453,-0.004586003981963928,0.5355164765971944,-0.37008254548496994,73.6027610676954,498.9931338925852,11.759131652224449,95473.28287096192,1.1343804973326654,0.010826737370741676,-0.0398677404809619,0.26089174266132475,0.013071043537074155,0.09335401472745491,0.017997194478957906,0.049533713783567135,0.07836853087174349,-1.5658310934288577,0.7074143517795591,0.045164035917835674,0.010306467993987975,-0.7052791278036071,0.2540963671462926,398713665.6633266,327309106.06092185,499552.4428220441,15.346129492805611,-0.7610391641322646,-15.324336326152304,1.589066354482966,4.662431429,0.0,0.0,0.0,39.8714138,32.7364372,-5.225521980543086,-472.08556497434864,-99.36855790312626,-0.7249023270200401,-15.39003189991984,1.5655482742545093,0.2605887017655311,-0.5016072479318637,-1.494341715771543,-1.6376619472965932,99.53803745503005,0.016223000543086175,0.17650587219438876,0.01771650139478958,0.25449829358717435,55722958.55911823,0.0,0.0,0.0,1.0,0.0
55869362.0,-0.010635971913827641,0.13182946208016033,-0.035521944927855716,0.24664013993987974,0.0,1482.0,1500.0,1246.0,1504.1563126252504,1494.8436873747496,1566.3446665250501,15.151583579779558,15.522025355651303,15.03646063739479,15.036892629298597,15.404550381663327,14.813630172144288,15.175828300681362,138.65759975571143,138.65759975571143,11.759435329098196,-0.0013507769699398799,-0.005763121881763527,0.0006089422024048096,-0.19547882686573145,0.18822491003807615,-0.01163421399198397,2.0,0.811568726264529,1.811568726264529,11.0,0.0,0.0,1.0,0.0,0.0,0.0,0.0,0.0,0.0,0.0,0.052613569753507027,0.07842836346092184,-1.5617900478917837,-1.5775483278997995,-1.3421327469939877,93.98215593647295,44.5666621209018,-0.024604821651302605,0.03906252586773547,-0.04067756854509018,0.0,-0.20259911502003985,0.16307281686773556,-11.133145149358718,-340.26352,954.7631964074149,11.760438573587175,0.0070757389398797685,0.07339830400601201,0.02718893629058116,-0.2851476658176359,0.1577334632625244,-11.155942132324649,2294028.0,-0.001948785258517014,0.08392257441883766,0.022845469210420834,-340.26352,100.01672,98.91974219673347,0.054849092835671326,-1.0931635777755515,15.366533646553107,15.611658283026053,-0.004902492679358717,0.4516295056533069,-0.36992067215631264,73.79967523436873,498.7956607607215,11.760497211543086,95475.55083146293,1.1344074375350701,-0.09785936251302212,0.19989275685370955,0.015986131286581218,0.0049289159498997715,0.09061249160320646,0.022764471082164308,0.04590141189178348,0.07966212106412826,-1.5655082729358718,0.7075783808016032,0.044334505452905786,0.012055094010020065,-0.7051356804709419,0.2569872722024048,398713655.99358714,327308831.5046092,499322.0745783567,15.412663183266533,-0.7230934372605211,-15.38356514563126,1.3370676159739483,4.665202377072144,0.0,0.0,0.0,39.8714138,32.7364372,-5.338924228490981,-474.5139060244489,-99.14371351044088,-0.6713653880120242,-15.458273916773548,1.344072550875752,0.33393653091983955,-0.36930432565130294,-1.3576845053106215,-1.6337474728677355,99.31319351044088,0.013473644893787454,0.15995656484368742,0.017615259661322647,0.25726719605611226,55869362.088176355,0.0,0.0,0.0,1.0,0.0
56018216.0,-0.013950065651302607,0.12502625553707414,-0.035013283905811626,0.24960268783567136,0.0,1482.0,1500.0,1248.743486973948,1506.249564042084,1492.750435957916,1563.0,15.13210002206413,15.501881881102205,15.097253685531062,15.098906464629257,15.467870791042083,14.880321678957916,15.243944067895791,139.61417483947898,139.61417483947898,11.761150395711423,-0.0013489802905811623,-0.005763616102204408,0.0006079975150300601,-0.1954306577234469,0.18821815081563126,-0.011383192154308617,2.0,0.8208972457454909,1.820897245745491,11.0,0.0,0.0,1.0,0.0,0.0,0.0,0.0,0.0,0.0,0.0,0.05082197789178357,0.07963795432064129,-1.5600027992545091,-1.5763397094208418,-1.4228828843687376,91.71448930681363,44.60410688621243,-0.024533547981963926,0.03977018453507014,-0.040691907184368735,0.0,-0.2917219985511022,0.15865720738076153,-11.098299229739478,-305.70870542625255,954.7935448983968,11.761574081382765,0.003542658376753506,0.06944870165731463,0.018934097619238477,-0.2799275034549098,0.12653921634669335,-11.150170809078157,2294028.0,0.006628537076152304,0.07604215856513026,0.021003804208416833,-305.70870542625255,100.01672,98.78088378971944,0.06179204009018036,-0.9128100095991984,15.366479398476955,15.614892497855712,-0.004968254603206413,0.3741796170561122,-0.369714827486974,74.02363966565132,498.6501693967935,11.76166156725451,95477.20134480963,1.1344271556052103,-0.09148986214028057,-0.12799139293987988,0.011475138202404866,0.008179658933867736,0.08491626790380762,0.021135399957915833,0.05041555096993988,0.08039130119639279,-1.5585986196352704,0.7098938186492986,0.04614876943486974,0.010879303693386773,-0.7027108593426854,0.26032637863727454,398713646.9412826,327308560.1667335,499131.39863567136,15.453588312284568,-0.6595398219498998,-15.423588657114228,1.1554906143827655,4.669425806312626,0.0,0.0,0.0,39.8714138,32.7364372,-5.4398485737074145,-476.8386545254509,-98.96073325845691,-0.6207854634849699,-15.505752703687374,1.1426026063386774,0.3473403725150301,-0.2738428981983968,-1.2547822728757516,-1.629895730262525,99.13020995262525,0.021504618168336674,0.14345399418837676,0.017510653122244486,0.2606919220440882,56018216.36472946,0.0,0.0,0.0,1.0,0.0
56161167.0,-0.015085485128256517,0.11774911512625252,-0.03443501532264529,0.2524367770541082,0.0,1482.0,1500.0,1251.3306613226453,1507.3306613226453,1491.6693386773547,1559.0,15.110522058857715,15.479777648136274,15.105336024749498,15.108727431583166,15.477873679298597,14.883072734048095,15.246705538176354,139.75494011462928,139.75494011462928,11.761808077214429,-0.0013461378256513026,-0.005765598460921844,0.0006069557775551102,-0.19541657108216431,0.18816235126052105,-0.011181839927855711,2.0,0.8302257643827655,1.8302257643827655,11.0,0.0,0.0,1.0,0.0,0.0,0.0,0.0,0.0,0.0,0.0,0.04810314680561124,0.08063632236272544,-1.5590829713106213,-1.5755349266913827,-1.4643335483947895,89.41317604226452,44.62022809006012,-0.024444006188376756,0.040433506,-0.040716422975951905,0.0,-0.2117626129418837,0.1545060617254511,-11.051482788877756,11.762505934569138,954.79069169499,11.762505934569138,-0.004610229108216416,0.06451994891382767,0.022097749653306617,-0.20454644294789556,0.11891210777755455,-11.043215534509017,2294028.0,-0.010215409587174328,0.06371119508016032,0.020950401647294586,-179.91907612164232,100.01672,98.65982952336674,0.06784478280761522,-0.7335852178076157,15.366481687094188,15.594265348877755,-0.004555665100200402,0.29215041742084186,-0.3694448664569138,74.2878766465531,498.404221853507,11.762622454669339,95480.0404339479,1.1344608053647296,-0.12082638240481317,0.13460942236273132,0.03854919189378862,-9.018060521041665e-05,0.07930042083366737,0.02386585571142289,0.045142854931863735,0.0808956238757515,-1.5597214451623247,0.7096072072985972,0.04446118516833668,0.012886250873747491,-0.7030751488797595,0.26318512373747494,398713637.9733467,327308282.9769539,498968.0600208417,15.486721444408818,-0.6007357182565131,-15.465083669959919,0.9754846496272548,4.673197651655311,0.0,0.0,0.0,39.8714138,32.7364372,-5.533758858579158,-479.1766526551102,-98.80948584517033,-0.5677151088476955,-15.54113462218437,0.95259361090982,0.39929090535470946,-0.19539832893186393,-1.1525439435971945,-1.6263314180841684,98.97896584517034,0.014625286004008026,0.12899443233466937,0.01742775962725451,0.263552778997996,56161167.128256515,0.0,0.0,0.0,1.0,0.0
56309474.0,-0.016931360943887776,0.11156804080961924,-0.03463044921242485,0.2553225617094188,0.0,1482.0,1500.0,1253.9178356713428,1507.0821643286572,1491.9178356713428,1556.0821643286572,15.090291181262526,15.459028131022043,15.110489313547095,15.115648131182365,15.484913795931865,14.882270720300601,15.245835380601203,139.8503722248497,139.8503722248497,11.762406991843688,-0.001343237388777555,-0.005767663673346694,0.0006059089919839679,-0.1954043782765531,0.18810382651102206,-0.010983247781563127,2.0,0.8395542839378758,1.8395542839378758,11.0,0.0,0.0,1.0,0.0,0.0,0.0,0.0,0.0,0.0,0.0,0.04322521227254509,0.08114285198597194,-1.5601829538837677,-1.5756704850921843,-1.4142743258897794,87.03351567713426,44.58669680517034,-0.02437664993587174,0.041032075815631265,-0.04073006195390782,0.0,-0.2836630928917836,0.14187545835671342,-10.940808054268537,-330.90762636613243,954.7999687480963,11.763300636472946,-0.013610445414829666,0.06119745600601203,0.019216198416833655,-0.20104180054509022,0.14224559528256514,-10.92451990943888,2294028.0,-0.008832667975951903,0.06667572061923847,0.01851814527054108,-340.26352,100.01672,98.56424293246494,0.07262412354108216,-0.5728751051462926,15.366432086012024,15.558123513987976,-0.0038338272144288576,0.21782609066933867,-0.36914788836472945,74.55092702871744,498.35170896112226,11.763424530460922,95480.6213251503,1.1344676935330662,0.7163319089619248,-0.38216579107615234,0.23907987398396835,-0.0036600401563126263,0.07377138506613226,0.02221902136072144,0.04031369802605211,0.08139740816232464,-1.5608320993647293,0.7093111683787574,0.042931933436873744,0.014738341531062125,-0.7034325164749499,0.26497756685971946,398713629.55611223,327308003.0691383,498830.1152625251,15.5099115598998,-0.5468307248056112,-15.501533958557115,0.7972407630100199,4.676570346342685,0.0,0.0,0.0,39.8714138,32.7364372,-5.619692592240481,-481.5156480895792,-98.6837288083968,-0.5141779170701403,-15.56183887296593,0.7756358623847694,0.39837808791182366,-0.10833079112625249,-1.1063737667915832,-1.6227466753486977,98.8532088083968,0.010023043040080159,0.11744705326252505,0.017089246428857716,0.26534433519038075,56309473.601202406,0.0,0.0,0.0,1.0,0.0
56460159.0,-0.012035433410821637,0.10571322387575151,-0.03500489529659319,0.25823008775551104,0.0,1482.0,1500.0,1257.5050100200401,1506.8497705831662,1492.1502294168338,1552.930597987976,15.101494179759518,15.470383917935871,15.115642602344689,15.122568830781564,15.49195391256513,14.88146870985972,15.244965214669339,139.94580433507014,139.94580433507014,11.763005916472945,-0.0013403364468937875,-0.005769728380761524,0.0006048615370741482,-0.1953921844709419,0.18804530176152304,-0.010784656140280562,2.0,0.8488828026573146,1.8488828026573145,11.0,0.0,0.0,1.0,0.0,0.0,0.0,0.0,0.0,0.0,0.0,0.03834727824448898,0.08164938244488977,-1.5612829367875751,-1.5758060443286575,-1.3642151043847697,84.65385532200402,44.55316552863727,-0.024314681791583168,0.04160102463527054,-0.0407375465490982,0.0,-0.20388155195190355,0.16769442383767505,-10.773794760000001,-340.26352,954.8269196519038,11.763970868096193,-0.009803543631262603,0.0527915261042084,0.021877446136272523,-0.18331757691783512,0.17174940898997965,-10.825284972665331,2294028.0,-0.013655722284569134,0.05329840830260524,0.02186131736272545,-340.26352,100.01672,98.49598291294589,0.07603709970741483,-0.4358411010861725,15.366321609378758,15.51403158016032,-0.0029542068116232474,0.15573017806613235,-0.36883384303406813,74.80015474727455,498.2671244004008,11.764039201923847,95481.60433292585,1.134479470791583,-0.19180813134268576,0.017117714887774804,-0.1737977384048079,-0.01060346129058113,0.06615497799398798,0.02046311755511022,0.03544785640681364,0.0820113292004008,-1.5619309281543086,0.709014254482966,0.041430867062124246,0.01664501342084168,-0.7037791877635271,0.2655961453186373,398713622.79098195,327307730.56873745,498721.2824422846,15.509999,-0.48715006308817643,-15.509105341943888,0.6480125484689381,4.680347319919839,0.0,0.0,0.0,39.8714138,32.7364372,-5.6988484365070144,-483.90195436152305,-98.58443400551103,-0.4647826516372746,-15.570651775931864,0.6122720093867738,0.34473263698396794,-0.019063233238477147,-0.9670054166212428,-1.6193909210721442,98.75391400551102,0.006300425713426857,0.1078575146733467,0.016233147911823648,0.26567250012825655,56460158.70541082,0.0,0.0,0.0,1.0,0.0
56624731.0,-0.015414463589178343,0.09976010892785574,-0.03503015647094188,0.26185039226052104,0.0,1482.0,1500.0,1260.3340745671342,1507.0,1492.0,1549.9078156312626,15.06491386018036,15.432704361442886,15.120795891142285,15.129489520380762,15.498994029198396,14.880666699418839,15.244095047915831,140.0412363452906,140.0412363452906,11.763604841102204,-0.0013374355150300601,-0.005771793098196393,0.0006038150821643286,-0.19537999166533065,0.18798677701202404,-0.010586064488977956,2.0,0.8582113212945892,1.858211321294589,11.0,0.0,0.0,1.0,0.0,0.0,0.0,0.0,0.0,0.0,0.0,0.03349295188577155,0.08213987393386774,-1.562382566072144,-1.5759422826773548,-1.3141558826172346,82.27443436613227,44.5188091069539,-0.024251960438877757,0.042111334478957915,-0.04073401473547095,0.0,-0.12030415732665373,0.09234908230861731,-10.636763780440882,-302.1361050298615,954.8470204979963,11.764491428316633,-0.006195400296593185,0.04711178197996,0.021430087523046128,-0.09852687262525095,0.23405744871342818,-10.68655268767535,2294028.0,-0.006098661050100188,0.04898425940080162,0.018033681921843667,-302.1361050298615,100.01672,98.4480438758517,0.07843394658717434,-0.314568104142285,15.366315626392785,15.48686154252505,-0.0024109226673346704,0.10522011724649316,-0.368485218509018,75.04954617797596,498.080182956513,11.764527426693387,95483.73706336673,1.134504753763527,0.4787885362304651,-0.4127380029458931,0.10240035241683693,-0.0012639681883767273,0.05912788524849701,0.017345566641282534,0.031035539557114245,0.08215973127254508,-1.5630235101983967,0.7087164345551102,0.03992867040080161,0.018228485492985967,-0.7041267171963929,0.2669459468296593,398713616.12484974,327307453.66492987,498634.42654889775,15.509999,-0.42744752885370757,-15.516568381422847,0.5117569687735476,4.684237730306613,0.0,0.0,0.0,39.8714138,32.7364372,-5.771022872709418,-486.3150236372745,-98.50830972340681,-0.41291012970340696,-15.572611112665333,0.4635851713707419,0.2896301494529055,-0.022615637881764124,-0.909738646270541,-1.6161198726813626,98.67778961468937,0.004000692296593194,0.0981141566693387,0.015069651186372749,0.26718955803607214,56624730.83767535,0.0,0.0,0.0,1.0,0.0
56775794.0,-0.017005200296593186,0.0946572509238477,-0.034825030877755514,0.2639512120641283,0.0,1482.0,1500.0,1263.0,1507.6793587174348,1491.3206412825652,1547.3206412825652,15.084718596933868,15.453138415511022,15.12594917993988,15.136410219979961,15.506034145831663,14.879864688977955,15.243224881162325,140.13666845551103,140.13666845551103,11.764203765731462,-0.0013345350781563126,-0.005773858310621243,0.000602767627254509,-0.19536779885971944,0.18792825226252505,-0.010387472342685371,2.0,0.8675398409318636,1.8675398409318638,11.0,0.0,0.0,1.0,0.0,0.0,0.0,0.0,0.0,0.0,0.0,0.02958604246893788,0.08198673149298596,-1.563468002523046,-1.5761057726012024,-1.2640966908096194,79.90462132675351,44.45133815793587,-0.024185029945891782,0.042597153539078156,-0.04071213020641283,0.0,-0.060806354541082124,0.08149078986573145,-10.560498716533067,-209.86311509679297,954.8441535268538,11.764824840360722,-0.007910302498998009,0.03891099340881768,0.017969201240480955,-0.017870100591182513,0.1555204714188373,-10.649474997895792,2294028.0,-0.010051573092184364,0.041438590036072157,0.01722594494989981,-209.86311509679297,100.01672,98.41362319316633,0.08015495432264529,-0.20137861850300615,15.366255318797595,15.479935648016031,-0.002273613735470942,0.05093415956112231,-0.36808357118637275,75.32676077727454,498.01991197454913,11.7648654,95484.42553236474,1.1345129023066132,0.059284227362725046,0.0597490398236456,-0.014424858010020566,-0.005969944869739453,0.05530407173747496,0.01822893568737475,0.02711380892184369,0.08206369080961924,-1.5641162018837675,0.7084103617995993,0.03851581949498998,0.019554038869739478,-0.7044776826773548,0.2685992439498998,398713610.1809619,327307173.1985972,498573.8246737475,15.501935656533067,-0.38387249001803614,-15.511935958597194,0.38145816764729473,4.687230498202405,0.0,0.0,0.0,39.8714138,32.7364372,-5.834488145326653,-488.69794288336675,-98.45388791729458,-0.3675405778877756,-15.567324973486974,0.3328222543587176,0.2995056648597195,0.04497354990981974,-0.8113647257555113,-1.6129891763446893,98.62336754262525,0.0025495543106212448,0.08980174655310622,0.013792152935871745,0.26878511242484976,56775793.8256513,0.0,0.0,0.0,1.0,0.0
56923988.0,-0.01832311249699399,0.09012017092585171,-0.034552628671342685,0.26544009254509016,0.0,1482.0,1500.0,1265.0,1508.2665330661323,1490.7334669338677,1545.7334669338677,15.123454011322645,15.492671600420842,15.131102468737474,15.143330919579158,15.51307426246493,14.879062678537075,15.242354717074148,140.23210046573146,140.23210046573146,11.764802683026051,-0.0013316343747494992,-0.005775923523046092,0.0006017201723446894,-0.19535560605410823,0.18786972851302605,-0.010188880462925853,2.0,0.8768683595691383,1.8768683595691382,11.0,0.0,0.0,1.0,0.0,0.0,0.0,0.0,0.0,0.0,0.0,0.025696880581162335,0.08182153235270542,-1.5645531729839681,-1.5762697726252504,-1.2140374992685372,77.53498827182365,44.383246916653306,-0.024122768112224448,0.043050518871743486,-0.04069017229058117,0.0,0.001096339599198207,0.12588240370941822,-10.390201430821643,-340.26352,954.844693878958,11.76509440042084,-0.017260370835671474,0.036393227240481066,0.02608975508016047,-0.06314106653507033,0.11928660360721419,-10.514744741342685,2294028.0,-0.006025708955911736,0.029669683955911803,0.014619886104208406,-340.26352,100.01672,98.39209827611222,0.08123121765931864,-0.10686077283567157,15.366224615410822,15.461843759418839,-0.001912392080160323,0.004747666669338782,-0.36768323306412826,75.59484687709418,497.88293685931865,11.765119838817634,95485.99997378758,1.134531659232465,0.009686423406818856,0.08890359427454042,-0.02458005423646989,-0.010581829849699412,0.044327699873747455,0.017572840256513015,0.02337534320240482,0.0818636237995992,-1.5652044910901803,0.7081014718156313,0.03713248196993988,0.02077969691783567,-0.7048273627515029,0.26994887008617235,398713605.0801603,327306892.6234469,498534.42338296596,15.487010475250502,-0.349537169212425,-15.494021249779559,0.26206374786973974,4.689653792188377,0.0,0.0,0.0,39.8714138,32.7364372,-5.889150651871743,-490.9884724110221,-98.41687507352705,-0.32552547500400814,-15.55672858018036,0.22290739220641315,0.34697921837274615,0.09732880612224412,-0.6878421696412828,-1.6100739897995993,98.58635492158317,0.0018792743226452896,0.08201341916432868,0.01188789877154309,0.2702158618677355,56923988.0741483,0.0,0.0,0.0,1.0,0.0
