timestamp,control[0],control[1],control[2],control[3],control[4],output[2],output[3],output[4],output[5],output[6],output[7],indicated_airspeed_m_s,true_airspeed_m_s,indicated_airspeed_m_s.1,equivalent_airspeed_m_s,true_airspeed_m_s.1,equivalent_ground_minus_wind_m_s,true_ground_minus_wind_m_s,differential_pressure_raw_pa,differential_pressure_filtered_pa,temperature,gyro_bias[0],gyro_bias[1],gyro_bias[2],accel_bias[0],accel_bias[1],accel_bias[2],instance_count,seq_reached,seq_current,seq_total,item_changed_index,item_do_jump_remaining,valid,warning,finished,failure,stay_in_failsafe,flight_termination,item_do_jump_changed,execution_mode,nav_roll,nav_pitch,nav_bearing,target_bearing,xtrack_error,wp_dist,acceptance_radius,rollspeed_integ,pitchspeed_integ,yawspeed_integ,additional_integ1,x,y,z,temperature.1,pressure,temperature.2,gyro_rad[0],gyro_rad[1],gyro_rad[2],accelerometer_m_s2[0],accelerometer_m_s2[1],accelerometer_m_s2[2],x.1,y.1,z.1,temperature.3,altitude_sp,altitude_filtered,height_rate_setpoint,height_rate,airspeed_sp,airspeed_filtered,airspeed_derivative_sp,airspeed_derivative,throttle_integ,pitch_integ,baro_alt_meter,baro_temp_celcius,baro_pressure_pa,rho,xyz[0],xyz[1],xyz[2],xyz[0].1,xyz[1].1,xyz[2].1,roll_body,pitch_body,yaw_body,q_d[0],q_d[1],q_d[2],q_d[3],thrust_body[0],lat,lon,alt,vel_m_s,vel_n_m_s,vel_e_m_s,vel_d_m_s,cog_rad,ground_contact,maybe_landed,landed,ref_lat,ref_lon,x.2,y.2,z.2,vx,vy,vz,ax,ay,az,yaw,dist_bottom,roll,pitch,yaw.1,thrust_body[0].1,timestamp.1,isTakeoff,isClimbing,isDescending,isCruise,isLand
33447422.0,-0.039274082,0.030640402,-0.030467246,0.56072104,0.0,1484.0,1500.0,1558.0,1521.0,1478.0,1510.0,18.8177349,19.23522546,18.47731874,18.49239104,18.90289506,18.54721597,18.95893705,210.0730296,210.0730296,12.05438658,-0.001990787,-0.00676167,0.001077655,-0.186178598,0.192863131,-0.091933154,2.0,-0.8375675140000001,0.162432486,11.0,0.0,0.0,1.0,0.0,0.0,0.0,0.0,0.0,0.0,0.0,-0.103890126,0.283283153,-0.245750199,-0.066069689,12.80116961,209.5705154,53.70124172,-0.026006901,-0.02230329,-0.035161731,0.0,2.420954052,2.1800686540000003,-12.33431738,-1.05e+21,959.9496318,12.05369803,0.042002855,0.145546561,0.05706854400000001,2.526787712,2.206652103,-13.09836844,0.022805465,0.113469539,0.052931038,-1.05e+21,61.78362361,60.29234323,4.074521127,5.804637607,15.33745114,19.20549038,-0.077360791,0.162295673,-0.218349459,23.37064541,453.2520801,12.05618195,95998.03001,1.140615393,-0.248469925,-0.155821129,-0.212318237,0.03520122,0.143149202,0.043466203,-0.103026287,0.285343047,-0.242439667,0.982157924,-0.033422167999999995,0.14712049900000002,-0.112268138,0.56103422,398731007.5,327364820.7,453156.5221,18.90026805,18.5572193,-3.474974995,-3.4228805760000003,6.097594639,0.0,0.0,0.0,39.8714138,32.7364372,191.399527,3.182365212,-53.92850424,18.44216458,-3.23707207,-4.173998694,-0.291524783,1.154559057,-2.988002627,-0.119832441,54.01166824,-0.040474225,0.095980412,-0.028849839,0.5598811,33447422.0,0.0,1.0,0.0,0.0,0.0
33467649.0,-0.040486429054108215,0.028265503583166332,-0.03036002129058116,0.5601114201603207,0.0,1484.0,1500.0,1558.0,1520.5390781563126,1478.4609218436874,1509.0781563126252,18.80778329779559,19.22514647282565,18.501950795110222,18.516563178076154,18.9276654101002,18.57083936218437,18.983146720941882,210.59960510501003,210.59960510501003,12.05392967278557,-0.0019910580220440883,-0.006759300861723447,0.001077156743486974,-0.18615746565531063,0.19291754881563125,-0.09189613091382766,2.0,-0.8363688770661323,0.16363112293386772,11.0,0.0,0.0,1.0,0.0,0.0,0.0,0.0,0.0,0.0,0.0,-0.1038960953987976,0.28360952346092183,-0.24452827629458918,-0.06585108298797596,12.730658758897796,209.14996118356714,53.671700317194386,-0.02603128607014028,-0.022345356953907814,-0.03532887831462926,0.0,2.4579174981122245,2.1644021274869742,-12.25223135254509,-1.05e+21,959.9375604412826,12.053098697935871,0.040164981232464925,0.1442299843066132,0.05409329211623247,2.4653392448456914,2.205141787488978,-13.029882916352705,0.020125271773547095,0.10870791398997996,0.05553183651703407,-1.05e+21,61.899608636853706,60.428267795731465,4.07352746708016,5.81058437960521,15.337554773667335,19.200237581002003,-0.07725366170140281,0.1539109925791583,-0.21857162978156314,23.557067535851704,453.292469344489,12.055585613927855,95997.55520519038,1.1406097268877755,-0.13829675293587174,0.07240871725250503,-0.18028471966533066,0.032226400460921845,0.13857145023647294,0.0430695405751503,-0.1050499366993988,0.2856655447955912,-0.24262289219038077,0.9820909921563127,-0.03438187088577154,0.14739523883967937,-0.11219783727855712,0.5616630750300602,398731044.97294587,327364811.8503006,453239.59063306614,18.89260692054108,18.555030299198396,-3.4552749428156315,-3.5038696795270545,6.098645286835671,0.0,0.0,0.0,39.8714138,32.7364372,191.79686048096193,3.1122503526813627,-54.019380060841684,18.435733503446894,-3.2137183751703406,-4.236473198068136,-0.3178700527995992,1.193187327,-2.894264307280561,-0.11897255073947896,54.10254406084168,-0.03846349862725451,0.09095151684969939,-0.028807593669338678,0.5602835492985971,33467648.633266535,0.0,1.0,0.0,0.0,0.0
33487875.0,-0.041698776108216436,0.025890605166332667,-0.030252796581162325,0.5595018003206412,0.0,1484.0,1500.0,1558.0,1520.0781563126252,1478.9218436873748,1508.1563126252504,18.797831695591185,19.215067485651304,18.52658285022044,18.540735316152304,18.952435760200398,18.594462754368738,19.007356391883768,211.12618061002004,211.12618061002004,12.053472765571142,-0.0019913290440881763,-0.006756931723446894,0.0010766584869739478,-0.18613633331062127,0.1929719666312625,-0.0918591078276553,2.0,-0.8351702401322645,0.16482975986773546,11.0,0.0,0.0,1.0,0.0,0.0,0.0,0.0,0.0,0.0,0.0,-0.10390206479759519,0.2839358939218437,-0.24330635358917838,-0.06563247697595191,12.660147907795592,208.72940696713425,53.64215891438877,-0.026055671140280564,-0.022387423907815632,-0.03549602562925852,0.0,2.494880944224449,2.148735600973948,-12.17014532509018,-1.05e+21,959.925489082565,12.052499365871743,0.03832710746492986,0.14291340761322643,0.051118040232464926,2.403890777691383,2.203631471977956,-12.961397392705411,0.01744507854709419,0.10394628897995992,0.05813263503406814,-1.05e+21,62.01559366370741,60.56419236146293,4.072533807160321,5.816531152210421,15.33765840733467,19.19498478200401,-0.07714653240280561,0.14552631215831663,-0.21879380056312625,23.743489661703407,453.33285858897796,12.054989277855713,95997.08040038077,1.1406040607755512,-0.028123580871743492,0.30063856350501006,-0.1482512023306613,0.029251580921843687,0.1339936984729459,0.0426728781503006,-0.1070735863987976,0.2859880425911824,-0.24280611738076152,0.9820240603126252,-0.03534157377154309,0.14766997867935872,-0.11212753655711423,0.5622919300601202,398731082.4458918,327364803.0006012,453322.6591661323,18.884945791082163,18.552841298396793,-3.4355748906312624,-3.5848587830541083,6.099695934671342,0.0,0.0,0.0,39.8714138,32.7364372,192.19419396192384,3.0421354933627254,-54.110255881683365,18.429302426893788,-3.1903646803406818,-4.298947702136273,-0.3442153225991984,1.231815597,-2.800525987561122,-0.11811266047895791,54.19341988168337,-0.03645277225450902,0.0859226216993988,-0.028765348338677353,0.5606859985971944,33487875.266533066,0.0,1.0,0.0,0.0,0.0
33511164.0,-0.04126011227254509,0.02360318436673347,-0.030278603180360724,0.5590568002805612,0.0,1484.0,1500.0,1558.0,1520.3827655310622,1478.6172344689378,1507.2344689378758,18.806690745611224,19.224128673547096,18.55121490533066,18.564907454228457,18.977206114128254,18.618086146553104,19.031566058997996,211.65275615330663,211.65275615330663,12.053015862184369,-0.0019916000661322646,-0.0067545622024048095,0.0010761606132264527,-0.18611520096593187,0.1930263844468938,-0.09182208435871743,2.0,-0.8339716035811623,0.16602839641883765,11.0,0.0,0.0,1.0,0.0,0.0,0.0,0.0,0.0,0.0,0.0,-0.10390803419639279,0.28426226438276553,-0.24208443126653306,-0.06541387058116233,12.589637060521042,208.30885271242485,53.61261751158317,-0.026082200080160323,-0.02243384941282565,-0.03568077901002004,0.0,2.51111187850501,2.140959343024048,-12.088947600741484,-1.05e+21,959.9111432927856,12.051778268436873,0.03675414457314629,0.1361671843527054,0.05112382065731463,2.440121336907816,2.1833884310941882,-12.840885968517034,0.017923817096192386,0.09939542041282565,0.060402608154308625,-1.05e+21,62.13416066607215,60.703428649018036,4.071500932911824,5.82170539412024,15.337763526132264,19.189967043146293,-0.07704407475751503,0.1370961052224449,-0.21902161369138276,23.93300375220441,453.4565513925852,12.054383211883769,95995.66359811624,1.140587253507014,-0.0293771233246493,0.0928986356152304,0.11885185217835673,0.02954000021042084,0.13033652039478957,0.04552772967935872,-0.10560315673747495,0.28627944566332664,-0.2405966304529058,0.9821522355430862,-0.03476423611823647,0.14769340347494989,-0.11114108538877755,0.5630708486993988,398731119.8805611,327364794.1509018,453405.72773747495,18.877284661623246,18.550652293767534,-3.4158748384468938,-3.665847886963928,6.100746582124248,0.0,0.0,0.0,39.8714138,32.7364372,192.61148950741483,2.9699651391242483,-54.209595348877755,18.422306805631262,-3.16515439546493,-4.358674533408818,-0.3487213224549098,1.2367340630340682,-2.7038213046392783,-0.11704073380761523,54.29275934887776,-0.03953435391382766,0.08052310502004008,-0.02872997441482966,0.5612241842084168,33511163.641282566,0.0,1.0,0.0,0.0,0.0
33535077.0,-0.04048433103006012,0.021333625488977957,-0.030331573240480966,0.5586454137074148,0.0,1484.0,1500.0,1558.0,1520.8436873747496,1478.1563126252504,1506.312625250501,18.819390714148298,19.23709806472946,18.57584696044088,18.589079592304607,19.001976468837675,18.641709538737473,19.055775725330662,212.17933170440884,212.17933170440884,12.052558959579159,-0.0019918710881763526,-0.0067521926032064125,0.0010756628176352705,-0.18609406862124248,0.19308080226252505,-0.09178506081162326,2.0,-0.8327729671082165,0.16722703289178356,11.0,0.0,0.0,1.0,0.0,0.0,0.0,0.0,0.0,0.0,0.0,-0.10391400359519037,0.2845886348436874,-0.2408625090220441,-0.06519526410821644,12.519126214028056,207.8882984498998,53.583076108777554,-0.026109166773547094,-0.022481164883767536,-0.03586912734669338,0.0,2.5231094726733465,2.1347941870320644,-12.007931257655311,-1.05e+21,959.8963330903808,12.05103230791583,0.03523527343086172,0.1283122898036072,0.05173829354308617,2.4962968282104208,2.1593203834589176,-12.709751454689378,0.019047573128256515,0.09488758588376753,0.06260503053907816,-1.05e+21,62.25325487809619,60.84334115202405,4.070460051549099,5.826721894160321,15.337868948176352,19.184997300861724,-0.07694257101002004,0.12865660229659318,-0.2192505789218437,24.123149186272546,453.5972538234469,12.053775159178358,95994.05445082166,1.1405681713426854,-0.053382717432865726,-0.2038612985130262,0.43395339857114235,0.030494735280561125,0.12686731285971944,0.049046502905811626,-0.10341927631663327,0.28656449955110225,-0.2378985792705411,0.9823202493907816,-0.033873052490981964,0.14766551263326655,-0.1099675668517034,0.5638804085991984,398731157.3074148,327364785.3012024,453488.7963166333,18.86962353216433,18.548463288356714,-3.396174786262525,-3.7468369909519037,6.101797229498998,0.0,0.0,0.0,39.8714138,32.7364372,193.0328610765531,2.8973750764989976,-54.31066299517034,18.415195910841682,-3.139565016286573,-4.41784032154509,-0.34876799493987976,1.2347693753787576,-2.606510924519038,-0.11592551174348698,54.393826995170336,-0.04365572621843688,0.07504791169338677,-0.02869600355310621,0.5617900856112225,33535077.188376755,0.0,1.0,0.0,0.0,0.0
33557772.0,-0.04105231081362725,0.019189745024048094,-0.030254662498998,0.5584745953106213,0.0,1484.0,1500.0,1558.3046092184368,1520.6953907815632,1478.3046092184368,1505.3907815631262,18.819061343206414,19.236833193627255,18.600479018597195,18.61325173038076,19.026746820501003,18.665332930921842,19.079985394709418,212.7059072250501,212.7059072250501,12.052102053927856,-0.0019921421102204405,-0.0067498233086172345,0.0010751650220440882,-0.18607293597194388,0.19313522038276554,-0.09174803726452906,2.0,-0.8315743306352705,0.16842566936472947,11.0,0.0,0.0,1.0,0.0,0.0,0.0,0.0,0.0,0.0,0.0,-0.10391997299398797,0.284915005,-0.2396405867775551,-0.06497665793987975,12.448615364488978,207.46774418737473,53.55353470597194,-0.026134744448897795,-0.022525891480961926,-0.03605518319438878,0.0,2.5293869863927854,2.1308059491482965,-11.927159997054108,-1.05e+21,959.880895362525,12.050252748997995,0.03112367949899799,0.123021886252505,0.051728025410821644,2.4850071009318637,2.1366777503967938,-12.57582753981964,0.021042875533066135,0.09043789881763527,0.06471617890380763,-1.05e+21,62.37234908707415,60.98325365503006,4.069419170186373,5.831738394200401,15.33797437022044,19.180027555531062,-0.07684106695791583,0.12021709937074147,-0.2194795441523046,24.31329461729459,453.68298781503006,12.053148336452907,95993.07601214429,1.1405565688577153,-0.08719516268336676,-0.34791923907014033,0.20715309351703376,0.028730115721442885,0.12383852243086171,0.05192759440080161,-0.1040690791983968,0.2868264390821644,-0.2371024803286573,0.982335391751503,-0.03423466748496994,0.14781525678957916,-0.10951949435871743,0.5647152471042084,398731194.73426855,327364776.4210421,453571.8648653307,18.86196239965932,18.54627428294589,-3.3764747340781565,-3.8278260946352707,6.1028478768737475,0.0,0.0,0.0,39.8714138,32.7364372,193.45974013266533,2.8242179049198395,-54.41406575440882,18.40792925717435,-3.113463405941884,-4.476248029937876,-0.3427892335971944,1.2235041854388777,-2.5083821276613225,-0.1147517891743487,54.497229754408814,-0.0439401229238477,0.07002744022645291,-0.028629870527054107,0.5625366242404809,33557772.298597194,0.0,1.0,0.0,0.0,0.0
33579842.0,-0.042309852176352705,0.017110357428857713,-0.030111102398797596,0.5584272263727454,0.0,1484.0,1500.0,1558.7655310621242,1520.2344689378758,1478.7655310621242,1504.4689378757514,18.812045863847693,19.229777056352706,18.625111078316632,18.637423868456914,19.0515171706012,18.68895632310621,19.104195065651304,213.23248273006013,213.23248273006013,12.051645146713428,-0.001992413132264529,-0.006747454170340682,0.001074667226452906,-0.18605180316633269,0.19318963865931868,-0.09171101371743487,2.0,-0.8303756941623246,0.16962430583767535,11.0,0.0,0.0,1.0,0.0,0.0,0.0,0.0,0.0,0.0,0.0,-0.10392594239278558,0.285241375,-0.23841866453306612,-0.0647580519278557,12.378104513386774,207.04718992484968,53.523993303166336,-0.026159609338677354,-0.02256928957715431,-0.03624006263326653,0.0,2.532729195671343,2.127934813977956,-11.846514502464931,-1.05e+21,959.8651356150301,12.049455948797595,0.025681609398797593,0.119047471503006,0.05139716649298597,2.4390970641182363,2.1147665800761524,-12.440472221783567,0.023485418839679358,0.08601805058116231,0.06678048928456913,-1.05e+21,62.491443294488974,61.12316615803608,4.068378288823648,5.836754894240481,15.338079792264528,19.175057808637273,-0.076739562749499,0.11177759644488978,-0.21970850938276554,24.503440046753507,453.74051431803605,12.052511881743488,95992.42122657315,1.1405488046292585,-0.12604007102004008,-0.4136169460841683,-0.2977284247795592,0.025570037865731463,0.12103573551703406,0.05448145448096192,-0.10617300903807615,0.28707651729859723,-0.23728238319438877,0.9822720869018036,-0.03523916598196393,0.14805615574749498,-0.10944369023046092,0.5655630575250501,398731232.16112226,327364767.5252505,453654.9333983968,18.854301265591182,18.544085277535068,-3.356774681893788,-3.908815198162325,6.103898524248497,0.0,0.0,0.0,39.8714138,32.7364372,193.8894453991984,2.750769716903808,-54.51866679529058,18.40058267460922,-3.0870989401302604,-4.534266723725452,-0.33371847331663324,1.2074663693266534,-2.409833353793587,-0.11354804660921844,54.60183079529058,-0.042255545308617234,0.06524031287174349,-0.02854723323246493,0.5633758582885771,33579842.158316635,0.0,1.0,0.0,0.0,0.0
33601912.0,-0.042482361198396795,0.015015482266533067,-0.030068878388777556,0.5585034735470942,0.0,1484.1778463747496,1500.0,1559.2264529058116,1520.4529058116232,1478.5470941883768,1503.4984876573146,18.825599495951902,19.243754299759516,18.64974313577154,18.661596006533067,19.07628752296593,18.71257971755511,19.128404736593186,213.75905823507014,213.75905823507014,12.051188241763526,-0.0019926841543086173,-0.006745085032064129,0.0010741694308617235,-0.18603067058717435,0.19324405670941888,-0.09167399017034068,2.0,-0.8291770576893788,0.17082294231062123,11.0,0.0,0.0,1.0,0.0,0.0,0.0,0.0,0.0,0.0,0.0,-0.10393191179158318,0.28556774522645295,-0.23719674228857715,-0.06453944591583166,12.30759366228457,206.62663566232465,53.49445190036072,-0.02618597153507014,-0.022615199488977958,-0.036434436563126255,0.0,2.5407707277975953,2.133982081975952,-11.763535763947896,-1.05e+21,959.85077161002,12.04869995767535,0.023096765811623246,0.11443029214629258,0.05086920455110221,2.4213500191162325,2.105597341839679,-12.316823047034068,0.023927529034068137,0.0825060022244489,0.06852672210220441,-1.05e+21,62.610537501903806,61.26307865877756,4.067337407234469,5.841771394280561,15.338185216573146,19.170088064008016,-0.07663805854108216,0.10333809351903808,-0.21993747461322646,24.693585478476955,453.8538762270541,12.051867064128256,95991.11725713428,1.1405333206212425,-0.06452135562725454,-0.376953652238477,-0.39255068679358723,0.024956217316633268,0.11706119227254509,0.05608705502004008,-0.10710380820440882,0.2873142255250501,-0.23665009029458917,0.982273733274549,-0.035728404633266535,0.14821286744088175,-0.1090560835490982,0.5663850221963928,398731269.4521042,327364758.7653307,453740.2143763527,18.84623787190381,18.541292922324647,-3.33627010797996,-3.9855805571182366,6.1049737297615225,0.0,0.0,0.0,39.8714138,32.7364372,194.30801685951903,2.6799581805330663,-54.62216253991984,18.393746743346693,-3.0610850510440883,-4.588492271783568,-0.3250445443527054,1.2049320991843686,-2.3273258826132266,-0.11227450287975951,54.705326539919845,-0.04412132669539078,0.060547778745490985,-0.028391029767535072,0.5643547213867735,33601912.24448898,0.0,1.0,0.0,0.0,0.0
33623983.0,-0.04153142965531062,0.012904571304609218,-0.03013157758717435,0.5587077126252505,0.0,1484.5398345711424,1500.0,1559.687374749499,1521.374749498998,1477.625250501002,1502.4777103226452,18.860450349659317,19.27950946829659,18.67437519088176,18.68576814460922,19.101057877675352,18.736203114348697,19.152614407535072,214.28563374008016,214.28563374008016,12.050731339158316,-0.0019929551763527053,-0.006742715893787575,0.001073671635270541,-0.18600953824248498,0.1932984745250501,-0.0916369666232465,2.0,-0.8279784212164328,0.17202157878356714,11.0,0.0,0.0,1.0,0.0,0.0,0.0,0.0,0.0,0.0,0.0,-0.10393788119038076,0.2858941156873748,-0.23597482004408818,-0.06432083990380762,12.237082811182365,206.2060813997996,53.46491049755511,-0.02621388404008016,-0.02266371013026052,-0.03663864107214429,0.0,2.5536779304829658,2.149263448829659,-11.678141188797595,-1.05e+21,959.8378527543086,12.047986220200402,0.023470289498997994,0.10914759545290581,0.05013716248697395,2.43276288598998,2.109621077531062,-12.20529439232465,0.022298394324649296,0.07993388825651303,0.0699436179739479,-1.05e+21,62.72963170931864,61.40299115717435,4.066296525410822,5.8467878943206415,15.338290643226452,19.165118321723448,-0.07653655433266533,0.09489859059318637,-0.22016643984368736,24.88373091254509,454.02505001663326,12.05121358757515,95989.14112386774,1.1405098435671341,0.10091367814028063,-0.23430595927254502,-0.06279832062124241,0.026978787076152307,0.11187341459719438,0.05671082930861723,-0.10681994994789579,0.2875391258857715,-0.23517685133667335,0.9823426300280561,-0.035684144152304614,0.14828241178957915,-0.10834563705611222,0.567180226224449,398731306.60240483,327364750.1460922,453827.78611583164,18.83775797931864,18.5378758597996,-3.314932533691383,-4.057972658420842,6.106074362727455,0.0,0.0,0.0,39.8714138,32.7364372,194.71506039659317,2.6118766286092185,-54.72451386276553,18.387439539539077,-3.035434148478958,-4.638790403466935,-0.3167814938316633,1.2163793766392785,-2.261427547843687,-0.1109286871482966,54.80767786276553,-0.04966314350901804,0.055953186280561125,-0.02815865602004008,0.5654781561563126,33623982.56513026,0.0,1.0,0.0,0.0,0.0
33647239.0,-0.041180157779559114,0.01074232436272545,-0.03012247202004008,0.5589997062124249,0.0,1484.6688912324648,1500.0,1560.1482965931864,1521.8079768216433,1477.1920231783567,1501.5205946392784,18.87431016316633,19.293808851422845,18.699007245991982,18.709940284168336,19.125828230901806,18.759826509659316,19.176824076993988,214.81220925991985,214.81220925991985,12.05027443507014,-0.0019932261983967936,-0.006740346755511022,0.0010731736913827655,-0.18598840589779558,0.19335289248897797,-0.09159994322444891,2.0,-0.826779784743487,0.17322021525651302,11.0,0.0,0.0,1.0,0.0,0.0,0.0,0.0,0.0,0.0,0.0,-0.10394385058917836,0.286220486,-0.2347528977995992,-0.06410223389178356,12.166571961563127,205.7855271521042,53.4353690947495,-0.0262411192745491,-0.02271290960921844,-0.03684743017034068,0.0,2.5680543349519036,2.16733307547495,-11.592017144188377,-1.05e+21,959.825370246493,12.047285243647295,0.02385590336272545,0.1046555260300601,0.05127685610621243,2.449284563529058,2.111190464416834,-12.1079382798998,0.020043841867735467,0.07764559009218437,0.07126106985771544,-1.05e+21,62.84623445240481,61.54009032386774,4.065271722496994,5.85094214117034,15.338392080701404,19.160836359759518,-0.07644888589979959,0.08677985616432865,-0.22039155766733465,25.068989662444892,454.1608809316633,12.050556280521041,95987.57371380761,1.1404912079519038,0.165807900529058,-0.14576280826653307,0.11063673695390769,0.027302823416833665,0.10813749334268537,0.05820514300801604,-0.10673638210821644,0.2877550706152304,-0.2338317615450902,0.9824019410380761,-0.0357294712745491,0.14835998106012024,-0.10768363297995992,0.5679848487174349,398731343.58957916,327364741.66032064,453917.7824008016,18.82883726176353,18.533797602084167,-3.2927133081282562,-4.1257360838957915,6.107201908114228,0.0,0.0,0.0,39.8714138,32.7364372,195.1186230270541,2.5446194024288578,-54.82651962637274,18.381291984428856,-3.0098928504428857,-4.687902641699399,-0.3086425089819639,1.2320484183066132,-2.20054438452505,-0.10956104883166333,54.90968362637275,-0.053532583753507015,0.051579168537074144,-0.027966281867735473,0.5664566599238476,33647239.11022044,0.0,1.0,0.0,0.0,0.0
33672996.0,-0.04209303331062124,0.008471855625250498,-0.029961994244488976,0.5594766957915832,0.0,1484.306903036072,1500.0,1560.6092184368738,1521.211148024048,1477.788851975952,1500.6976845991983,18.843918594629258,19.262877119358716,18.723639301102207,18.73411242685371,19.150598581002004,18.783449901843685,19.201033743326654,215.33878481102204,215.33878481102204,12.04981752785571,-0.001993497220440882,-0.006737977617234469,0.0010726754348697395,-0.18596727355310622,0.19340731076553105,-0.09156292013827655,2.0,-0.8255811482705411,0.17441885172945892,11.0,0.0,0.0,1.0,0.0,0.0,0.0,0.0,0.0,0.0,0.0,-0.10394981998797595,0.286546856,-0.23353097555511024,-0.06388362787975951,12.09606111507014,205.36497293567135,53.40582769194389,-0.026266926749499,-0.02276356123246493,-0.03706588407815631,0.0,2.585527975613226,2.191280655194389,-11.504355299098197,-1.05e+21,959.8138076072145,12.046611168496995,0.024267004625250502,0.10183018436673345,0.05636237089579159,2.476576166254509,2.107585818685371,-12.040459418777555,0.01647084118637274,0.0759556063246493,0.07236888306412825,-1.05e+21,62.95758491933868,61.67125868318637,4.064280815663326,5.8532786650781565,15.338485108557114,19.158004313066133,-0.07639038477755511,0.07933733640480961,-0.22060856474148297,25.243946753827657,454.22220524629256,12.049890898356713,95986.86793645291,1.1404827786132263,0.018751223254508842,-0.17127788085170342,-0.04546199116232483,0.02404616768537074,0.10746224238076152,0.0615346478977956,-0.10707504812024048,0.2879521359058116,-0.2327568240501002,0.982441044264529,-0.035963658749499,0.14845446773346693,-0.10712375075551102,0.5688093263527054,398731380.23286575,327364733.4559118,454012.88988977956,18.818987237515028,18.528325473426854,-3.2686354663647292,-4.183741760328657,6.108386187793588,0.0,0.0,0.0,39.8714138,32.7364372,195.5148475300601,2.4790999440320642,-54.92779691374749,18.375480986032063,-2.9845826106032063,-4.734514888332666,-0.3007650679799599,1.2566173953406814,-2.150233744805611,-0.10814740614629258,55.010960913747496,-0.053876473392785576,0.0476701461523046,-0.027858231186372748,0.5671296334709418,33672996.34468938,0.0,1.0,0.0,0.0,0.0
33698383.0,-0.042738066466933865,0.006278580054108217,-0.029842181629258516,0.5599423422845692,0.0,1484.0,1500.0,1561.0838624549099,1520.7685184248496,1478.2314815751504,1499.8597194388778,18.822286969879762,19.240892000320642,18.748271356212424,18.758284568837677,19.175368931803607,18.807073294028054,19.225243410360722,215.86536035511023,215.86536035511023,12.049360621342684,-0.00199376824248497,-0.006735608478957916,0.001072177248496994,-0.18594614113827657,0.19346172897194389,-0.09152589698196392,2.0,-0.8243825117975953,0.1756174882024048,11.0,0.0,0.0,1.0,0.0,0.0,0.0,0.0,0.0,0.0,0.0,-0.10395578938677355,0.28687322607014026,-0.23230905331062124,-0.06366502186773547,12.025550267875753,204.94441871222446,53.37628628913828,-0.02629299072745491,-0.022814745641282566,-0.037285391072144285,0.0,2.60354434647495,2.2097850535010024,-11.419693125150301,-1.05e+21,959.802237497996,12.045935183426854,0.02461261057715431,0.09913900008817635,0.06082975699799599,2.4983643099218438,2.1038545436553107,-11.971243638116233,0.013170537218436874,0.07424407904008017,0.07332172510821643,-1.05e+21,63.06810040761523,61.80148419511022,4.063295297426854,5.855326217693387,15.338576800941883,19.15540276486974,-0.07633652048897795,0.072002317496994,-0.22082428235671342,25.417266146112226,454.2864711390781,12.049223007975952,95986.13030559118,1.1404739832124249,-0.08045543281763529,-0.2123819852805611,-0.16125689671342686,0.021294893857715432,0.10644091597795591,0.06495727291783568,-0.10730949626653306,0.2881453617174349,-0.23160160574348698,0.9824861332625251,-0.03615284197595191,0.14854035380561123,-0.10653226163727456,0.5696353048496994,398731416.87615234,327364725.251503,454107.9973787575,18.80913721256513,18.522853345470942,-3.2445576246713426,-4.241747436761523,6.109570467472947,0.0,0.0,0.0,39.8714138,32.7364372,195.91409326953908,2.413334945975952,-55.03029833979959,18.36969428843687,-2.958943345162324,-4.780892902901804,-0.2936751382705411,1.278900858767535,-2.0993823316593185,-0.10670486124649298,55.11346238188377,-0.05452638696993988,0.04370357093186373,-0.027741516356713427,0.5678533746933867,33698383.028056115,0.0,1.0,0.0,0.0,0.0
33721705.0,-0.041890834963927856,0.004515380695390781,-0.029948932050100203,0.5603447915831663,0.0,1484.0,1500.0,1561.6349585871744,1521.1849986452908,1477.8150013547092,1498.937875751503,18.849460746232467,19.268752296713426,18.772903411322645,18.782456706913827,19.200139286513025,18.830696686212423,19.249453081302605,216.39193586012024,216.39193586012024,12.048903718737474,-0.0019940392645290583,-0.006733239340681363,0.0010716794529058117,-0.18592500833266534,0.19351614678757514,-0.09148887343486974,2.0,-0.8231838753246493,0.17681612467535068,11.0,0.0,0.0,1.0,0.0,0.0,0.0,0.0,0.0,0.0,0.0,-0.10396175878557114,0.28719959653106214,-0.23108713106613227,-0.06344641585571142,11.955039416773547,204.5238644496994,53.346744886332665,-0.026320483793587174,-0.022868898426853707,-0.037510765260521044,0.0,2.6245844998817636,2.1979631553647296,-11.351743404709419,-1.05e+21,959.790625770541,12.04524855737475,0.02459331408416834,0.09719526409619239,0.061853283270541085,2.4894903245511024,2.099417762533066,-11.892350734308618,0.011389543511022043,0.07241252358917835,0.07341115639078155,-1.05e+21,63.17396387194389,61.92645670012024,4.062339801374749,5.855763787392786,15.338661052845692,19.15408542258517,-0.07630848998797594,0.06526623190581163,-0.2210328158436874,25.5814612148497,454.36712582444886,12.048541143246494,95985.21520519038,1.1404631483226453,0.08693088638076157,-0.34033926712424856,-0.05250193368737471,0.021359319208416834,0.1034914549759519,0.06889871009218437,-0.10696330201803607,0.2883171961462926,-0.22999910862925851,0.9825645715591182,-0.036091287246492985,0.14857832224248496,-0.10576467696793587,0.5704696452905812,398731453.51943886,327364717.04709417,454203.10486773547,18.799287183707413,18.517381221422845,-3.2204797833687375,-4.299753113194389,6.110754747152305,0.0,0.0,0.0,39.8714138,32.7364372,196.33017161222446,2.346201941246493,-55.1396199670541,18.364042981022045,-2.9314709370861722,-4.825965910256513,-0.2909727714769539,1.2884507463827655,-2.0455180379919837,-0.10510128972344689,55.22278428569138,-0.056881291058116235,0.03941634419839679,-0.027576529843687376,0.5688599643927855,33721705.21242485,0.0,1.0,0.0,0.0,0.0
33745027.0,-0.04104360346092185,0.0027521813366733453,-0.030055682470941886,0.5607472408817635,0.0,1484.0,1500.0,1562.186054719439,1521.601478865732,1477.398521134268,1498.0160320641282,18.87663452258517,19.29661259310621,18.797535466432866,18.80662884498998,19.224909641222443,18.854320078396796,19.273662752244487,216.91851136513026,216.91851136513026,12.048446816132264,-0.0019943102865731463,-0.00673087020240481,0.0010711816573146292,-0.1859038755270541,0.1935705646032064,-0.09145184988777555,2.0,-0.8219852388517034,0.1780147611482966,11.0,0.0,0.0,1.0,0.0,0.0,0.0,0.0,0.0,0.0,0.0,-0.10396772818436874,0.28752596699198396,-0.22986520882164327,-0.06322780984368737,11.884528565671342,204.10331018717434,53.31720348352705,-0.02634797685971944,-0.02292305121242485,-0.037736139448897796,0.0,2.645624653288577,2.186141257228457,-11.283793684268536,-1.05e+21,959.7790140430861,12.044561931322646,0.024574017591182367,0.09525152810420842,0.06287680954308618,2.4806163391803606,2.0949809814108216,-11.813457830501003,0.009608549803607213,0.07058096813827655,0.07350058767334669,-1.05e+21,63.27982733627254,62.05142920513026,4.061384305322645,5.856201357092185,15.3387453047495,19.1527680803006,-0.07628045948697396,0.05853014631462925,-0.22124134933066134,25.745656283587174,454.4477805098196,12.047859278517034,95984.30010478958,1.1404523134328657,0.2543172055791584,-0.46829654896793604,0.05625302933867746,0.02142374455911824,0.10054199397394789,0.07284014726653308,-0.10661710776953907,0.2884890305751503,-0.22839661151503007,0.9826430098557115,-0.03602973251703407,0.14861629067935872,-0.1049970922985972,0.571303985731463,398731490.16272545,327364708.84268534,454298.2123567134,18.7894371548497,18.511909097374748,-3.196401942066132,-4.357758789627255,6.111939026831663,0.0,0.0,0.0,39.8714138,32.7364372,196.7462499549098,2.279068936517034,-55.24894159430861,18.358391673607215,-2.90399852901002,-4.871038917611222,-0.28827040468336673,1.298000633997996,-1.9916537443246491,-0.1034977182004008,55.332106189499,-0.05923619514629259,0.03512911746492986,-0.027411543330661325,0.5698665540921843,33745027.39679359,0.0,1.0,0.0,0.0,0.0
33769512.0,-0.04235822273947896,0.0010254091923847706,-0.030270990338677355,0.5613102996392785,0.0,1484.0,1500.0,1563.3236000180361,1521.643783703407,1477.356216296593,1497.5470941883768,18.846205758617234,19.265571139038077,18.822167521543086,18.830800983066133,19.249679991402804,18.877943470581165,19.297872423186373,217.44508687014027,217.44508687014027,12.047989908997996,-0.0019945813086172347,-0.006728500611222445,0.001070683861723447,-0.1858827431743487,0.19362498287174348,-0.09141482634068136,2.0,-0.8207866023787576,0.17921339762124247,11.0,0.0,0.0,1.0,0.0,0.0,0.0,0.0,0.0,0.0,0.0,-0.10397369758316632,0.28785233745290584,-0.2286432865771543,-0.06300920383166332,11.814017714569138,203.68275592464929,53.2876620852505,-0.026372941805611224,-0.02297826651503006,-0.037962354230460925,0.0,2.668894504126252,2.1519571518537073,-11.228167508316632,-1.05e+21,959.7673716086173,12.043867465470942,0.0194016171983968,0.09046475423246493,0.06617309009619238,2.5242132806112227,2.0879515174188374,-11.756175445250502,0.008947874781563128,0.06866090538076153,0.07295335068737474,-1.05e+21,63.38569080513026,62.17640171014028,4.060428809723447,5.856638926338678,15.338829552124249,19.15145074254509,-0.07625242853306613,0.051794060270541085,-0.22144988281763528,25.909851356853707,454.65793686372746,12.047151186012025,95981.87566406814,1.1404235040701403,0.264486067250501,-0.24303119020641292,0.3150921584488977,0.019303465048096193,0.0971319064749499,0.07255405425651304,-0.10726755631062124,0.2886399955571142,-0.2274310290501002,0.9826720682845692,-0.03641219486973948,0.14870578756913827,-0.10446918629058116,0.5720586613987976,398731526.8513026,327364700.6382765,454393.3198004008,18.779587130521044,18.506436968797594,-3.1723241003106213,-4.415764466513026,6.113123306511022,0.0,0.0,0.0,39.8714138,32.7364372,197.17474036252506,2.210927181466934,-55.36329235563126,18.352840195691382,-2.8751743859478958,-4.915149629647295,-0.28880336783767535,1.2981609526032063,-1.9355677936633267,-0.10177540790781563,55.446457390420846,-0.0576448575270541,0.030989150791583167,-0.02725559364729459,0.5706930131863727,33769512.19038076,0.0,1.0,0.0,0.0,0.0
33794018.0,-0.04371110486372745,-0.0007007182224448897,-0.030488219577154307,0.5618762010420841,0.0,1484.0,1500.0,1564.4715249478957,1521.6794659679358,1477.3205340320642,1497.0861723446894,18.814757480661324,19.233487176112224,18.846799576653307,18.854973121142283,19.274450341503005,18.90156686276553,19.322082094128255,217.9716623751503,217.9716623751503,12.047533001783567,-0.0019948523306613226,-0.006726131012024048,0.0010701860661322645,-0.18586161082965932,0.1936794011482966,-0.09137780279358718,2.0,-0.8195879659058116,0.18041203409418838,11.0,0.0,0.0,1.0,0.0,0.0,0.0,0.0,0.0,0.0,0.0,-0.10397966698196393,0.28817870791382766,-0.22742136433266533,-0.06279059781963928,11.743506863466935,203.26220166212426,53.25812068705411,-0.026397862006012025,-0.023033500623246494,-0.03818858388977956,0.0,2.6922038186352704,2.1173772552004007,-11.172759448196391,-1.05e+21,959.7557286306613,12.043172860861723,0.014138011426853708,0.08562766110621242,0.06950959638877756,2.5687389110120242,2.0808761652344687,-11.699275547054109,0.008307028408817637,0.06673927612224449,0.07239484523647295,-1.05e+21,63.491554274068136,62.301374215150304,4.059473314132265,5.857076495577155,15.338913799418837,19.150133404869738,-0.07622439757114229,0.045057974218436866,-0.2216584163046092,26.0740464302004,454.87038528256517,12.046442629298598,95979.42450935871,1.1403943765751503,0.2718723190541082,-0.01151410329258512,0.5765876444809619,0.017144518194388777,0.09371366629458919,0.07219313770340682,-0.1079356445470942,0.28879059116833666,-0.22647671941082165,0.982700252733467,-0.036802515931863726,0.14879619646693387,-0.10394552238276553,0.5728119270701403,398731563.54068136,327364692.4338677,454488.42724328657,18.769737106272547,18.50096484014028,-3.1482462585470943,-4.473770143406814,6.114307586190381,0.0,0.0,0.0,39.8714138,32.7364372,197.6034504527054,2.1427675724288577,-55.47773212817635,18.347290484669337,-2.846326318372746,-4.959243309907816,-0.2893935934689379,1.2981550841462925,-1.8794425216392785,-0.10005099604408818,55.560897605450904,-0.055983674921843675,0.026851790490981964,-0.02709980390781563,0.5715162841282564,33794017.561122246,0.0,1.0,0.0,0.0,0.0
33820471.0,-0.04370486424248497,-0.0024444487454909824,-0.030746625541082165,0.5629546623246493,0.0,1484.0,1500.0,1565.2447003787574,1521.8699508797595,1477.1300491202405,1496.250501002004,18.8472638847495,19.266842716452903,18.86073017264529,18.86854177086172,19.28840789815631,18.91540159192385,19.336312069739478,218.26246142224448,218.26246142224448,12.046922986913827,-0.001994927358717435,-0.006723579284569139,0.0010695649779559118,-0.1858319716713427,0.19373475854709418,-0.09134152687174349,2.0,-0.8183893294328658,0.18161067056713429,11.0,0.0,0.0,1.0,0.0,0.0,0.0,0.0,0.0,0.0,0.0,-0.10429141923046092,0.28839110131262524,-0.22629841305611223,-0.06259576516633267,11.679438552104209,202.8429144276553,53.23270284122244,-0.02642573598196393,-0.02309073814228457,-0.038414934967935875,0.0,2.7090327961703404,2.0979693693286574,-11.11795628997996,-9.461943887775551e+20,959.741669230461,12.042466279258518,0.014361110072144289,0.08581062720040081,0.07292179983166333,2.601882882723447,2.1099284616773546,-11.625674390300603,0.008088169458917835,0.06489618873747495,0.07187688730661324,-9.461943887775551e+20,63.59741773925852,62.42634672016032,4.058517818166333,5.857514065190381,15.338998050460921,19.148816063446894,-0.07619636698396794,0.03832188816633266,-0.22186694979158317,26.2382414997996,454.90859800661326,12.045732686012025,95978.9915231062,1.1403892195571141,0.08955152438076139,-0.10081976566933878,0.5562012604729458,0.014785656723446892,0.09308331467735471,0.07365421798797596,-0.10993357072945892,0.2889264280200401,-0.226416118747495,0.9826564009599199,-0.03778052740280561,0.14896529751302606,-0.10376215088176353,0.5734117950300601,398731600.3799599,327364684.26693386,454585.487955511,18.759742398737476,18.495492696492988,-3.123734370296593,-4.530184321012024,6.115524699921844,0.0,0.0,0.0,39.8714138,32.7364372,198.0174501260521,2.0780694416933865,-55.589971266733464,18.342204769739478,-2.8183400775851704,-4.999398060767535,-0.28860161440881765,1.3032576884348697,-1.8241063056713427,-0.09837410728857715,55.673136695571145,-0.05909045942284569,0.02358283308216433,-0.026919600362725452,0.5722387699398797,33820470.87975952,0.0,1.0,0.0,0.0,0.0
33847372.0,-0.04338609807014028,-0.00419222704208417,-0.0310144999498998,0.5641509849699399,0.0,1484.0,1500.0,1565.9317034649298,1522.0960321222444,1476.9039678777556,1495.3286573146293,18.894476445671344,19.31524584310621,18.87220000531062,18.87967218529058,19.299879090541083,18.926985452044086,19.348247249098197,218.49904449238477,218.49904449238477,12.046277765470942,-0.001994957318637275,-0.006720985677354709,0.0010689155390781564,-0.1858003764008016,0.19379033189378755,-0.09130542286372745,2.0,-0.8171906929599199,0.18280930704008017,11.0,0.0,0.0,1.0,0.0,0.0,0.0,0.0,0.0,0.0,0.0,-0.10467348518236473,0.2885772860821643,-0.22519821980961924,-0.06240639911422846,11.616851680360721,202.42391854188378,53.208233191923846,-0.026454289168336673,-0.023148436338677355,-0.038641313965931866,0.0,2.724371642743487,2.0820502345991985,-11.063292226853708,-8.185190380761522e+20,959.7270541823648,12.041756943587174,0.015845857326653306,0.08714793846292586,0.07635140957114228,2.632409681581162,2.1472881853446895,-11.548232837194389,0.0079663450501002,0.06307116178356713,0.07136825313827655,-8.185190380761522e+20,63.703281203587174,62.55131922517034,4.0575623221142285,5.85795163488978,15.33908230236473,19.147498721162325,-0.07616833648296593,0.03158580211422845,-0.2220754832785571,26.402436568537073,454.90674583827655,12.045022423887776,95979.02260767535,1.140389574466934,-0.13639174622044115,-0.2638975040861725,0.47099712025250495,0.012380825581162321,0.09309402834468938,0.07553426011222444,-0.1122372885250501,0.2890588711462926,-0.22656102335671344,0.9825959847074148,-0.038893676240480964,0.1491524935450902,-0.10365702843687376,0.5739763897194389,398731637.2537074,327364676.10861725,454682.99781523045,18.74971442178357,18.490020549398796,-3.0991226745651304,-4.586232538887775,6.1167493637294585,0.0,0.0,0.0,39.8714138,32.7364372,198.42806719018037,2.0141672658617233,-55.70170437715431,18.337225749098195,-2.7905520108717434,-5.038647068503006,-0.28749180218436876,1.309534968274549,-1.7689515304008014,-0.09670814630661323,55.784869644669335,-0.06329362138677355,0.020513561899799596,-0.02673378294789579,0.5729380805611223,33847372.12224449,0.0,1.0,0.0,0.0,0.0
33870429.0,-0.044160729797595194,-0.005672348376753509,-0.031122438855711424,0.5651088644889779,0.0,1484.0,1500.0,1566.7174326352706,1522.124246262525,1476.875753737475,1494.7034068136272,18.913229588316632,19.33453048286573,18.876611830681362,18.883809211182363,19.304218851022046,18.93211332971944,19.353600453226452,218.5801243480962,218.5801243480962,12.04553155997996,-0.001994857963927856,-0.006718271949899799,0.0010681848336673346,-0.1857631707735471,0.19384652512024048,-0.09126981209018036,2.0,-0.8159920564869739,0.18400794351302605,11.0,0.0,0.0,1.0,0.0,0.0,0.0,0.0,0.0,0.0,0.0,-0.10525722619639279,0.28868829871543084,-0.22416330138476953,-0.06223271216432866,11.558513894549098,202.00575827775552,53.18648318054108,-0.02648227586172345,-0.023206415112224446,-0.038869025260521044,0.0,2.7354364708717434,2.0761375948997998,-11.009027117154309,-6.220340681362722e+20,959.7108453611223,12.04103971260521,0.013611517030060112,0.08495280885971944,0.07788261767535071,2.618070796511022,2.156139647176353,-11.468241914388779,0.008122836569138276,0.06129793542284569,0.07088636099799599,-6.220340681362722e+20,63.80914533228457,62.676115912705406,4.0566193259819645,5.857654398232465,15.339169861282565,19.14633377438878,-0.07614328644689379,0.025195937593186363,-0.22228550773947894,26.565606661643287,455.0141161276553,12.044303806733467,95977.77324607215,1.140374708511022,-0.05652381802404771,-0.1915148925310618,0.3201942596472943,0.013251476162324654,0.09120847762725451,0.07577357542284568,-0.11179612031663326,0.2891769016232465,-0.2248424851763527,0.9826844371763527,-0.038797967306613224,0.149155349496994,-0.10284133723046092,0.5745914791022044,398731674.7503006,327364668.03927857,454788.46918517037,18.739096698937875,18.484548345951904,-3.072741742937876,-4.635793583096192,6.118107864322645,0.0,0.0,0.0,39.8714138,32.7364372,198.82898218697395,1.9525480615090178,-55.811986093987976,18.33255275034068,-2.763332350466934,-5.075298208214429,-0.28547037580360723,1.3191814725631261,-1.714317167026052,-0.09507352840280561,55.89515087096192,-0.0676294895230461,0.01731278515430861,-0.02654411041482966,0.5735428254108217,33870428.62725451,0.0,1.0,0.0,0.0,0.0
33891355.0,-0.04554116306412826,-0.007004173286573149,-0.031141764847695392,0.5659346336272545,0.0,1484.0,1500.0,1567.5578613927855,1522.0428313326654,1476.9571686673346,1494.2424849699398,18.91621467488978,19.337681906913826,18.877113138496995,18.884071521803605,19.30460741274549,18.933664244148297,19.35530688729459,218.57504701743485,218.57504701743485,12.044729403867734,-0.001994686961923848,-0.006715491669338677,0.0010674091022044088,-0.18572285670541083,0.19390306179358718,-0.09123447459519038,2.0,-0.814793420014028,0.18520657998597195,11.0,0.0,0.0,1.0,0.0,0.0,0.0,0.0,0.0,0.0,0.0,-0.1059527060961924,0.2887576619218437,-0.22316454873947894,-0.062067712284569136,11.502530332024048,201.58806099318636,53.16623999557114,-0.026509948687374753,-0.02326454934068136,-0.03909747471943888,0.0,2.744133261753507,2.0757690943386775,-10.954983049218436,-3.874248496993983e+20,959.6937535034068,12.04031810719439,0.009316601198396782,0.08080051607414829,0.07836200865731463,2.5788738973727456,2.149195990963928,-11.386838502965931,0.008433530156312626,0.059553409390781555,0.07041928538677354,-3.874248496993983e+20,63.91500982907816,62.80081518785571,4.055683255480962,5.856950039134269,15.339259252464931,19.14525326296593,-0.076119887749499,0.018997898515030046,-0.2224963582805611,26.72820886284569,455.18200156252504,12.043580560440882,95975.81444807615,1.1403514093727454,0.19278004464128307,0.011325480494990436,0.13304616207214387,0.01593692067134269,0.08827229393987975,0.07510383939078155,-0.10983413688977955,0.28928694671342686,-0.22209149896392785,0.9828553709639278,-0.038032485823647294,0.1490560710801603,-0.10163195252104208,0.5752345452745491,398731712.591984,327364660.0192385,454898.3516621243,18.72815222498998,18.479076111282566,-3.04538055898998,-4.68176038243487,6.119540517729459,0.0,0.0,0.0,39.8714138,32.7364372,199.22452171402804,1.892193746759519,-55.92146366032064,18.328049304248495,-2.7364276178817635,-5.110509988615231,-0.2829438659038076,1.3306947093166333,-1.6599711399719437,-0.09345627625851703,56.0046277643487,-0.07203888405210422,0.014039147218436868,-0.02635230193787575,0.5740951757114229,33891354.93987976,0.0,1.0,0.0,0.0,0.0
33911949.0,-0.04585183712825651,-0.008291049785571145,-0.031231889288577154,0.5666623246092184,0.0,1483.7815631262524,1500.0,1568.2184368737476,1522.2184368737476,1476.7815631262524,1493.563126252505,18.90118293302605,19.3224098801002,18.877614446312624,18.88433383460922,19.30499597228457,18.935215160761523,19.357013323547093,218.56996966492986,218.56996966492986,12.04392724775551,-0.00199451595991984,-0.006712711170340681,0.0010666333707414829,-0.18568254263727454,0.193959598248497,-0.0911991371002004,2.0,-0.8135947833226452,0.1864052166773547,11.0,0.0,0.0,1.0,0.0,0.0,0.0,0.0,0.0,0.0,0.0,-0.10664818599599199,0.28882702512825653,-0.22216579609418838,-0.061902712623246495,11.446546769498998,201.17036370861723,53.145996810601204,-0.0265376311242485,-0.023323488290581163,-0.03931937478557115,0.0,2.7546313698156313,2.078884416172345,-10.905209409058116,-2.5963126252505006e+20,959.6783860300601,12.039593358476953,0.008837673138276561,0.07503052414428857,0.0783431744008016,2.5705093708276556,2.14771681449499,-11.307578549238476,0.00806482958316633,0.057730986585170334,0.06994758699599198,-2.5963126252505006e+20,64.02087504016032,62.925324636993984,4.054760681102205,5.855452329543086,15.33935221727455,19.144337286933865,-0.07609970706412825,0.013173665434869726,-0.22270881848296592,26.88970442571142,455.3200199270541,12.042850013987975,95974.22486737475,1.1403325230961923,0.11383365721041963,-0.003399447270541797,0.14275081765931924,0.014971071384769526,0.08514421324048095,0.07485743664128257,-0.109911890995992,0.28938856647494987,-0.22071249859118236,0.9829172890240481,-0.03816759423246493,0.14908259417234468,-0.10094492377154309,0.57596526797996,398731750.45551103,327364652.0210421,455008.2341609218,18.717207751042082,18.47360387442886,-3.0180193752605207,-4.727727181991985,6.1209731711362725,0.0,0.0,0.0,39.8714138,32.7364372,199.62740559118237,1.831397121805611,-56.03385390543086,18.323593239298596,-2.7087812565050102,-5.145274852633267,-0.27746141034268534,1.3377642897715432,-1.604683379567134,-0.09184114994188376,56.11701764450902,-0.07332645960320641,0.011076680472945886,-0.026246467593186374,0.5747133017234468,33911949.44689379,0.0,1.0,0.0,0.0,0.0
33932176.0,-0.04497498033466934,-0.009528029424849697,-0.03140060650300601,0.5672811398396793,0.0,1483.320641282565,1500.0,1568.679358717435,1522.679358717435,1476.320641282565,1492.6412825651303,18.866150858677354,19.28668613260521,18.878115754128256,18.88459614983968,19.305384529398797,18.9367660797996,19.35871976222445,218.56489228817634,218.56489228817634,12.043125091643287,-0.0019943449579158316,-0.006709930428857715,0.001065857639278557,-0.18564222856913826,0.19401613446092186,-0.09116379960521041,2.0,-0.8123961463887776,0.18760385361122245,11.0,0.0,0.0,1.0,0.0,0.0,0.0,0.0,0.0,0.0,0.0,-0.10734366589579158,0.28889638833466935,-0.2211670434488978,-0.061737713204408816,11.390563206973948,200.7526664240481,53.12575362563126,-0.026565324230460922,-0.02338332055511022,-0.0395340044248497,0.0,2.7671291052064126,2.085867100480962,-10.860176335511023,-2.504128256513026e+20,959.6649327815632,12.038865120400802,0.012594841595190379,0.06746473775150302,0.07777126442084169,2.596371606519038,2.1523037118697395,-11.2306980302004,0.00694193916232465,0.05582209121442886,0.06947075689579159,-2.504128256513026e+20,64.12674104416834,63.049623361843686,4.0538530886573145,5.8530739281202395,15.339449149138277,19.14360396028056,-0.07608309866733468,0.00776439130661323,-0.22292306555711422,27.049971518496996,455.4248831034068,12.042111363687374,95973.04515174348,1.140318535501002,-0.3295006225290578,-0.2596418190340681,0.3709800891422844,0.00995195100400802,0.08180310925250502,0.0750809726733467,-0.11225394089579158,0.2894808333486974,-0.2208565283707415,0.9828581896252505,-0.03930244004408817,0.1492487684809619,-0.10083775806012024,0.5767932974789579,398731788.3432866,327364644.04709417,455118.11668396794,18.706263277094187,18.468131635150304,-2.990658191773547,-4.773693981791584,6.122405824543086,0.0,0.0,0.0,39.8714138,32.7364372,200.03844237074148,1.770109491945892,-56.149477491202404,18.319189771763526,-2.6803116191302605,-5.17954359846493,-0.2686975839098196,1.3399010040601202,-1.548350208745491,-0.09022838348897795,56.232641207234465,-0.07114852968336674,0.008459642296593187,-0.02623607242284569,0.5754044448096192,33932175.61923847,0.0,1.0,0.0,0.0,0.0
33952402.0,-0.04450167115631262,-0.010747021869739479,-0.03157022039078156,0.5678879077755511,0.0,1483.0,1500.0,1569.2805611222445,1522.8597194388778,1476.1402805611222,1491.8597194388778,18.847557152264528,19.267761526593187,18.87861706194389,18.884858463667335,19.30577308791583,18.93831699743487,19.360426200901806,218.5598149254509,218.5598149254509,12.042322936933868,-0.0019941739559118238,-0.00670714968737475,0.0010650820480961924,-0.185601914501002,0.19407267081362725,-0.09112846196993987,2.0,-0.8111975095951904,0.18880249040480962,11.0,0.0,0.0,1.0,0.0,0.0,0.0,0.0,0.0,0.0,0.0,-0.10803914565531063,0.28896575154108217,-0.22016829080360723,-0.061572713785571144,11.334579644448898,200.33496913947897,53.10551044066133,-0.0265933887995992,-0.023443266587174348,-0.0397483734228457,0.0,2.780881296288577,2.0952759536472945,-10.818117228096192,-3.152625250501002e+20,959.6526803767536,12.038134689739477,0.013324648509018037,0.06297242115831664,0.07764358832865731,2.623234971268537,2.143175256458918,-11.161523332805611,0.0053459114468937885,0.053858947807615236,0.0689907070761523,-3.152625250501002e+20,64.23260704817636,63.17392208809619,4.0529454960721445,5.8506955265571134,15.339546081002004,19.142870633627254,-0.07606649027054109,0.002355117318637275,-0.22313731263126252,27.21023860987976,455.4924408809619,12.041368528817635,95972.28810144289,1.1403095560621244,-0.5001085621482967,-0.43077139574749507,0.4371994575791584,0.006606478579158317,0.07857619223847695,0.07442029101002004,-0.11370517893186372,0.2895671750521042,-0.22037827807014027,0.982847740507014,-0.04004627834068136,0.14935505884168337,-0.10049138818036073,0.5775973726693387,398731826.21703404,327364636.0731463,455227.99920701404,18.695318803146293,18.46265939727455,-2.963297008146293,-4.819660781450902,6.123838477949899,0.0,0.0,0.0,39.8714138,32.7364372,200.45459382164327,1.7085138330480962,-56.26712949741483,18.314819302424848,-2.6513255035190384,-5.213501107182365,-0.2578752072965932,1.338943111214429,-1.4913612053987977,-0.0886170972765531,56.35029340082164,-0.07076789521442886,0.0058848275871743495,-0.02618836458717435,0.5761028604609219,33952401.791583166,0.0,1.0,0.0,0.0,0.0
33972628.0,-0.04495075652705411,-0.01192490072745491,-0.03174188381763527,0.5684671390380762,0.0,1483.0,1500.0,1570.2024048096193,1522.3987975951904,1476.6012024048096,1491.3987975951904,18.86653685827655,19.287234958256516,18.879118369759517,18.885120774288577,19.30616164963928,18.939867911863725,19.36213263957916,218.55473759478957,218.55473759478957,12.041520785430862,-0.0019940029539078155,-0.006704368945891784,0.0010643067775551102,-0.18556160043286574,0.19412920748697396,-0.09109312401402805,2.0,-0.8099988731222445,0.1900011268777555,11.0,0.0,0.0,1.0,0.0,0.0,0.0,0.0,0.0,0.0,0.0,-0.10873462509418838,0.289035114747495,-0.21916953815831663,-0.061407714366733465,11.278596081923848,199.9172718549098,53.08526725569139,-0.026622302426853706,-0.02350347265931864,-0.03996214666933868,0.0,2.7975008146653306,2.110230335631263,-10.782855757555112,-5.494108216432867e+20,959.643172757515,12.037399247454909,0.007134771895791581,0.06550517839278558,0.07853130397995992,2.6523866310080164,2.102697423252505,-11.109961942024048,0.002668427058116232,0.05177180888977956,0.06850329789779559,-5.494108216432867e+20,64.33847305218437,63.29822081755511,4.052037903166333,5.848317124673346,15.339643012865732,19.142137306973947,-0.07604988187374749,-0.003054156348697398,-0.22335155970541082,27.370505698056114,455.47472917555115,12.040616129218437,95972.49714332666,1.1403120238376754,-0.04734201006412808,-0.4073574409178357,0.1331104761963927,0.0070864871963927855,0.07561027402204408,0.07173854032865731,-0.11312027556513025,0.28963997350901804,-0.2184776733006012,0.9829484920300601,-0.039896385174348695,0.1493244716072144,-0.09959826591583167,0.5783466951543087,398731864.0587174,327364628.0991984,455337.88173006015,18.6843743291984,18.45718716260521,-2.935935824198397,-4.865627580789579,6.125271131356713,0.0,0.0,0.0,39.8714138,32.7364372,200.8824359498998,1.6462141077775552,-56.389417893206414,18.310524257535068,-2.621158866224449,-5.2467472167815625,-0.2423475731282565,1.3309118306332666,-1.4328731562805612,-0.0870091944709419,56.4725824649499,-0.07449536463326653,0.0034065236593186364,-0.026055370659318636,0.5768178991182364,33972627.96392786,0.0,1.0,0.0,0.0,0.0
33993103.0,-0.04548266029258517,-0.013109666306613227,-0.03191517937274549,0.5690803125050101,0.0,1483.0,1500.0,1571.124248496994,1522.124248496994,1476.875751503006,1490.937875751503,18.884439728657313,19.30562959985972,18.87961967757515,18.88538308553106,19.306550211362723,18.941418826292583,19.363839078256515,218.54966026412825,218.54966026412825,12.040718633306614,-0.0019938319519038077,-0.0067015882044088185,0.0010635314448897795,-0.18552128630260523,0.1941857440981964,-0.09105778612024049,2.0,-0.8088002366492987,0.19119976335070138,11.0,0.0,0.0,1.0,0.0,0.0,0.0,0.0,0.0,0.0,0.0,-0.10943010459519038,0.28910447801603206,-0.21817078551302607,-0.06124271488577154,11.222612519398798,199.49957457034068,53.065024070721456,-0.026650665819639277,-0.023563647048096194,-0.0401737855751503,0.0,2.8118078542464935,2.1229242940941884,-10.7474449602004,-7.705130260521044e+20,959.6333195907816,12.036662660220442,0.0019261771102204418,0.06706362451302605,0.07889867916432865,2.675658667733467,2.0701462496032064,-11.062899434629259,7.616879759516813e-06,0.049733008911823647,0.06794733498396793,-7.705130260521044e+20,64.44433905619239,63.422519546392785,4.051130310260521,5.845938722851703,15.339739944729459,19.141403980941885,-0.0760332734769539,-0.00846343001603207,-0.22356580671743487,27.530772786853706,455.4972515128257,12.039863646993988,95972.2423692986,1.1403089877775552,0.3100465122024046,-0.3464897462424847,-0.10313671441082146,0.006616525663326648,0.07256488367134267,0.06959463219238478,-0.1127577886252505,0.28971096321843687,-0.2167329057174349,0.983037254008016,-0.03984431937274549,0.14930685690981962,-0.0987652120220441,0.5790806175350702,398731901.90661323,327364620.11903805,455447.76425310626,18.6734298552505,18.45171492793587,-2.908574640312625,-4.911594380128256,6.126703784763527,0.0,0.0,0.0,39.8714138,32.7364372,201.30844623907817,1.5843242089058116,-56.51133337080161,18.306340958637275,-2.591147974793587,-5.279585924380761,-0.22748588549498996,1.3216636361062124,-1.3746593417354709,-0.08541485568737475,56.594498548757514,-0.07749348531062124,0.000894573797595188,-0.025930464314629257,0.5775477093066133,33993102.69539078,0.0,1.0,0.0,0.0,0.0
34015173.0,-0.046546204721442885,-0.014338640194388779,-0.03209895213827655,0.5699113730260521,0.0,1483.0,1500.0,1572.0460921843687,1523.0460921843687,1475.9539078156313,1490.4769539078156,18.895430009018035,19.317099105270543,18.88012098539078,18.885645400761522,19.30693877308617,18.942969740721445,19.365545516933867,218.54458293346693,218.54458293346693,12.039916477194389,-0.0019936609498997994,-0.006698807462925852,0.0010627557134268537,-0.18548097177354708,0.19424228031062124,-0.09102244862525051,2.0,-0.8076016001763527,0.1923983998236473,11.0,0.0,0.0,1.0,0.0,0.0,0.0,0.0,0.0,0.0,0.0,-0.11012558449498998,0.28917384168336674,-0.21717203286773548,-0.06107771500601203,11.166628956873748,199.08187728577155,53.04478088575151,-0.026675497062124246,-0.0236236180501002,-0.040371723390781565,0.0,2.8112702718817637,2.12110779188978,-10.711075581042085,-9.07867735470942e+20,959.6212482320641,12.035918723146292,0.0030167785731462942,0.062367621867735465,0.07592580425450901,2.6611873180140284,2.088479116336673,-11.044716856072144,-0.0025461556252505046,0.048004513741482964,0.06695130131663327,-9.07867735470942e+20,64.5502050602004,63.546818271242486,4.0502227173547105,5.843560321428858,15.339836876593187,19.140670658897793,-0.07601666508016032,-0.013872703683366742,-0.2237800533306613,27.691039879639277,455.7780504466934,12.039110634368736,95969.0101963527,1.1402706206432867,0.05516961725250463,-0.045193205460921426,0.09611662286372774,4.8368649298588876e-05,0.06900933349098196,0.07090332620040081,-0.11382307165130261,0.28977034193587176,-0.21598851233066133,0.9830490508416834,-0.04042024213827655,0.14937251753106212,-0.09831775831462926,0.5797156811823647,398731939.7943888,327364612.098998,455557.6467761523,18.662485381302606,18.446242693266534,-2.8812134568256513,-4.957561179466934,6.1281364381703405,0.0,0.0,0.0,39.8714138,32.7364372,201.72269730320642,1.5250651311102204,-56.630854954168335,18.30287499691383,-2.5621368713266532,-5.3098093739799594,-0.21689914497394788,1.3046036391523046,-1.3182059362244487,-0.08390758917434869,56.714020339539076,-0.07580965761523045,-0.0018333612525050136,-0.025857475036072147,0.5783723431943888,34015173.01603206,0.0,1.0,0.0,0.0,0.0
34037243.0,-0.047609749150300605,-0.015567614082164331,-0.03228272490380762,0.5707424335470942,0.0,1483.0,1500.0,1572.9679358717435,1523.9679358717435,1475.0320641282565,1490.0160320641282,18.906420289378758,19.328568610681366,18.88062229320641,18.885907715991983,19.307327334809617,18.944520655150306,19.367251955611223,218.53950560280563,218.53950560280563,12.039114321082165,-0.0019934899478957916,-0.006696026721442886,0.001061979981963928,-0.18544065724448897,0.1942988165230461,-0.09098711113026052,2.0,-0.8064029637034069,0.1935970362965932,11.0,0.0,0.0,1.0,0.0,0.0,0.0,0.0,0.0,0.0,0.0,-0.11082106439478959,0.28924320535070136,-0.2161732802224449,-0.06091271512625251,11.110645394348698,198.66418000120242,53.024537700781565,-0.02670032830460922,-0.023683589052104208,-0.040569661206412824,0.0,2.8107326895170344,2.119291289685371,-10.674706201883767,-1.0452224448897799e+21,959.6091768733467,12.035174786072144,0.004107380036072147,0.05767161922244488,0.07295292934468937,2.6467159682945893,2.10681198307014,-11.02653427751503,-0.005099928130260526,0.04627601857114228,0.0659552676492986,-1.0452224448897799e+21,64.65607106420842,63.67111699609219,4.049315124448899,5.8411819200060116,15.339933808456914,19.139937336853706,-0.07600005668336675,-0.019281977350701415,-0.22399429994388778,27.851306972424847,456.05884938056107,12.038357621743486,95965.7780234068,1.140232253509018,-0.19970727769739532,0.25610333532064183,0.29536996013827693,-0.006519788364729471,0.06545378331062124,0.07221202020841683,-0.11488835467735471,0.28982972065330664,-0.21524411894388779,0.9830608476753507,-0.040996164903807614,0.14943817815230462,-0.09787030460721442,0.5803507448296593,398731977.6821643,327364604.0789579,455667.52929919836,18.651540907354708,18.440770458597193,-2.8538522733386773,-5.003527978805612,6.129569091577154,0.0,0.0,0.0,39.8714138,32.7364372,202.1369483673347,1.465806053314629,-56.75037653753507,18.299409035190383,-2.5331257678597194,-5.340032823579158,-0.2063124044529058,1.2875436421983968,-1.2617525307134267,-0.08240032266132263,56.83354213032064,-0.07412582991983968,-0.0045612963026052155,-0.025784485757515033,0.5791969770821643,34037243.33667335,0.0,1.0,0.0,0.0,0.0
