timestamp,control[0],control[1],control[2],control[3],control[4],output[2],output[3],output[4],output[5],output[6],output[7],indicated_airspeed_m_s,true_airspeed_m_s,indicated_airspeed_m_s.1,equivalent_airspeed_m_s,true_airspeed_m_s.1,equivalent_ground_minus_wind_m_s,true_ground_minus_wind_m_s,differential_pressure_raw_pa,differential_pressure_filtered_pa,temperature,gyro_bias[0],gyro_bias[1],gyro_bias[2],accel_bias[0],accel_bias[1],accel_bias[2],instance_count,seq_reached,seq_current,seq_total,item_changed_index,item_do_jump_remaining,valid,warning,finished,failure,stay_in_failsafe,flight_termination,item_do_jump_changed,execution_mode,nav_roll,nav_pitch,nav_bearing,target_bearing,xtrack_error,wp_dist,acceptance_radius,rollspeed_integ,pitchspeed_integ,yawspeed_integ,additional_integ1,x,y,z,temperature.1,pressure,temperature.2,gyro_rad[0],gyro_rad[1],gyro_rad[2],accelerometer_m_s2[0],accelerometer_m_s2[1],accelerometer_m_s2[2],x.1,y.1,z.1,temperature.3,altitude_sp,altitude_filtered,height_rate_setpoint,height_rate,airspeed_sp,airspeed_filtered,airspeed_derivative_sp,airspeed_derivative,throttle_integ,pitch_integ,baro_alt_meter,baro_temp_celcius,baro_pressure_pa,rho,xyz[0],xyz[1],xyz[2],xyz[0].1,xyz[1].1,xyz[2].1,roll_body,pitch_body,yaw_body,q_d[0],q_d[1],q_d[2],q_d[3],thrust_body[0],lat,lon,alt,vel_m_s,vel_n_m_s,vel_e_m_s,vel_d_m_s,cog_rad,ground_contact,maybe_landed,landed,ref_lat,ref_lon,x.2,y.2,z.2,vx,vy,vz,ax,ay,az,yaw,dist_bottom,roll,pitch,yaw.1,thrust_body[0].1,timestamp.1,isTakeoff,isClimbing,isDescending,isCruise,isLand
48033397,0.066805061,-0.094724226,-0.076172209,0.19567987,0.0,1457.0,1500.0,1197.0,1468.828766,1530.171234,1449.0,14.30502169,14.62625463,14.52301018,14.40046139,14.72364754,14.42995992,14.753808300000001,129.0801906,129.0801906,12.02319748,-0.001741629,-0.005699561,0.0013938929999999998,-0.196392924,0.186454103,-0.045036597000000005,2.0,-1.0,0.0,11,0,0,1,0,0.0,0,0,0,0,0,0.191878705,-0.044559562999999996,-2.88769583,-2.887062339,-0.026759902000000002,53.78730188,43.47832568,-0.023786116,-0.056434358,-0.046702655999999995,0.0,-0.10379063599999999,-1.415447893,-6.189654643,8.643298239,959.3637067,12.02218271,0.220808495,-0.170384151,-0.339160874,-0.035520904,-1.4175254069999998,-6.237949187999999,0.218797453,-0.16584748,-0.33865882,8.643298239,52.6271377,52.6762473,3.8195031010000005,-1.698265556,15.33234537,19.51286369,-0.083610364,4.155330992,-0.142720819,6.296787919,458.45819410000007,12.022095,95938.1858,1.1399043340000001,-0.102651014,0.23775165899999998,0.640969511,0.22030580600000002,-0.153586188,-0.333090228,0.210597767,-0.041027513,-2.884525722,0.129581145,-0.006761008000000001,-0.10683015400000001,-0.985773972,0.188191773,398701708.4,327367152.9,458924.14,14.80218153,-14.03104221,-4.725146788,-0.544104799,3.4665488389999997,0,0,0.0,39.871413700000005,32.7364371,-139.4096286,23.38699492,-58.90184187,-13.95831926,-4.357630851000001,-0.063248347,-0.774042145,3.4032536660000003,4.4490845519999995,-2.952935872,59.14260266,0.320537091,0.272182813,0.00039128800000000005,0.19065805,48033397,0,1,0,0,0
48077616,0.065623975,-0.08606417599999999,-0.072060236,0.194335134,0.0,1462.0,1500.0,1195.0,1466.624125,1532.375875,1453.0,14.38440592,14.70728159,14.46270008,14.34031329,14.66222611,14.37513218,14.69782628,128.0716098,128.0716098,12.02259165,-0.001740918,-0.00570074,0.001388996,-0.196963348,0.186776637,-0.045097467999999995,2.0,-1.0,0.0,11,0,0,1,0,0.0,0,0,0,0,0,0.202583934,-0.042162688,-2.88527055,-2.8852189630000002,-0.130903577,53.14781887,43.59651864,-0.023711491,-0.055837214,-0.046251319000000006,0.0,-0.107455004,-1.3763467409999999,-6.290748307,3.30196118,959.3698822999999,12.02212851,0.21745219600000001,-0.16712566199999998,-0.337820605,-0.088983853,-1.422697845,-6.239240665,0.212538681,-0.160975191,-0.32980762199999997,3.30196118,52.82943747,52.61859875,3.8584794419999997,-1.4470624419999998,15.332321599999998,19.7286137,-0.08792583699999999,4.066874123,-0.143299838,6.641415218,458.4422445,12.02213271,95938.35056,1.1399062770000001,0.004347682,0.48704718399999997,0.253386387,0.221664902,-0.153721905,-0.32414139,0.219975877,-0.038383093,-2.88240432,0.13051558,-0.004731404,-0.111290616,-0.985168157,0.189457513,398701652.0,327367129.4,458936.5571,14.7934679,-14.07678936,-4.574834791000001,-0.348045596,3.4560171260000003,0,0,0.0,39.871413700000005,32.7364371,-140.0147573,23.20087819,-58.90082402,-13.99737643,-4.215542857,0.122477857,-0.774069443,3.358880179,4.363856181,-2.964121581,59.14158436,0.32368616699999997,0.28015919699999997,0.004113561,0.19215651,48077616,0,1,0,0,0
48117834,0.066774099,-0.079113222,-0.067634675,0.19308543,0.0,1464.0,1500.0,1193.0,1467.0,1532.0,1457.0,14.44223651,14.76637349,14.42315779,14.30081342,14.62188494,14.34186728,14.66385956,127.4196782,127.4196782,12.02225203,-0.0017399179999999998,-0.005701896,0.001384553,-0.197464222,0.18703397100000002,-0.045146814,2.0,-1.0,0.0,11,0,0,1,0,0.0,0,0,0,0,0,0.21328916399999998,-0.039765812000000005,-2.8828452710000003,-2.8833755869999997,-0.235047253,52.50833585,43.7147116,-0.023637107,-0.055228205,-0.045800573,0.0,-0.09637455199999999,-1.3563810090000001,-6.36882811,-6.64e-34,959.3766431,12.022115699999999,0.21691681,-0.158155673,-0.323500358,-0.118569096,-1.472348821,-6.2713877810000005,0.209175693,-0.158688153,-0.31953051,-6.64e-34,53.03173724,52.5609502,3.897455784,-1.195859328,15.33229784,19.9443637,-0.09224131,3.9784172539999996,-0.143878857,6.9860425170000005,458.38297760000006,12.02222317,95939.05192,1.139914633,0.148028309,-0.082075343,0.352354159,0.22533563199999998,-0.146106622,-0.31189803,0.225909697,-0.035572014,-2.8831300289999997,0.130018262,-0.003000418,-0.114034834,-0.984926842,0.190481029,398701595.5,327367105.8,458948.9742,14.78475427,-14.12253651,-4.424522794,-0.151986393,3.445485413,0,0,0.0,39.871413700000005,32.7364371,-140.6322265,23.01481348,-58.8952885,-14.03744808,-4.0715717510000005,0.309492795,-0.78243159,3.323623265,4.268091763999999,-2.975343987,59.1360486,0.321514782,0.28639656,0.007665945,0.19348268600000001,48117834,0,1,0,0,0
48166052,0.062685797,-0.070211513,-0.062149733,0.19178589999999998,0.0,1467.0,1500.0,1192.0,1464.0,1535.0,1461.0,14.33562927,14.65744626,14.45324876,14.33054583,14.65222469,14.38090131,14.70370883,127.9635702,127.9635702,12.02280496,-0.0017389170000000002,-0.005703051999999999,0.00138011,-0.197965096,0.187291304,-0.04519616,2.0,-1.0,0.0,11,0,0,1,0,0.0,0,0,0,0,0,0.223994393,-0.037368937000000005,-2.8804199919999998,-2.881532211,-0.339190929,51.86885283,43.83290456,-0.023562751,-0.054603664,-0.045366564000000005,0.0,-0.061420707000000005,-1.367397507,-6.409646082,-6.64e-34,959.3843516000001,12.022169900000002,0.22421797899999998,-0.158134738,-0.312932069,-0.047875241,-1.417215539,-6.294741984,0.21050128199999998,-0.160586906,-0.306944695,-6.64e-34,53.23403701,52.50330165,3.936432126,-0.9446562140000001,15.33227407,20.16011371,-0.096556784,3.8899603860000003,-0.14445787699999998,7.330669817,458.4478227,12.02236478,95938.29601,1.13990569,-0.8618558959999999,0.521640234,0.7835540559999999,0.225376418,-0.148435091,-0.292781649,0.235131135,-0.032853212,-2.8807037980000003,0.131068952,-0.000918045,-0.118404082,-0.98427522,0.19182977399999998,398701539.1,327367082.3,458961.3913,14.77604063,-14.16828366,-4.274210797,0.044072810999999996,3.4349537010000004,0,0,0.0,39.871413700000005,32.7364371,-141.29107219999997,22.82892323,-58.87460551,-14.08092127,-3.921286677,0.5008287810000001,-0.8187399940000001,3.318933687,4.137000608999999,-2.986689435,59.11536606,0.316429759,0.292329985,0.01087283,0.19519918,48166052,0,1,0,0,0
48214271,0.06465509700000001,-0.061873637,-0.05434896,0.1903457,0.0,1469.0172029999999,1500.0,1191.0,1468.94839,1530.05161,1465.0,14.44335729,14.76759791,14.48333973,14.36027824,14.68256444,14.41993534,14.74355809,128.5074622,128.5074622,12.0233579,-0.001737917,-0.0057042080000000005,0.0013756670000000001,-0.198465969,0.187548637,-0.045245506,2.0,-1.0,0.0,11,0,0,1,0,0.0,0,0,0,0,0,0.231824528,-0.034296754,-2.878631995,-2.896210923,-1.21537761,67.28382754,43.99166237,-0.023488923999999998,-0.053977745,-0.04494969099999999,0.0,-0.03943093,-1.383654903,-6.451952375,-6.64e-34,959.3899841,12.02224721,0.220716475,-0.15949234699999998,-0.29560305,-0.087183051,-1.46372976,-6.456077262000001,0.212438582,-0.161557172,-0.294639168,-6.64e-34,53.43880924,52.47468067,3.964942888,-0.709066188,15.33223278,20.32880587,-0.099931453,3.76637241,-0.145063157,7.7446069,458.49481579999997,12.02256515,95937.74867,1.139899133,-0.114646124,0.43231438,0.772964987,0.225617481,-0.142860425,-0.285668743,0.24621562800000002,-0.0301856,-2.876301672,0.133077209,0.001393221,-0.123685003,-0.9833554320000001,0.19346132300000002,398701482.8,327367060.0,458962.3165,14.77066767,-14.21069014,-4.125903181,0.233450678,3.42458522,0,0,0.0,39.871413700000005,32.7364371,-141.9499179,22.64303298,-58.85392252,-14.12439446,-3.771001603,0.6921647679999999,-0.855048398,3.3142441089999997,4.005909453,-2.998034882,59.09468351,0.319291905,0.299458108,0.013784346000000001,0.19697851,48214271,0,1,0,0,0
48260979,0.064789086,-0.053631139,-0.04948613,0.18881267,0.0,1473.564313,1500.0,1189.435687,1465.871374,1533.128626,1469.0,14.46557958,14.79042596,14.5134307,14.39001066,14.71290419,14.45896937,14.78340736,129.05135420000002,129.05135420000002,12.02391083,-0.0017369170000000001,-0.005705364,0.001371225,-0.198966843,0.18780597100000002,-0.045294852000000004,2.0,-1.0,0.0,11,0,0,1,0,0.0,0,0,0,0,0,0.23843042899999997,-0.030937021000000002,-2.877115358,-2.917924847,-2.420305184,89.53489393,44.16769296,-0.023418106,-0.053348672,-0.044548197000000005,0.0,-0.103422775,-1.434671526,-6.504129659,-6.64e-34,959.3818492,12.0224778,0.223891669,-0.152687036,-0.281295702,-0.147315431,-1.371088001,-6.59813435,0.218432932,-0.156369433,-0.284192596,-6.64e-34,53.64510749,52.46397582,3.986994183,-0.483112727,15.33218066,20.46845343,-0.10272544900000001,3.621101139,-0.145684647,8.201322722,458.42087699999996,12.02281632,95938.63275,1.139909695,0.6421942270000001,-0.682331721,0.602236563,0.233171068,-0.138167197,-0.274725365,0.254232715,-0.027586726000000002,-2.8743270610000002,0.133880264,0.003330105,-0.12745459,-0.982760593,0.195401403,398701426.6,327367040.4,458937.2645,14.77284621,-14.24554511,-3.982126425,0.40772552700000003,3.4145857210000004,0,0,0.0,39.871413700000005,32.7364371,-142.56450980000002,22.48431259,-58.81802819,-14.1659494,-3.6365241360000002,0.857623178,-0.853825863,3.2871688239999997,3.932702265,-3.0078532910000004,59.05878919,0.31770434,0.306308158,0.017466507,0.19926398,48260979,0,1,0,0,0
48306708,0.06807197599999999,-0.044180567999999996,-0.048019139,0.18744159,0.0,1476.0,1500.0,1188.0,1466.1114220000002,1532.8885779999998,1474.1114220000002,14.39128274,14.71428849,14.54352167,14.41974307,14.74324394,14.498003400000002,14.82325663,129.59524620000002,129.59524620000002,12.02446377,-0.001735917,-0.00570652,0.0013667820000000002,-0.199467717,0.188063304,-0.045344197999999995,2.0,-1.0,0.0,11,0,0,1,0,0.0,0,0,0,0,0,0.24503633,-0.027577288,-2.87559872,-2.9396387710000003,-3.625232758,111.78596029999999,44.34372355,-0.023351737,-0.052714124,-0.044155305,0.0,-0.16741462099999999,-1.48568815,-6.556306942000001,-6.64e-34,959.3737143,12.02270838,0.226500373,-0.150419037,-0.272105909,-0.109253846,-1.412708008,-6.584544481,0.224427281,-0.151181694,-0.273746023,-6.64e-34,53.85140575,52.45327097,4.009045479,-0.257159266,15.33212855,20.60810098,-0.105519444,3.475829868,-0.146306137,8.658038543,458.30848080000004,12.02311863,95939.91997999999,1.139924921,-0.468502948,-0.324071286,0.078174349,0.236822299,-0.129352841,-0.265978058,0.264561954,-0.024803204,-2.869978855,0.135817034,0.005676405,-0.132335232,-0.981839107,0.19707685100000003,398701370.4,327367020.8,458912.2124,14.77502476,-14.28040008,-3.83834967,0.582000375,3.404586222,0,0,0.0,39.871413700000005,32.7364371,-143.1781029,22.32620542,-58.78179054,-14.20746104,-3.502403452,1.022497524,-0.851756244,3.2595882880000002,3.860801532,-3.017637234,59.02255154,0.31836736,0.313078802,0.019872373,0.20096911,48306708,0,1,0,0,0
48354926,0.06405259,-0.034421894,-0.047566526,0.1862,0.0,1475.341468,1500.0,1186.341468,1465.6829369999998,1533.3170630000002,1478.658532,14.43481862,14.75878189,14.57361264,14.44947548,14.77358368,14.53703743,14.86310589,130.1391382,130.1391382,12.025016699999998,-0.001734917,-0.005707676,0.001362339,-0.199968591,0.18832063699999999,-0.045393544,2.0,-1.0,0.0,11,0,0,1,0,0.0,0,0,0,0,0,0.251642231,-0.024217554,-2.8740820830000002,-2.961352695,-4.830160332,134.0370267,44.51975414,-0.023283815,-0.052069804000000004,-0.043774574000000004,0.0,-0.183610622,-1.471349033,-6.645774198,-6.64e-34,959.3855126,12.02299841,0.23189821600000002,-0.138488933,-0.262524541,-0.111619712,-1.43403626,-6.722625607,0.227326122,-0.14726036,-0.26095851800000003,-6.64e-34,54.057704,52.44256612,4.031096774,-0.031205805,15.33207644,20.74774854,-0.10831344,3.330558597,-0.146927626,9.114754365,458.1752136,12.02347344,95941.4259,1.139942793,-0.272693208,0.229532702,-0.11476301,0.232626075,-0.129724126,-0.250541762,0.274496197,-0.022143945,-2.865667769,0.137723844,0.007951468,-0.137017508,-0.980915202,0.19918331600000003,398701314.2,327367001.2,458887.1604,14.7772033,-14.31525505,-3.694572915,0.7562752229999999,3.3945867219999997,0,0,0.0,39.871413700000005,32.7364371,-143.8316106,22.16935651,-58.73040029,-14.25145212,-3.362395339,1.189250178,-0.823883708,3.169603618,3.718654812,-3.0275335230000002,58.97116129,0.315793057,0.319327109,0.023169087999999997,0.20317265,48354926,0,1,0,0,0
48395145,0.065122572,-0.026094298999999998,-0.049351669,0.18526243,0.0,1476.0,1500.0,1186.0,1468.205641,1530.794359,1483.0,14.49780251,14.82299804,14.60370361,14.47920789,14.80392343,14.57607146,14.90295516,130.68303020000002,130.68303020000002,12.02556964,-0.0017339170000000002,-0.005708832,0.0013578960000000001,-0.200469465,0.18857797,-0.04544289,2.0,-1.0,0.0,11,0,0,1,0,0.0,0,0,0,0,0,0.258248131,-0.020857821000000002,-2.8725654460000003,-2.98306662,-6.035087906,156.2880931,44.69578473,-0.023216202999999998,-0.051421532,-0.043412369000000006,0.0,-0.19330345399999999,-1.4481175240000002,-6.74031518,-6.64e-34,959.4000231000001,12.02329653,0.230434237,-0.138086472,-0.244303674,-0.135107493,-1.421270506,-6.7896512079999995,0.229803783,-0.143511335,-0.24785250399999997,-6.64e-34,54.26489458,52.43334526,4.052925299,0.19440402,15.33202701,20.88558032,-0.111071066,3.1845457180000003,-0.14755190699999998,9.576261401,458.2194208000001,12.02385657,95940.92644,1.139936867,0.041431519,-0.245658023,0.32943934399999997,0.23628996,-0.12398692800000001,-0.251390407,0.28409296,-0.019243257,-2.86139354,0.139577132,0.01033724,-0.141505404,-0.979992876,0.20076115,398701257.9,327366981.6,458862.1084,14.77938185,-14.35011002,-3.550796159,0.9305500720000001,3.384587223,0,0,0.0,39.871413700000005,32.7364371,-144.500173,22.01298218,-58.67329491,-14.29637837,-3.220166658,1.356711275,-0.786279052,3.0560819039999996,3.550013327,-3.037472186,58.91405591,0.310374692,0.325334353,0.025324637,0.20472679,48395145,0,1,0,0,0
48435363,0.06485303099999999,-0.019061452,-0.050209935,0.1845806,0.0,1475.0,1500.0,1185.0,1467.0,1532.0,1487.0,14.54806858,14.87454153,14.63379458,14.50894031,14.83426318,14.61510549,14.94280443,131.22692220000002,131.22692220000002,12.02612257,-0.001732917,-0.005709988,0.001353454,-0.200970339,0.18883530399999998,-0.045492236,2.0,-1.0,0.0,11,0,0,1,0,0.0,0,0,0,0,0,0.264854032,-0.017498088000000002,-2.8710488080000003,-3.004780544,-7.24001548,178.5391595,44.87181531,-0.023154163999999998,-0.050778074000000006,-0.04306465599999999,0.0,-0.204586259,-1.42543498,-6.850833631,-6.64e-34,959.4083923000001,12.02364583,0.23163541399999998,-0.133905716,-0.24622314399999998,-0.211052674,-1.405102857,-6.8964843039999995,0.22940941199999998,-0.137483285,-0.238649252,-6.64e-34,54.49898227,52.46885606,4.068038905,0.40965567399999997,15.33205852,20.96867958,-0.11273242,3.016178635,-0.148260304,10.18218933,458.1573846,12.02427965,95941.62152999999,1.139945136,0.587030865,0.21932998399999998,0.406337128,0.231826843,-0.119261639,-0.24448167699999998,0.293319846,-0.016467762,-2.857155553,0.14140371,0.012649763999999999,-0.145808578,-0.9790725440000001,0.20272738399999998,398701199.7,327366963.8,458811.3113,14.78936172,-14.38964577,-3.413260637,1.095463043,3.3748872569999997,0,0,0.0,39.871413700000005,32.7364371,-145.1460366,21.86849923,-58.61154529,-14.33989078,-3.085731925,1.512381657,-0.8067565,2.989211502,3.41187754,-3.046822189,58.8523065,0.297545746,0.331065492,0.027944454,0.20681717,48435363,0,1,0,0,0
48483582,0.059493011,-0.010863018,-0.050386045,0.18349297,0.0,1474.0,1500.0,1183.0,1465.2998599999999,1533.7001400000001,1491.2998599999999,14.62488955,14.95301971,14.66388555,14.53867272,14.86460293,14.65413952,14.98265369,131.7708142,131.7708142,12.02667551,-0.0017319170000000001,-0.0057111440000000005,0.001349011,-0.201471213,0.18909263699999998,-0.045541582000000004,2.0,-1.0,0.0,11,0,0,1,0,0.0,0,0,0,0,0,0.271459933,-0.014138355,-2.8695321710000004,-3.026494468,-8.444943054,200.7902259,45.0478459,-0.023092547999999997,-0.050129429,-0.042736838,0.0,-0.216805078,-1.40307561,-6.97075799,-6.64e-34,959.4131462000001,12.02402525,0.23050874899999999,-0.131564437,-0.241221447,-0.240974706,-1.3897382759999999,-6.992822486000001,0.22732428,-0.13011357699999998,-0.23174355100000002,-6.64e-34,54.73306996,52.50436686,4.08315251,0.624907329,15.33209003,21.05177883,-0.114393774,2.847811553,-0.14896870199999998,10.78811725,458.12272839999997,12.02476052,95942.02845,1.139950037,0.008009414,-0.37476691100000004,-0.033601214,0.241355614,-0.120885445,-0.234249032,0.300903851,-0.013500531999999999,-2.8540306810000002,0.14266530300000002,0.014870804,-0.149291255,-0.978333915,0.204272282,398701140.7,327366946.8,458750.3151,14.80243211,-14.43103583,-3.278197602,1.256667271,3.365305953,0,0,0.0,39.871413700000005,32.7364371,-145.766744,21.73719505,-58.54464864,-14.381836300000002,-2.95993493,1.6549848390000002,-0.89160414,2.974042982,3.3075500630000003,-3.055519802,58.78541029,0.279186566,0.331528524,0.030808699999999998,0.37376666,48483582,0,1,0,0,0
48523800,0.06433779099999999,-0.002935164,-0.053809789000000004,0.1829001,0.0,1473.153031,1500.0,1183.0,1467.459092,1531.540908,1494.846969,14.54886419,14.87530127,14.69397652,14.56840513,14.89494268,14.69317355,15.02250296,132.3147062,132.3147062,12.02722844,-0.0017309170000000002,-0.005712300000000001,0.001344568,-0.201972087,0.18934997,-0.045590927999999996,2.0,-1.0,0.0,11,0,0,1,0,0.0,0,0,0,0,0,0.278065834,-0.010778621,-2.8680155330000003,-3.048208392,-9.649870628,223.0412922,45.22387649,-0.023029294,-0.049487359,-0.042436475999999994,0.0,-0.197279717,-1.3843939790000002,-7.067273377999999,2.023070166,959.4172776,12.02444589,0.236576835,-0.129975575,-0.230870242,-0.30179913399999997,-1.451880179,-7.095577686,0.22599015600000003,-0.124578102,-0.22546888699999998,2.023070166,54.96715766,52.53987766,4.0982661160000005,0.8401589829999999,15.33212153,21.13487809,-0.11605512800000001,2.679444471,-0.149677099,11.39404518,458.1098097,12.02529063,95942.17126,1.13995174,-0.33952244,0.006370079,0.052326160999999996,0.239586825,-0.105353852,-0.22338830899999998,0.300348446,-0.010596783,-2.858057324,0.140485273,0.015952908000000002,-0.148847228,-0.9786994240000001,0.206043198,398701081.6,327366929.8,458689.3189,14.81550251,-14.47242589,-3.1431345680000002,1.417871499,3.3557246480000003,0,0,0.0,39.871413700000005,32.7364371,-146.39982460000002,21.60650582,-58.47315064,-14.42497517,-2.8328427339999998,1.7972971530000001,-0.957665932,2.94203352,3.1987893339999998,-3.0642533160000003,58.71391254,0.265133813,0.370945891,0.029144688,0.43334209999999995,48523800,0,1,0,0,0
48564018,0.06829157,0.004381436,-0.057151851,0.18278861,0.0,1473.0,1500.0,1182.0,1468.394079,1530.605921,1498.394079,14.60053005,14.92797201,14.72406749,14.59813754,14.92528243,14.73220758,15.06235223,132.85859820000002,132.85859820000002,12.02778138,-0.001729917,-0.005713457,0.001340125,-0.202472961,0.189607303,-0.045640274,2.0,-1.0,0.0,11,0,0,1,0,0.0,0,0,0,0,0,0.284671735,-0.007418888,-2.8664988960000004,-3.0699223160000004,-10.8547982,245.2923586,45.39990708,-0.022965048999999998,-0.048802492999999995,-0.042141503,0.0,-0.125665213,-1.3717471630000002,-7.125376897000001,7.365803625,959.4203877,12.02493416,0.232492265,-0.12143428699999999,-0.220919614,-0.278614737,-1.3579269919999999,-7.224068223,0.225888365,-0.12205242699999999,-0.220229695,7.365803625,55.20124535,52.57538846,4.113379721,1.055410637,15.33215304,21.21797734,-0.117716482,2.511077389,-0.15038549699999998,11.9999731,457.8728143,12.0258556,95944.91001,1.139984238,0.270651886,0.150591014,0.17760087300000002,0.24304422899999997,-0.095420275,-0.214136425,0.306898276,-0.00817492,-2.8552521889999998,0.141621682,0.017811602,-0.151858285,-0.9780399359999999,0.23195855899999998,398701022.6,327366912.9,458628.3227,14.82857291,-14.51381595,-3.0080715330000003,1.579075727,3.346143343,0,0,0.0,39.871413700000005,32.7364371,-147.0761363,21.4779652,-58.38557588,-14.47228351,-2.7012252,1.9385932030000002,-0.958091338,2.8511830280000003,3.074539145,-3.0731122660000003,58.62633734,0.253496872,0.404398479,0.025643403999999998,0.47787758399999997,48564018,0,1,0,0,0
48608474,0.0611139,0.010064706999999999,-0.056835064000000005,0.18265548,0.0,1471.0,1500.0,1182.0,1466.941188,1532.058812,1502.0,14.75831587,15.08922339,14.75415846,14.62786996,14.95562217,14.77124161,15.10220149,133.4024902,133.4024902,12.02833431,-0.0017289170000000002,-0.005714613,0.0013356820000000001,-0.202973834,0.189864637,-0.04568962,2.0,-1.0,0.0,11,0,0,1,0,0.0,0,0,0,0,0,0.291277636,-0.004059155,-2.8649822589999996,-3.0916362410000002,-12.05972578,267.543425,45.57593767,-0.022907962999999996,-0.048201015,-0.041898936,0.0,-0.07302257200000001,-1.369107567,-7.193934423,11.34218292,959.4261928,12.02543107,0.237941076,-0.118407215,-0.21233807,-0.17832455600000002,-1.417696464,-7.291202147999999,0.226073755,-0.118630969,-0.214942335,11.34218292,55.42406512,52.62561565,4.125710644,1.2495764790000001,15.33218299,21.27149524,-0.11878624,2.360215474,-0.15104726300000001,12.59745383,457.737937,12.02643589,95946.46415,1.140002737,-0.362809045,0.17447639,-0.50160093,0.235165734,-0.091116233,-0.205648859,0.30189702399999996,0.00120741,-2.8625276960000003,0.137408681,0.021505339,-0.14883143599999998,-0.9790328090000001,0.40444816899999997,398700963.7,327366896.3,458564.1748,14.84273958,-14.55520607,-2.873556614,1.7345248080000002,3.336614668,0,0,0.0,39.871413700000005,32.7364371,-147.75244809999998,21.34942458,-58.29800113,-14.51959185,-2.569607667,2.079889253,-0.9585167440000001,2.760332537,2.950288956,-3.0819712160000003,58.53876214,0.239465313,0.422438839,0.025274794,0.5031479999999999,48608474,0,1,0,0,0
48660455,0.062393931,0.017360774,-0.060425882,0.18265136,0.0,1471.0,1500.0,1182.0,1469.488298,1529.511702,1505.0,14.74952081,15.0800766,14.78424943,14.65760237,14.98596192,14.81027564,15.14205076,133.9463822,133.9463822,12.02888725,-0.001727917,-0.005715769,0.00133124,-0.203474708,0.19012197,-0.045738966,2.0,-1.0,0.0,11,0,0,1,0,0.0,0,0,0,0,0,0.297883537,-0.000699422,-2.863465621,-3.113350165,-13.26465335,289.79449139999997,45.75196826,-0.022856481,-0.047560604000000006,-0.041643036,0.0,-0.149776049,-1.434721434,-7.33379269,5.999449458,959.4503799,12.02598688,0.234485576,-0.105471516,-0.202663619,-0.298877417,-1.4637656209999999,-7.4241485,0.22821784,-0.109099895,-0.209326448,5.999449458,55.63288112,52.69413237,4.134583253,1.41753691,15.33221101,21.2882495,-0.119120763,2.231108954,-0.151651076,13.18443638,457.7170649,12.02708844,95946.68906,1.1400053490000002,-0.818726408,0.300728376,-0.191937124,0.2453534,-0.079980517,-0.193128785,0.302807954,0.020103503,-2.8661501960000004,0.13420681199999998,0.030547828,-0.14802687,-0.979356709,0.454887352,398700906.0,327366883.0,458478.1266,14.86452415,-14.59659656,-2.742850495,1.849981921,3.32745171,0,0,0.0,39.871413700000005,32.7364371,-148.38310780000003,21.24202874,-58.20510676,-14.56429082,-2.454649287,2.197276917,-0.941036152,2.72402053,2.7901660130000003,-3.089785558,58.44586733,0.22400443,0.45222035899999996,0.020200671,0.53882253,48660455,0,1,0,0,0
48700674,0.06039187,0.021601274,-0.061086731,0.182783565,0.0,1469.0,1500.0,1182.0,1468.0,1531.0,1508.0,14.74033007,15.07066994,14.8143404,14.68733478,15.01630167,14.84930967,15.18190003,134.4902742,134.4902742,12.02944018,-0.0017269170000000001,-0.005716925,0.0013267970000000002,-0.203975582,0.190379303,-0.045788312000000005,2.0,-1.0,0.0,11,0,0,1,0,0.0,0,0,0,0,0,0.301074079,0.008440207,-2.8644623289999998,-3.1265494680000003,-13.98837146,303.0300504,46.15651593,-0.022809512999999997,-0.04691344,-0.041413578,0.0,-0.226529526,-1.500335301,-7.473650957,0.656715999,959.474567,12.02654268,0.239599443,-0.101241435,-0.201515378,-0.23282833,-1.384528102,-7.426667119,0.230361924,-0.09956882199999999,-0.203710561,0.656715999,55.84169712,52.76264909,4.1434558610000005,1.585497341,15.33223903,21.30500375,-0.119455287,2.102002433,-0.152254889,13.77141893,457.6036149,12.02774581,95948.0335,1.140021333,-0.276544996,-0.353171555,0.385974955,0.242884436,-0.072137527,-0.189918632,0.303332903,0.03889763,-2.8706691810000002,0.130560497,0.039448205,-0.147078046,-0.979673261,0.496311779,398700848.3,327366869.8,458392.0784,14.88630872,-14.63798706,-2.612144375,1.965439034,3.318288752,0,0,0.0,39.871413700000005,32.7364371,-149.0123905,21.13527067,-58.11205195,-14.60891109,-2.3401933880000003,2.313943446,-0.923015472,2.689353536,2.6289610619999997,-3.097568393,58.35281207,0.207117935,0.477121187,0.017983576,0.5653161999999999,48700674,0,1,0,0,0
48740892,0.057477479000000005,0.02670739,-0.05988841,0.18266223,0.0,1468.417483,1500.0,1182.0,1468.834967,1530.165033,1510.582517,14.81243809,15.14446949,14.84443137,14.71706719,15.04664142,14.8883437,15.22174929,135.0341663,135.0341663,12.02999312,-0.0017259170000000002,-0.005718081,0.001322354,-0.20447645600000003,0.19063663600000003,-0.045837657999999996,2.0,-1.0,0.0,11,0,0,1,0,0.0,0,0,0,0,0,0.298954035,0.026567072999999997,-2.86936707,-3.126509273,-13.96385059,302.2472772,46.91638785,-0.022769708,-0.046272565999999994,-0.041199232999999995,0.0,-0.29850644,-1.4446660409999998,-7.577379494,-6.64e-34,959.4739394,12.02717019,0.246909242,-0.08851341300000001,-0.187671743,-0.307259918,-1.376481566,-7.638119276,0.228477565,-0.09162136800000001,-0.19995575699999998,-6.64e-34,56.05051313,52.831165799999994,4.15232847,1.753457772,15.33226705,21.321758,-0.11978981,1.9728959119999998,-0.15285870199999999,14.35840148,457.547039,12.02845463,95948.62331,1.140028354,-0.208674567,0.540110237,0.547635199,0.236128422,-0.063600191,-0.18152722899999998,0.30358099,0.057578304000000004,-2.8757019130000003,0.12666111300000002,0.048238166,-0.146041425,-0.9799464090000001,0.530606684,398700790.6,327366856.5,458306.0302,14.908093300000003,-14.67937756,-2.481438256,2.080896147,3.309125794,0,0,0.0,39.871413700000005,32.7364371,-149.6828934,21.03099616,-58.00519216,-14.65788101,-2.222084663,2.42610778,-0.964574791,2.650467438,2.466163686,-3.10543481,58.24595216,0.189577628,0.49921711700000004,0.015678228,0.58617115,48740892,0,1,0,0,0
48781111,0.061215264000000005,0.031925406,-0.057601461,0.18296018,0.0,1470.0,1500.0,1182.0,1471.0,1528.0,1513.0,14.88018029,15.21348844,14.87452234,14.74679961,15.07698117,14.92737773,15.26159856,135.5780583,135.5780583,12.03054605,-0.001724917,-0.005719236999999999,0.001317911,-0.20497733,0.19089397,-0.045887004,2.0,-1.0,0.0,11,0,0,1,0,0.0,0,0,0,0,0,0.296833991,0.044693937999999996,-2.8742718110000003,-3.126469078,-13.93932971,301.4645039,47.67625977,-0.022741065,-0.045592361,-0.041010387999999995,0.0,-0.369813949,-1.37199971,-7.676044675,-6.64e-34,959.4698341,12.02780774,0.238647737,-0.08432163300000001,-0.189445928,-0.268697583,-1.3807273480000002,-7.714920201,0.226028645,-0.08389584900000001,-0.19646177199999998,-6.64e-34,56.25932913,52.89968252,4.161201079,1.9214182030000002,15.33229507,21.33851226,-0.120124334,1.8437893909999998,-0.153462515,14.94538404,457.38495300000005,12.02916016,95950.50287000001,1.140050741,0.22731817899999998,0.326284354,0.102403058,0.242438785,-0.063575529,-0.171418238,0.30348965,0.076111612,-2.881003215,0.122637461,0.056916485999999995,-0.144887925,-0.9801641729999999,0.5572842570000001,398700732.8,327366843.2,458219.982,14.92987787,-14.72076805,-2.350732136,2.196353261,3.299962836,0,0,0.0,39.871413700000005,32.7364371,-150.3695125,20.92769267,-57.89293495,-14.70855154,-2.102547766,2.536511857,-1.029428545,2.609931766,2.302743709,-3.113333907,58.13369495,0.17016308100000002,0.516859454,0.009047029,0.5988763,48781111,0,1,0,0,0
48821329,0.061346865,0.03581581,-0.055371912999999995,0.183278318,0.0,1471.0,1500.0,1182.0,1469.676735,1529.323265,1516.0,14.92834211,15.26252782,14.90461331,14.77653202,15.10732092,14.96641176,15.30144782,136.1219503,136.1219503,12.03109899,-0.0017239170000000002,-0.005720393000000001,0.0013134689999999998,-0.205478204,0.191151303,-0.04593635,2.0,-1.0,0.0,11,0,0,1,0,0.0,0,0,0,0,0,0.294713948,0.062820803,-2.8791765519999997,-3.1264288839999996,-13.91480883,300.6817307,48.43613168,-0.02273129,-0.044915181,-0.040841435,0.0,-0.375183024,-1.365205675,-7.80552283,-6.64e-34,959.4849118999999,12.02859778,0.232570682,-0.075439858,-0.182253014,-0.39228599200000003,-1.463729575,-7.844115743,0.228455309,-0.076756424,-0.184623425,-6.64e-34,56.46839255,52.99451602,4.167864474,2.0707218000000003,15.33234286,21.33483639,-0.120049863,1.737887388,-0.154031337,15.55289812,457.1628893999999,12.0299257,95953.07394,1.1400812820000001,-0.5886785379999999,0.22238179800000002,0.6873687209999999,0.23749582800000002,-0.060719542,-0.159010776,0.303007841,0.09446939,-2.8863923560000004,0.118587957,0.065481357,-0.143592151,-0.980319457,0.5783231529999999,398700674.2,327366831.4,458118.7728,14.95632727,-14.76915583,-2.230522104,2.305979196,3.2915325760000003,0,0,0.0,39.871413700000005,32.7364371,-151.0332237,20.83335085,-57.7800747,-14.75828319,-1.9906920330000002,2.636938787,-1.0708478000000001,2.542521157,2.181237906,-3.120612608,58.02083491,0.14837846699999999,0.53051943,0.007460316999999999,0.6081188,48821329,0,1,0,0,0
48861548,0.063967143,0.040470614,-0.053290207,0.18391329,0.0,1472.0,1500.0,1183.0,1468.0,1531.0,1518.0,14.86769753,15.20055997,14.93470428,14.80626443,15.13766066,15.00544579,15.34129709,136.6658423,136.6658423,12.03165192,-0.001722917,-0.005721549,0.001309026,-0.205979078,0.19140863600000002,-0.045985697,2.0,-1.0,0.0,11,0,0,1,0,0.0,0,0,0,0,0,0.29259390399999996,0.080947669,-2.884081293,-3.1263886889999997,-13.89028796,299.8989574,49.196003600000004,-0.022744572,-0.044257325,-0.040692219,0.0,-0.341207096,-1.3977171780000002,-7.953386872,-6.64e-34,959.5114358999999,12.02947881,0.24025875800000002,-0.07217441599999999,-0.171420993,-0.28165084100000004,-1.4179972490000001,-7.8894664720000005,0.233791201,-0.069966718,-0.16780605699999998,-6.64e-34,56.67749637,53.09364671,4.174167134,2.2169789769999997,15.33239388,21.32782454,-0.11990861,1.6357743830000002,-0.154594445,16.16376473,457.0972903,12.03070958,95953.81945,1.140090167,0.332474222,-0.029555323999999997,0.9664610659999999,0.235167443,-0.053149403,-0.15417471800000002,0.30154101,0.112627505,-2.891980172,0.114487172,0.07388033299999999,-0.141868726,-0.9804625309999999,0.593252462,398700614.7,327366820.9,458004.4049,14.98682537,-14.82361672,-2.119421884,2.410544109,3.283738242,0,0,0.0,39.871413700000005,32.7364371,-151.6708021,20.74923243,-57.66652652,-14.80694378,-1.887598902,2.72598388,-1.085533195,2.444451869,2.1075474069999998,-3.127183568,57.90728717,0.129964666,0.525514351,0.006375992,0.6105520999999999,48861548,0,1,0,0,0
48901766,0.063653986,0.043558375,-0.049810497999999995,0.18451636,0.0,1473.0,1500.0,1183.7709539999998,1466.458092,1532.541908,1520.7709539999998,14.99081654,15.32628236,14.96479525,14.83599684,15.16800041,15.04447982,15.38114636,137.2097343,137.2097343,12.03220486,-0.0017219170000000001,-0.005722705,0.001304583,-0.206479952,0.191665969,-0.046035043,2.0,-1.0,0.0,11,0,0,1,0,0.0,0,0,0,0,0,0.29047386,0.099074534,-2.888986035,-3.1263484939999997,-13.86576708,299.11618419999996,49.95587552,-0.02277728,-0.043655785999999995,-0.040572562,0.0,-0.334665596,-1.4300481180000002,-8.091258662000001,-6.64e-34,959.5354408,12.03031929,0.235629645,-0.070094562,-0.160043842,-0.369290374,-1.381837939,-8.075317632,0.23677385399999998,-0.06525626799999999,-0.155399322,-6.64e-34,56.88660019,53.1927774,4.180469793,2.3632361530000003,15.332444899999999,21.32081269,-0.11976735599999999,1.5336613769999998,-0.155157554,16.77463134,456.8795027,12.03153154,95956.35076,1.140120211,0.034011077,0.19708058,-0.15193311,0.2332567,-0.054648616,-0.14481677099999998,0.29922739600000003,0.13052453,-2.897421591,0.110517381,0.082121339,-0.13977885,-0.980561696,0.603284323,398700555.2,327366810.5,457890.037,15.01732346,-14.87807762,-2.008321664,2.515109022,3.275943908,0,0,0.0,39.871413700000005,32.7364371,-152.3209103,20.66599716,-57.54910108,-14.85693998,-1.784253316,2.8136694789999996,-1.1010478670000001,2.3496916619999997,2.006986441,-2.532933255,57.78986198,0.10814404400000001,0.5382734060000001,0.00437502,0.61401045,48901766,0,1,0,0,0
48945984,0.059782977,0.048326334000000006,-0.047920094,0.18503894,0.0,1475.0,1500.0,1184.0,1469.318064,1529.681936,1522.0,15.01574955,15.35167096,14.99488622,14.86572926,15.19834016,15.08351385,15.42099562,137.7536263,137.7536263,12.03275779,-0.0017209170000000002,-0.005723860999999999,0.00130014,-0.206980825,0.19192330300000002,-0.046084389,2.0,-1.0,0.0,11,0,0,1,0,0.0,0,0,0,0,0,0.28835381600000004,0.117201399,-2.893890776,-3.1263083,-13.84124621,298.3334109,50.71574743,-0.022824026,-0.043104397,-0.040494784,0.0,-0.37374946,-1.462078768,-8.212512644,-6.64e-34,959.5552561000001,12.03109235,0.237939417,-0.070420708,-0.14527939,-0.30276182,-1.422880137,-8.073999877,0.235842909,-0.064003769,-0.150327778,-6.64e-34,57.09570401,53.29190809,4.186772453000001,2.50949333,15.33249593,21.31380085,-0.119626102,1.431548372,-0.15572066199999998,17.38549796,456.95298219999995,12.03236239,95955.48289,1.140109895,0.32145721,0.252094771,0.264386699,0.244331515,-0.044253932,-0.134170319,0.295952128,0.148176355,-2.9026198030000003,0.10674133300000001,0.090216395,-0.13725780199999998,-0.980623589,0.609884269,398700495.7,327366800.0,457775.6691,15.04782156,-14.93253851,-1.8972214440000001,2.619673935,3.2681495739999997,0,0,0.0,39.871413700000005,32.7364371,-153.016682,20.58598034,-57.41754554,-14.911803599999999,-1.679987701,2.896400605,-1.119584711,2.2669909109999997,1.808500056,0.250920943,57.658306,0.084375545,0.546941418,-0.0014468810000000001,0.6144506,48945984,0,1,0,0,0
48988406,0.060312153,0.052397757999999996,-0.046047865,0.185776752,0.0,1476.0,1500.0,1185.0,1470.8651730000001,1528.1348269999999,1524.0,15.07085732,15.40802146,15.02497719,14.89546167,15.22867991,15.12254789,15.46084489,138.2975183,138.2975183,12.03331073,-0.001719917,-0.005725017,0.001295697,-0.207481699,0.19218063600000002,-0.046133735,2.0,-1.0,0.0,11,0,0,1,0,0.0,0,0,0,0,0,0.286233772,0.135328265,-2.898795517,-3.126268105,-13.81672533,297.5506377,51.47561935,-0.022889151,-0.04258187099999999,-0.040460393,0.0,-0.40413625799999997,-1.4866368730000001,-8.326375342,-6.64e-34,959.5735453,12.03187046,0.22990836899999997,-0.069684821,-0.147957827,-0.36179104100000004,-1.4730938690000002,-8.271268801,0.23516737199999999,-0.062378742,-0.144744195,-6.64e-34,57.31199274,53.40290341,4.192727462,2.654452893,15.33256769,21.30036981,-0.119356049,1.333591665,-0.15628795,18.02054078,456.858095,12.03321007,95956.54785,1.1401225240000001,-0.46096739999999997,-0.069444004,0.49573675799999994,0.24010472800000002,-0.040261992999999996,-0.125148134,0.291529637,0.16556645,-2.9077482260000003,0.103096273,0.09813986300000001,-0.134220693,-0.98067248,0.613352996,398700436.3,327366789.6,457661.3013,15.07831966,-14.9869994,-1.786121224,2.724238848,3.26035524,0,0,0.0,39.871413700000005,32.7364371,-153.71245369999997,20.50596353,-57.285990000000005,-14.96666722,-1.5757220859999999,2.979131732,-1.138121556,2.18429016,1.610013671,3.0347751410000003,57.52675002,0.063246455,0.560614553,-0.004381655,0.6124779,48988406,0,1,0,0,0
49036843,0.06151801900000001,0.057232461,-0.044069288,0.187038836,0.0,1477.0,1500.0,1186.0,1470.0,1529.0,1526.0,15.13199979,15.47037409,15.05506816,14.92519408,15.25901966,15.16158192,15.50069416,138.8414103,138.8414103,12.03386366,-0.001718811,-0.005726017,0.001291729,-0.207928728,0.192378885,-0.046152362999999995,2.0,-1.0,0.0,11,0,0,1,0,0.0,0,0,0,0,0,0.284113728,0.15345513,-2.903700258,-3.12622791,-13.79220445,296.76786450000003,52.23549127,-0.022957002999999997,-0.042165706,-0.040493414,0.0,-0.3734866,-1.4587522819999998,-8.388365634,-6.64e-34,959.5811249,12.03268395,0.239344046,-0.061468884,-0.136737454,-0.387853921,-1.383530235,-8.315286417000001,0.23628430600000003,-0.058139295,-0.135567093,-6.64e-34,57.54737692,53.54543154,4.197758513,2.795963762,15.3326946,21.26987837,-0.118743683,1.246681227,-0.15686634300000002,18.71983716,456.8057109,12.03408849,95957.19692999999,1.1401302229999999,-0.25037582199999997,0.048751718,0.359963023,0.24039028199999998,-0.037372516,-0.120044502,0.286468864,0.182711685,-2.9122681239999997,0.09983176199999999,0.105965724,-0.130886731,-0.980646535,0.614904801,398700374.5,327366781.2,457529.6427,15.12116823,-15.03322665,-1.689429865,2.806161232,3.2537106319999998,0,0,0.0,39.871413700000005,32.7364371,-154.3615517,20.44126888,-57.15659143,-15.01935376,-1.485255096,3.0455787739999995,-1.164745138,2.084599271,1.5544180909999998,3.131319047,57.39735186,0.034798707000000005,0.556689443,-0.003105658,0.6114454,49036843,0,1,0,0,0
49090640,0.060596431,0.061209306,-0.041325461,0.18911304,0.0,1478.0,1500.0,1187.0,1469.959392,1529.040608,1529.0,15.1989027,15.53880885,15.08515913,14.95492649,15.28935941,15.20061595,15.54054342,139.3853023,139.3853023,12.0344166,-0.0017174870000000002,-0.005726694,0.0012887369999999999,-0.20826511600000003,0.19245573,-0.046107870999999995,2.0,-1.0,0.0,11,0,0,1,0,0.0,0,0,0,0,0,0.28199368399999997,0.17158199600000001,-2.9086049989999996,-3.1261877160000004,-13.76768358,295.9850912,52.99536319,-0.023039642000000003,-0.041750637,-0.040582396,0.0,-0.34283694200000003,-1.4308676919999999,-8.450355925,-6.64e-34,959.5887044,12.03349744,0.23676220899999997,-0.058481017999999996,-0.12331702900000001,-0.39619616700000004,-1.4541358819999999,-8.439957237,0.237401239,-0.053899847,-0.126389991,-6.64e-34,57.7827611,53.68795967,4.202789564,2.937474631,15.3328215,21.23938694,-0.11813131699999999,1.1597707879999999,-0.157444736,19.41913354,456.4845987,12.03496684,95960.83601,1.14017351,0.553588351,-0.293430173,-0.03290054,0.241456583,-0.037145564,-0.10995139300000001,0.28057142399999996,0.19958318,-2.9164343560000003,0.096843604,0.113653381,-0.127168123,-0.98057535,0.6132410189999999,398700312.7,327366772.9,457396.976,15.16473695,-15.07897379,-1.5935786730000001,2.886763353,3.247133063,0,0,0.0,39.871413700000005,32.7364371,-155.0088822,20.37715444,-57.02727454,-15.07195785,-1.395310635,3.1114091680000002,-1.19167495,1.9842649959999998,1.5042335230000001,3.126099449,57.26803542,0.013583976999999999,0.56904871,-0.00955233,0.6081842,49090640,0,1,0,0,0
49130858,0.057522950999999996,0.063316711,-0.039506822999999996,0.1895053,0.0,1479.0,1500.0,1189.0,1470.0,1529.0,1530.0,15.24405356,15.58470034,15.18188529,15.05127128,15.38773995,15.30216956,15.64424741,141.44160449999998,141.44160449999998,12.03529558,-0.001716163,-0.005727371,0.001285745,-0.208601504,0.192532575,-0.04606338,2.0,-1.0,0.0,11,0,0,1,0,0.0,0,0,0,0,0,0.279873641,0.189708861,-2.91350974,-3.126147521,-13.743162699999997,295.202318,53.7552351,-0.023126966000000002,-0.041349631,-0.040727722,0.0,-0.34329550799999997,-1.422227889,-8.513274977,4.673136302,959.6053618999999,12.03435831,0.23628359899999998,-0.051200536,-0.119159037,-0.390041728,-1.46290058,-8.536709667,0.240806491,-0.049700322000000005,-0.119516413,4.673136302,58.01814528,53.83048779,4.207820615,3.0789855,15.3329484,21.208895499999997,-0.117518951,1.07286035,-0.15802313,20.11842992,456.32530760000003,12.0358974,95962.69065,1.140195518,0.510617484,0.162279703,0.346162908,0.246253069,-0.03449531,-0.102913079,0.265163487,0.21620561800000002,-2.926330895,0.09167936,0.12044460400000001,-0.119173375,-0.98126633,0.611351098,398700250.8,327366764.6,457264.3093,15.20830566,-15.12472094,-1.4977274809999999,2.967365473,3.2405554939999996,0,0,0.0,39.871413700000005,32.7364371,-155.69919099999998,20.31587699,-56.885208299999995,-15.12924759,-1.308010295,3.17582303,-1.192247525,1.890928172,1.414966001,3.121068888,57.12596898,-0.009213558,0.5747560429999999,-0.016141807,0.6041566999999999,49130858,0,1,0,0,0
49171077,0.055441715999999995,0.06772052,-0.038054998,0.19065805,0.0,1480.0,1500.0,1190.0,1469.053611,1529.946389,1532.0,15.3362228,15.67894911,15.30560293,15.174598300000001,15.51368132,15.42904755,15.77381661,144.11052859999998,144.11052859999998,12.03630664,-0.001714839,-0.005728048,0.001282753,-0.208937892,0.19260941899999998,-0.046018888,2.0,-1.0,0.0,11,0,0,1,0,0.0,0,0,0,0,0,0.277089049,0.206914745,-2.9182816419999997,-3.1261231019999998,-13.71366985,294.41037400000005,54.48630573,-0.023219516000000003,-0.040954294,-0.040920635,0.0,-0.348241607,-1.416364254,-8.576328007,10.0203984,959.6233289999999,12.035226,0.242758453,-0.051442817,-0.113876195,-0.3020382,-1.421717558,-8.591089964,0.244541845,-0.045506556,-0.11297513,10.0203984,58.25352946,53.97301592,4.212851666000001,3.2204963689999997,15.333075299999999,21.17840406,-0.116906585,0.985949912,-0.158601523,20.8177263,456.22577649999994,12.036819099999999,95963.82831,1.14020905,0.223905451,-0.07059779599999999,-0.217965178,0.246926538,-0.022781423999999998,-0.097103724,0.257601635,0.232593855,-2.929685825,0.089350808,0.127920585,-0.11469246400000001,-0.9810693620000001,0.608326252,398700188.9,327366756.3,457131.6425,15.25187437,-15.17046809,-1.401876289,3.0479675939999997,3.233977926,0,0,0.0,39.871413700000005,32.7364371,-156.40690869999997,20.255748699999998,-56.73797776,-15.1884353,-1.221780992,3.2396631069999997,-1.182143749,1.800425757,1.309867408,3.1161149,56.978738,-0.031622343,0.555857775,-0.021507507999999998,0.59993863,49171077,0,1,0,0,0
49211295,0.056499430999999996,0.070954539,-0.036621222,0.19215651,0.0,1481.0,1500.0,1190.60072,1471.39928,1527.60072,1533.60072,15.49694368,15.84303181,15.42932057,15.29792532,15.63962268,15.55592555,15.90338581,146.77945259999998,146.77945259999998,12.0373177,-0.001713516,-0.005728725,0.0012797610000000001,-0.20927427899999998,0.192686264,-0.045974397,2.0,-1.0,0.0,11,0,0,1,0,0.0,0,0,0,0,0,0.26680983399999997,0.213734002,-2.921555413,-3.1262766039999996,-13.62810417,293.51500530000004,54.89256182,-0.02330989,-0.040561673,-0.041162052000000005,0.0,-0.34218553399999996,-1.405050305,-8.650417323,8.703445508,959.6403436,12.03610228,0.24489684,-0.046792948,-0.10931019900000001,-0.45676291799999996,-1.323683379,-8.712769556,0.242121342,-0.042279037,-0.106888127,8.703445508,58.470978099999996,54.12102139,4.216521422,3.338289364,15.33318587,21.15224676,-0.11638122599999999,0.919793127,-0.15910421,21.46534003,455.98641330000004,12.03774963,95966.59096,1.140241863,0.400581991,-0.012329405,-0.162957705,0.24314032100000002,-0.026161051,-0.089081616,0.24954289100000002,0.24851278699999999,-2.932706577,0.08730706199999999,0.135177698,-0.109995668,-0.980816758,0.604581449,398700127.6,327366748.8,456996.5049,15.29775947,-15.22084809,-1.312202345,3.123164625,3.227818108,0,0,0.0,39.871413700000005,32.7364371,-157.09172080000002,20.20137652,-56.59370033,-15.24656546,-1.141924861,3.29736979,-1.193476787,1.704323651,1.220027609,3.111647291,56.83446054,-0.0523153,0.534143115,-0.022885733,0.5957760999999999,49211295,0,1,0,0,0
49259514,0.057168125,0.075132022,-0.035281597000000005,0.1940662,0.0,1481.0,1500.0,1192.0,1472.0,1527.0,1535.0,15.37596946,15.71925349,15.55303821,15.42125233,15.76556405,15.68280354,16.032954999999998,149.4483767,149.4483767,12.03832875,-0.0017121920000000002,-0.005729402,0.001276768,-0.209610667,0.192763109,-0.045929905,2.0,-1.0,0.0,11,0,0,1,0,0.0,0,0,0,0,0,0.25653062,0.22055325899999997,-2.9248291839999996,-3.1264301060000004,-13.54253848,292.6196365,55.29881791,-0.023402858,-0.040151419,-0.041438995,0.0,-0.329475692,-1.3904401769999999,-8.73118104,3.356183413,959.6567822999999,12.03698375,0.243088097,-0.039128003,-0.096320596,-0.41521405100000003,-1.379175094,-8.669015287,0.23597796899999998,-0.039635874,-0.101075858,3.356183413,58.68026115,54.27152054,4.219571416,3.445284235,15.333289,21.12806267,-0.11589548,0.8630849340000001,-0.159572431,22.08942401,455.83239929999996,12.03871042,95968.36327,1.140262914,0.279789167,0.656233438,0.395694526,0.24163738399999998,-0.021088813999999997,-0.081981706,0.240712504,0.25502518399999996,-2.935562168,0.08607361599999999,0.1378251,-0.10547754699999999,-0.9810546290000001,0.60088208,398700067.3,327366742.7,456856.8672,15.34786328,-15.27966564,-1.233778673,3.188517674,3.222419116,0,0,0.0,39.871413700000005,32.7364371,-157.74963390000002,20.15376398,-56.45289087,-15.30345368,-1.0695529940000001,3.347873791,-1.229983907,1.601645609,1.148106803,3.1077508560000005,56.69365152,-0.06951989900000001,0.520906813,-0.027293712999999997,0.5919144000000001,49259514,0,1,0,0,0
49303732,0.055658453,0.076986597,-0.03350352,0.19596102899999998,0.0,1482.0,1500.0,1194.0,1471.0,1528.0,1537.0,15.44710492,15.79210572,15.67675584,15.54457935,15.89150542,15.80968154,16.1625242,152.1173007,152.1173007,12.03933981,-0.001710868,-0.005730079,0.0012737760000000001,-0.209947055,0.192839953,-0.045885414000000006,2.0,-1.0,0.0,11,0,0,1,0,0.0,0,0,0,0,0,0.246251406,0.22737251600000002,-2.928102954,-3.1265836080000002,-13.4569728,291.7242678,55.705073999999996,-0.023498852999999997,-0.039728942999999996,-0.041736926,0.0,-0.332590578,-1.3763675080000002,-8.821729297000001,-6.64e-34,959.6711862,12.03788524,0.247916897,-0.039770562,-0.093702731,-0.36740926799999996,-1.5062548969999998,-8.778948909,0.233863052,-0.035383046,-0.09399580099999999,-6.64e-34,58.8895442,54.42201969,4.22262141,3.5522791060000003,15.33339214,21.10387858,-0.11540973300000001,0.8063767409999999,-0.160040651,22.71350799,455.7507648,12.039701800000001,95969.28024,1.140273787,-0.19653338199999998,0.140456248,0.345405406,0.240387027,-0.014962775,-0.075501221,0.23162474600000002,0.259878735,-2.938078591,0.08515577,0.139679765,-0.100912806,-0.98135259,0.596816751,398700006.9,327366736.6,456717.2294,15.39796708,-15.33848318,-1.155355002,3.253870723,3.217020125,0,0,0.0,39.871413700000005,32.7364371,-158.4204006,20.10683802,-56.30862477,-15.36167624,-0.998202685,3.397120993,-1.258709558,1.49966809,1.0710332470000001,3.103932662,56.54938587,-0.085948725,0.503515914,-0.028321011,0.5884528,49303732,0,1,0,0,0
49343950,0.052647358,0.07944877,-0.032509911,0.19697851,0.0,1483.0,1500.0,1196.0,1472.0,1527.0,1538.0,15.52237966,15.868754000000001,15.80047348,15.66790637,16.01744679,15.93655954,16.292093400000002,154.7862248,154.7862248,12.04035087,-0.001709544,-0.005730756,0.0012707839999999998,-0.21028344300000001,0.192916798,-0.045840922,2.0,-1.0,0.0,11,0,0,1,0,0.0,0,0,0,0,0,0.23597219100000003,0.23419177300000002,-2.931376725,-3.12673711,-13.37140712,290.82889910000006,56.11133009,-0.023598855,-0.039252964,-0.042068903,0.0,-0.362379795,-1.363200785,-8.928770479,-6.64e-34,959.6821601,12.03882046,0.23928897100000002,-0.030400913999999998,-0.08710293,-0.404269809,-1.4139231419999998,-8.945119717,0.23853854300000002,-0.028416947,-0.084778746,-6.64e-34,59.09882726,54.57251884,4.225671404,3.659273977,15.33349527,21.07969449,-0.11492398599999999,0.7496685479999999,-0.160508871,23.33759197,455.5158216,12.04069221,95971.97551,1.1403058320000001,0.091850396,0.378740969,0.147370253,0.24235515100000002,-0.0070065990000000005,-0.069485928,0.22250951,0.26426515899999997,-2.940242964,0.08445996,0.141332508,-0.096340944,-0.981635723,0.59345899,398699946.6,327366730.5,456577.5917,15.44807088,-15.39730073,-1.07693133,3.319223772,3.2116211339999996,0,0,0.0,39.871413700000005,32.7364371,-159.14007759999998,20.06252462,-56.1512055,-15.42497621,-0.930739598,3.44158583,-1.257825199,1.4003561969999998,0.974352474,3.100412192,56.39196704,-0.11353812199999999,0.484005543,-0.034022443,0.5858228,49343950,0,1,0,0,0
49396169,0.052734418,0.081141875,-0.030894308,0.19929698199999998,0.0,1483.0,1500.0,1198.0,1472.789158,1526.210842,1540.0,15.65501676,16.0041966,15.92419112,15.79123339,16.14338816,16.06343753,16.42166259,157.45514880000002,157.45514880000002,12.04136192,-0.001708221,-0.005731432,0.001267792,-0.210619831,0.19299364300000002,-0.045796431,2.0,-1.0,0.0,11,0,0,1,0,0.0,0,0,0,0,0,0.225692977,0.24101103,-2.934650496,-3.126890612,-13.28584144,289.93353030000003,56.51758618,-0.023682507999999998,-0.038833974,-0.042384900999999996,0.0,-0.385180285,-1.3504935219999998,-9.025097484,-6.64e-34,959.694668,12.03978707,0.23754405399999998,-0.026841941,-0.074049209,-0.402478609,-1.406297822,-8.939235118,0.242454368,-0.022079322999999998,-0.076179069,-6.64e-34,59.30811255,54.72490449,4.228624404,3.764736155,15.33359572,21.0554056,-0.114436198,0.694104171,-0.160973438,23.96149497,455.43436610000003,12.04167998,95972.94517,1.1403173640000002,-0.320585423,0.265983785,-0.059144222,0.24610223,-0.001059854,-0.055790367,0.21325776100000002,0.268299511,-2.9421677760000002,0.08392922300000001,0.142827014,-0.091708278,-0.9819088429999999,0.589786688,398699886.2,327366724.4,456437.95399999997,15.49817469,-15.45611828,-0.998507658,3.3845768210000005,3.2062221419999997,0,0,0.0,39.871413700000005,32.7364371,-159.85975469999997,20.01821122,-55.99378623,-15.48827619,-0.8632765109999999,3.4860506669999998,-1.256940841,1.301044303,0.8776716999999998,3.096891722,56.23454821,-0.125509608,0.46985027100000004,-0.034494507,0.58400756,49396169,0,1,0,0,0
49444387,0.050814474000000005,0.08461749199999999,-0.029938387,0.201069859,0.0,1484.0,1500.0,1200.0,1472.336267,1526.663733,1541.0,15.694365900000001,16.04429926,16.04790876,15.9145604,16.26932952,16.19031553,16.55123179,160.12407290000002,160.12407290000002,12.04237298,-0.0017068970000000002,-0.005732109,0.001264799,-0.21095621899999997,0.19307048699999999,-0.045751939000000005,2.0,-1.0,0.0,11,0,0,1,0,0.0,0,0,0,0,0,0.21541376199999998,0.247830288,-2.937924267,-3.127044114,-13.20027575,289.0381616,56.92384227,-0.023756418999999997,-0.03846434,-0.042664183,0.0,-0.357480754,-1.3411062759999999,-9.04400464,-6.64e-34,959.7182597000001,12.04098043,0.241972205,-0.019888522,-0.066827811,-0.404195965,-1.4197794430000001,-9.128848243,0.24088089199999999,-0.020283016,-0.072040516,-6.64e-34,59.51741785,54.89409717,4.230713284,3.856543438,15.33367226,21.03018297,-0.11393021699999999,0.648730157,-0.161405459,24.58378554,455.1535659,12.04269711,95976.16887000001,1.1403557359999998,0.014240643999999998,0.30496233699999997,0.075409077,0.237706461,0.0025293629999999998,-0.05180343,0.194767469,0.271959085,-2.9498013430000003,0.081295408,0.143522584,-0.08297146400000001,-0.9828059490000001,0.587253264,398699823.2,327366719.7,456284.00299999997,15.55493615,-15.51992907,-0.935062979,3.429957908,3.2019560289999998,0,0,0.0,39.871413700000005,32.7364371,-160.53139130000002,19.98293468,-55.84388346,-15.54786315,-0.810197788,3.520929218,-1.2908951290000001,1.222258495,0.801226433,3.0943161339999996,56.08464546,-0.135449399,0.45741040200000005,-0.035549713999999996,0.5830038000000001,49444387,0,1,0,0,0
49492606,0.050710773,0.087055909,-0.029053847,0.203280658,0.0,1485.0,1500.0,1202.0,1473.0,1526.0,1542.0,15.77273167,16.12426852,16.1716264,16.03788742,16.39527089,16.31719352,16.68080099,162.79299699999999,162.79299699999999,12.04338404,-0.001705573,-0.005732786,0.001261807,-0.21129260600000002,0.193147332,-0.045707448,2.0,-1.0,0.0,11,0,0,1,0,0.0,0,0,0,0,0,0.205134548,0.254649545,-2.941198038,-3.127197616,-13.11471007,288.14279280000005,57.33009836,-0.023830162000000002,-0.038073964,-0.042951212999999995,0.0,-0.329781223,-1.33171903,-9.062911797,-6.64e-34,959.7418515,12.04217379,0.247166253,-0.014035799,-0.062396767,-0.456712455,-1.406390391,-9.020464177000001,0.23930741600000002,-0.018486708,-0.067901962,-6.64e-34,59.72672314,55.06328986,4.232802164,3.948350722,15.33374879,21.00496034,-0.113424235,0.603356144,-0.16183748,25.20607611,455.1517375,12.04371483,95976.18633,1.1403559140000001,-0.10446579,-0.559090151,0.008709966,0.243932227,0.004950586,-0.047675525999999996,0.18560456399999997,0.275338637,-2.951348665,0.081015463,0.144745009,-0.078399128,-0.983024954,0.5849262270000001,398699759.4,327366715.3,456125.6307,15.61375414,-15.58528225,-0.876245224,3.469169772,3.198039855,0,0,0.0,39.871413700000005,32.7364371,-161.20083300000002,19.94807105,-55.69432411,-15.60728045,-0.757776287,3.5553697719999997,-1.326441197,1.144410525,0.725705728,3.0917837180000003,55.93508611,-0.144699259,0.446915267,-0.036222681,0.582762,49492606,0,1,0,0,0
49536824,0.047743191,0.088637773,-0.027641544,0.20472679,0.0,1485.0,1500.0,1203.0,1474.0,1525.0,1543.0,15.85392044,16.20716844,16.29534403,16.16121444,16.52121226,16.44407152,16.81037018,165.461921,165.461921,12.04439509,-0.001704249,-0.005733463,0.001258815,-0.211628994,0.193224177,-0.045662956,2.0,-1.0,0.0,11,0,0,1,0,0.0,0,0,0,0,0,0.194855334,0.261468802,-2.944471809,-3.127351118,-13.02914439,287.24742410000005,57.73635445,-0.023895827,-0.037688605,-0.04323637599999999,0.0,-0.35255599299999996,-1.375207785,-9.139821544,-6.64e-34,959.7604254,12.04317797,0.238992365,-0.013448036000000002,-0.060044259,-0.31030301899999996,-1.38716969,-9.18275848,0.239117023,-0.012361829,-0.056603672,-6.64e-34,59.93602843,55.23248254,4.234891043,4.040158005,15.33382532,20.97973771,-0.11291825400000001,0.55798213,-0.16226950099999998,25.82836668,454.93185539999996,12.04473201,95978.71493,1.140385964,-0.381781305,-0.261375951,0.27457017699999997,0.24156353100000003,0.012491861000000002,-0.034753025,0.176776685,0.27843961300000003,-2.952694265,0.080836955,0.145857232,-0.073993444,-0.983216511,0.583736174,398699695.6,327366711.0,455967.2585,15.67257212,-15.65063543,-0.81742747,3.508381637,3.194123681,0,0,0.0,39.871413700000005,32.7364371,-161.9148826,19.91472542,-55.53376765,-15.67286366,-0.7104073790000001,3.5837625039999996,-1.372472573,1.061935645,0.640956585,3.0897480639999997,55.77452934,-0.146565704,0.43452376,-0.033815377,0.58309317,49536824,0,1,0,0,0
49581043,0.043959107000000004,0.091676911,-0.02715899,0.20681717,0.0,1486.0,1500.0,1204.9775960000002,1476.9775960000002,1522.0224039999998,1544.9775960000002,15.88434017,16.23817551,16.41906167,16.28454146,16.64715363,16.57094952,16.93993938,168.1308451,168.1308451,12.04540615,-0.001702925,-0.00573414,0.001255823,-0.21196538199999998,0.19330102100000002,-0.045618465,2.0,-1.0,0.0,11,0,0,1,0,0.0,0,0,0,0,0,0.18457611899999998,0.26828805899999997,-2.947745579,-3.12750462,-12.9435787,286.3520553,58.14261055,-0.023956877999999997,-0.037306764,-0.043495597999999996,0.0,-0.38282100399999996,-1.426543186,-9.225338707999999,-6.64e-34,959.7782547,12.04415407,0.240156753,-0.0017187279999999999,-0.046208293,-0.40742909,-1.392356744,-9.293427985,0.23913187600000002,-0.005594604,-0.044242897999999996,-6.64e-34,60.14533372,55.40167522,4.236979923,4.131965288,15.33390186,20.95451507,-0.11241227300000001,0.512608116,-0.162701521,26.45065725,454.8944664,12.04574997,95979.15698,1.140391135,-0.6084901779999999,0.024212716000000002,0.183809035,0.240544712,0.015753889,-0.035002538,0.168239005,0.281315942,-2.9540366789999997,0.080660886,0.146875265,-0.069743587,-0.983389995,0.582861654,398699631.8,327366706.6,455808.8862,15.731390099999999,-15.71598861,-0.758609715,3.547593501,3.1902075069999998,0,0,0.0,39.871413700000005,32.7364371,-162.64764250000002,19.882016500000002,-55.36859858,-15.74103307,-0.665157718,3.609618554,-1.422901878,0.977520068,0.552336689,3.087920772,55.60935983,-0.164682005,0.42035347799999995,-0.037983042,0.58300334,49581043,0,1,0,0,0
49633261,0.037438522,0.09151628,-0.025836141,0.37376666,0.0,1486.0,1500.0,1207.0494099999999,1477.475295,1521.524705,1545.524705,15.93274272,16.287558999999998,16.54277931,16.40786847,16.773095,16.69782751,17.06950858,170.7997691,170.7997691,12.04641721,-0.0017016020000000002,-0.005734817,0.00125283,-0.21230177,0.193377866,-0.045573973,2.0,-1.0,0.0,11,0,0,1,0,0.0,0,0,0,0,0,0.174296905,0.275107316,-2.95101935,-3.1276581219999997,-12.85801302,285.4566866,58.54886664,-0.024020867,-0.03691455,-0.043779335999999995,0.0,-0.391464514,-1.441117507,-9.290501668,-6.64e-34,959.7914674000001,12.04513871,0.24482769399999998,-0.003105379,-0.038806345,-0.318976659,-1.3711952669999998,-9.297321197999999,0.240050615,0.000522266,-0.038811732,-6.64e-34,60.36810885,55.59173118,4.238656295,4.220829381000001,15.33402889,20.92738612,-0.111867155,0.472167236,-0.16314357699999998,27.11018705,454.7435988,12.04679792,95980.85472999999,1.140411464,-0.275421566,0.23879256399999998,-0.377947331,0.241620177,0.017652773,-0.029976582999999998,0.160126128,0.283986053,-2.9552458560000003,0.08053853,0.14781739,-0.06570495900000001,-0.983537111,0.582881576,398699567.9,327366702.4,455650.4383,15.79058612,-15.78096371,-0.703194639,3.5815123019999997,3.1865156910000003,0,0,0.0,39.871413700000005,32.7364371,-163.35725459999998,19.85228419,-55.20805907,-15.80721801,-0.625522128,3.631155295,-1.451005647,0.86033182,0.44202674299999994,3.0864203910000003,55.44882007,-0.17013776100000003,0.409518334,-0.037535318,0.5839543,49633261,0,1,0,0,0
49677479,0.032467981,0.108024451,-0.026642021000000002,0.43334209999999995,0.0,1486.9281859999999,1500.0,1375.2262449999998,1480.9281859999999,1518.0718140000001,1545.359072,15.96958947,16.32521422,16.66649695,16.53119549,16.89903637,16.82470551,17.19907777,173.4686932,173.4686932,12.04742827,-0.001700278,-0.005735494,0.001249838,-0.212638158,0.193454711,-0.045529482,2.0,-1.0,0.0,11,0,0,1,0,0.0,0,0,0,0,0,0.16401769,0.281926573,-2.954293121,-3.1278116239999996,-12.77244734,284.56131780000004,58.95512273,-0.024078474,-0.036499671000000004,-0.044078350999999995,0.0,-0.38685563,-1.4331599819999998,-9.343188995,-6.64e-34,959.8018504,12.04612859,0.23641615100000002,0.009271909,-0.030533766,-0.37172770299999996,-1.4292402709999998,-9.367321528,0.24152337,0.006240516,-0.037627906,-6.64e-34,60.60358548,55.80146035,4.23994369,4.306918165,15.33420354,20.89845958,-0.111285131,0.43637809899999996,-0.163595095,27.804831899999996,454.4675102,12.04784383,95984.08412999999,1.140449733,-0.17248773,-0.051190779000000006,0.10187858699999999,0.238799767,0.018228226,-0.023671785,0.143442634,0.286499554,-2.961866834,0.078405723,0.148183873,-0.057861035,-0.984147019,0.582924289,398699504.1,327366699.2,455491.6303,15.85158232,-15.84413846,-0.6639827970000001,3.590226045,3.183892245,0,0,0.0,39.871413700000005,32.7364371,-164.0388821,19.82615045,-55.05311648,-15.87100382,-0.592673699,3.647470186,-1.452118845,0.7035228809999999,0.305494496,3.0853152319999997,55.29387748,-0.17022255600000002,0.398210313,-0.035317612000000005,0.584999354,49677479,0,1,0,0,0
