timestamp,control[0],control[1],control[2],control[3],control[4],output[2],output[3],output[4],output[5],output[6],output[7],indicated_airspeed_m_s,true_airspeed_m_s,indicated_airspeed_m_s.1,equivalent_airspeed_m_s,true_airspeed_m_s.1,equivalent_ground_minus_wind_m_s,true_ground_minus_wind_m_s,differential_pressure_raw_pa,differential_pressure_filtered_pa,temperature,gyro_bias[0],gyro_bias[1],gyro_bias[2],accel_bias[0],accel_bias[1],accel_bias[2],instance_count,seq_reached,seq_current,seq_total,item_changed_index,item_do_jump_remaining,valid,warning,finished,failure,stay_in_failsafe,flight_termination,item_do_jump_changed,execution_mode,nav_roll,nav_pitch,nav_bearing,target_bearing,xtrack_error,wp_dist,acceptance_radius,rollspeed_integ,pitchspeed_integ,yawspeed_integ,additional_integ1,x,y,z,temperature.1,pressure,temperature.2,gyro_rad[0],gyro_rad[1],gyro_rad[2],accelerometer_m_s2[0],accelerometer_m_s2[1],accelerometer_m_s2[2],x.1,y.1,z.1,temperature.3,altitude_sp,altitude_filtered,height_rate_setpoint,height_rate,airspeed_sp,airspeed_filtered,airspeed_derivative_sp,airspeed_derivative,throttle_integ,pitch_integ,baro_alt_meter,baro_temp_celcius,baro_pressure_pa,rho,xyz[0],xyz[1],xyz[2],xyz[0].1,xyz[1].1,xyz[2].1,roll_body,pitch_body,yaw_body,q_d[0],q_d[1],q_d[2],q_d[3],thrust_body[0],lat,lon,alt,vel_m_s,vel_n_m_s,vel_e_m_s,vel_d_m_s,cog_rad,ground_contact,maybe_landed,landed,ref_lat,ref_lon,x.2,y.2,z.2,vx,vy,vz,ax,ay,az,dist_bottom,roll,pitch,yaw,thrust_body[0].1,timestamp.1,isTakeoff,isClimbing,isDescending,isCruise,isLand
23923302,-0.004061663,-0.111891629,-0.018815058,0.12984811,0.0,1488.0,1500.0,1366.847169,1526.6157230000001,1472.3842769999999,1454.307862,16.95205276,17.32980561,21.11226414,21.0691822,21.49709466,20.93474397,21.35992563,177.2654441,177.2654441,12.0439157,-0.001691263,-0.006862297,0.003273957,-0.160543262,-0.0028898979999999997,-0.108919703,2.0,-1.0,0.0,11,0,0,1,0,0.0,0,0,0,0,0,-0.8482540000000001,0.21931096,0.561532537,0.15159615,-30.08773501,181.64697569999998,55.53896664,-0.022153531,-0.039675526,-0.008100996,0.0,1.866387993,0.287543057,-6.949003782999999,2.2000000000000002e-23,959.7434477,12.04231829,-0.022851151,-0.171182382,-0.033703439,0.011549753000000001,0.199277318,-6.736951779,-0.11633073,-0.136311695,-0.033603496000000004,2.2000000000000002e-23,53.86779698,56.6696789,3.805690515,1.7870235890000001,15.33507683,19.57986243,-0.084895709,1.7584913969999998,-0.161107834,-22.58839748,455.2237114,12.04270137,95975.37071,1.140346206,-1.493830339,1.133013984,0.32126181,-0.013272068,-0.157060548,-0.037330904,-0.8592672140000001,0.224665817,0.525462975,0.8602604970000001,-0.426175896,-0.009088835,0.279717488,0.548267885,398713724.7,327393603.7,455695.5957,17.34065143,0.648771714,17.31368474,-1.3371194240000002,1.532780855,0,0,0.0,39.871413700000005,32.7364368,-4.534795116000001,250.8426289,-55.79564388,0.598143137,17.25531299,-1.088121539,0.287485198,1.349668162,2.960061395,55.95131388,-0.38422227700000006,0.333814715,-0.162935033,0.54846203,23923302,0,1,0,0,0
23964284,-0.022150597,-0.110599614,-0.023171137999999997,0.31057984,0.0,1488.0,1500.0,1397.0,1534.0,1465.0,1461.0,16.96449502,17.34268212,21.07469076,21.03173269,21.45916492,20.89797859,21.32269207,175.5810049,175.5810049,12.04322954,-0.001690535,-0.006860748000000001,0.003271068,-0.160512229,-0.002967516,-0.108932968,2.0,-1.0,0.0,11,0,0,1,0,0.0,0,0,0,0,0,-0.853254209,0.22181660000000003,0.5446638970000001,0.148204743,-29.44281538,181.4500619,55.67913009,-0.022137181000000002,-0.039563389,-0.007813592,0.0,2.421564104,0.30564237,-7.213674247,2.8616845339999997,959.7329193,12.0421129,-0.050832344,-0.167120512,-0.028318112000000003,1.156724027,0.217289581,-6.706710436,-0.16854634,-0.110425488,-0.033265833,2.8616845339999997,54.0344392,56.73370278,3.816703915,1.849532875,15.33509593,19.66664496,-0.08663098,1.712029384,-0.161744033,-22.40707512,455.30604000000005,12.04245566,95974.40522,1.140334734,-2.257219595,1.583592782,0.148407985,-0.017097242,-0.15874612400000002,-0.03771794,-0.859793742,0.22621428899999999,0.5126922939999999,0.8617548359999999,-0.426592371,-0.005752079,0.274506944,0.54888305,398713726.6,327393677.3,455749.1984,17.3058443,0.660954151,17.27713743,-1.223996799,1.531960751,0,0,0.0,39.871413700000005,32.7364368,-4.512881104,251.44193399999997,-55.82831556,0.614794825,17.32240638,-0.99257443,0.408759324,1.904191644,2.762454523,55.98398587,-0.36378895,0.34091071,-0.167911375,0.54812187,23964284,0,1,0,0,0
24000917,-0.039223952,-0.098861953,-0.0233489,0.34195662,0.0,1488.0,1500.0,1443.0,1548.177435,1450.822565,1470.0,17.06449486,17.44492092,21.03711738,20.99428318,21.42123517,20.86121321,21.28545851,176.8102139,176.8102139,12.04290363,-0.001687309,-0.006857804,0.0032606329999999998,-0.160415599,-0.003268805,-0.108929709,2.0,-1.0,0.0,11,0,0,1,0,0.0,0,0,0,0,0,-0.858254417,0.224322241,0.527795256,0.144813337,-28.79789575,181.2531481,55.81929355,-0.022121999,-0.039469746,-0.007563888,0.0,2.9230328460000004,0.32034538100000004,-7.545254329,7.134940731,959.7218082,12.04192908,-0.08869997199999999,-0.14676221,-0.025079068,1.790364956,0.34000215899999997,-6.845091246,-0.227807557,-0.077806314,-0.034682468,7.134940731,54.20108142,56.79772665,3.827717315,1.91204216,15.33511503,19.75342749,-0.08836625199999999,1.6655673709999999,-0.162380233,-22.22575276,455.35446160000004,12.04221821,95973.83404,1.140327866,-1.6529571719999998,1.8093334030000001,-0.270305126,-0.028352764,-0.150371222,-0.035843755,-0.8610774929999999,0.22770253,0.497802845,0.86335421,-0.427311066,-0.0020902439999999998,0.26836242899999996,0.549497927,398713728.6,327393750.8,455796.976,17.30285157,0.6735846790000001,17.2737487,-1.121180235,1.531203205,0,0,0.0,39.871413700000005,32.7364368,-4.49098423,252.03564469999998,-55.85927882,0.632142984,17.39789625,-0.900095595,0.54185562,2.398190975,2.553662611,56.01494948,-0.338532205,0.346642591,-0.17371826,0.548428205,24000917,0,1,0,0,0
24043100,-0.06977941,-0.078240268,-0.022785082999999998,0.39767468,0.0,1488.0,1500.0,1462.0,1552.0,1447.0,1475.0,17.11205145,17.49366749,20.99954401,20.95683367,21.38330542,20.82444783,21.24822495,178.586954,178.586954,12.0426454,-0.001683614,-0.006854598000000001,0.00324878,-0.160306641,-0.003612125,-0.10892334599999999,2.0,-1.0,0.0,11,0,0,1,0,0.0,0,0,0,0,0,-0.859013584,0.22577070000000005,0.51370036,0.14129165900000001,-28.13314115,180.98357130000002,55.85999436,-0.022106432000000002,-0.039379932,-0.007322237,0.0,3.424501587,0.335048391,-7.876834412000001,11.40819693,959.7106972000001,12.04174525,-0.13181534,-0.13245352,-0.028401654,2.150234823,0.294419085,-6.976095667,-0.28706877399999997,-0.045187139,-0.036099103,11.40819693,54.36772364,56.86175053,3.838730715,1.974551445,15.33513413,19.84021002,-0.090101523,1.619105358,-0.163016432,-22.044430399999996,455.46035480000006,12.04201101,95972.64497000001,1.140313808,-1.6693745480000002,1.084655515,0.207758799,-0.060636076,-0.149661148,-0.036279544,-0.8629634690000001,0.229132009,0.481042653,0.865026615,-0.428250003,0.001878915,0.261390047,0.55018291,398713731.1,327393823.7,455827.9542,17.39160932,0.68750747,17.36598698,-1.0480856109999999,1.53062607,0,0,0.0,39.871413700000005,32.7364368,-4.468794525,252.6330074,-55.88987836,0.650337733,17.47611401,-0.8095434290000001,0.676433077,2.875708874,2.325460401,56.04554934,-0.32016441,0.351265579,-0.17594258100000001,0.5492781999999999,24043100,0,1,0,0,0
24082183,-0.090594873,-0.062546846,-0.022711504,0.43352973,0.0,1488.0,1500.0,1491.753351,1563.0520099999999,1435.9479900000001,1483.134227,17.3211568,17.70743173,20.96197063,20.91938415,21.34537567,20.78768245,21.21099139,180.36369399999998,180.36369399999998,12.04238718,-0.001679919,-0.0068513919999999996,0.003236927,-0.160197684,-0.003955446,-0.108916982,2.0,-1.0,0.0,11,0,0,1,0,0.0,0,0,0,0,0,-0.85872373,0.226957665,0.500291549,0.13773775900000002,-27.46348038,180.6960214,55.87609311,-0.022089728,-0.039285239,-0.007048794000000001,0.0,3.595337595,0.359759605,-8.38308416,12.04158863,959.7097482,12.04158863,-0.172764372,-0.10941361699999999,-0.025725623,2.757081994,0.23815796,-7.156757635,-0.34505431299999995,-0.008802783,-0.043227157999999995,12.04158863,54.53436586,56.92577441,3.849744115,2.03706073,15.33515323,19.92699255,-0.091836794,1.572643345,-0.163652632,-21.86310803,455.3670084,12.04183029,95973.70797,1.14032651,-1.780458708,0.607067433,0.097062071,-0.09358362,-0.129181408,-0.031397998999999996,-0.861726923,0.23048644,0.470965576,0.8664631740000001,-0.427810498,0.004797497,0.257282506,0.551227833,398713733.5,327393896.6,455858.9324,17.48036707,0.701430262,17.45822525,-0.9749909859999999,1.530048936,0,0,0.0,39.871413700000005,32.7364368,-4.44199412,253.28787200000002,-55.91475108,0.6818622870000001,17.59728306,-0.749327205,0.834331832,3.09372198,1.791637549,56.07042171,-0.295601645,0.35685480299999994,-0.18196373300000002,0.549630796,24082183,0,1,0,0,0
24114816,-0.107764095,-0.048615527,-0.022351212999999998,0.46272296,0.0,1488.0,1500.0,1509.0,1567.207842,1431.792158,1488.0,17.27315191,17.65841911,20.92439725,20.88193464,21.30744592,20.75091707,21.17375783,182.1404341,182.1404341,12.04212895,-0.001676224,-0.006848185,0.0032250729999999997,-0.160088726,-0.004298766,-0.108910618,2.0,-1.0,0.0,11,0,0,1,0,0.0,0,0,0,0,0,-0.858433876,0.22814463100000001,0.486882737,0.13418385800000002,-26.7938196,180.4084716,55.89219186,-0.02207502,-0.039193598999999996,-0.006780683000000001,0.0,3.708624688,0.386212816,-8.919736371,12.04143675,959.710568,12.04143675,-0.22232650199999998,-0.075491818,-0.026684349,2.988757588,0.277502858,-7.464246502000001,-0.402817811,0.02823693,-0.051349325,12.04143675,54.7010708,56.99062369,3.860483538,2.09885579,15.33517595,20.01123549,-0.093521201,1.5256070290000001,-0.164289658,-21.67880574,455.5185234,12.04164901,95971.99817,1.140306057,-1.643023359,1.2995885679999999,-0.367998338,-0.146669244,-0.104319515,-0.032609954,-0.8630799090000001,0.231776023,0.454564166,0.868128345,-0.428445155,0.008710199,0.250419698,0.5524274020000001,398713735.9,327393969.5,455889.9106,17.56912483,0.715353053,17.55046353,-0.901896362,1.529471802,0,0,0.0,39.871413700000005,32.7364368,-4.415193715,253.9427366,-55.93962381,0.7133868409999999,17.71845211,-0.689110982,0.992230588,3.311735085,1.2578146959999998,56.09529407,-0.278393968,0.36290261100000004,-0.18552257100000002,0.55063814,24114816,0,1,0,0,0
24151449,-0.113260208,-0.038886048,-0.022985246,0.48004025,0.0,1488.0,1500.0,1527.445489,1572.956391,1426.043609,1494.233647,17.42332205,17.81188032,20.88682388,20.84448513,21.26951617,20.71415169,21.13652427,183.91717419999998,183.91717419999998,12.04187073,-0.0016725289999999999,-0.006844979,0.00321322,-0.159979769,-0.004642086,-0.108904255,2.0,-1.0,0.0,11,0,0,1,0,0.0,0,0,0,0,0,-0.8581440220000001,0.22933159600000003,0.473473926,0.13062995800000002,-26.12415883,180.1209217,55.90829061,-0.022059673999999998,-0.039100501,-0.006503188000000001,0.0,3.819240245,0.412972739,-9.455194295,11.89676562,959.7113153999999,12.04128561,-0.271299161,-0.050999134,-0.024694546,3.3006777439999997,0.266829822,-7.835243377,-0.46062587,0.06486808599999999,-0.059562279,11.89676562,54.86861373,57.06650099,3.8675624560000004,2.151108322,15.335247099999998,20.06154793,-0.094526023,1.4708976480000002,-0.164937721,-21.45468958,455.4937036,12.04150012,95972.24854,1.140309029,-1.845578903,0.49511510799999997,-0.338183248,-0.196987195,-0.08110032,-0.029310948,-0.8634119020000001,0.233009062,0.440274486,0.869701776,-0.428607095,0.012281137,0.244448453,0.5539062779999999,398713738.4,327394042.5,455920.8888,17.65788258,0.729275845,17.6427018,-0.828801738,1.5288946680000002,0,0,0.0,39.871413700000005,32.7364368,-4.387959409,254.58810899999997,-55.96331166,0.7490459309999999,17.83951486,-0.642464341,1.1646388509999999,3.477400818,0.724675223,56.11898166,-0.259554855,0.36706677,-0.18900830100000002,0.5514255,24151449,0,1,0,0,0
24196082,-0.130281703,-0.022976073,-0.022109106,0.50919425,0.0,1488.0,1500.0,1538.0,1577.774955,1421.225045,1499.0,17.57436437,17.96642765,20.8492505,20.80703561,21.23158642,20.67738631,21.09929071,185.69391430000002,185.69391430000002,12.04161251,-0.001668834,-0.006841773000000001,0.003201367,-0.159870811,-0.004985407,-0.108897891,2.0,-1.0,0.0,11,0,0,1,0,0.0,0,0,0,0,0,-0.8578541679999999,0.23051856199999998,0.460065115,0.127076057,-25.45449806,179.8333718,55.92438936,-0.022045375,-0.039006832000000005,-0.006217161,0.0,3.853538915,0.44849439,-9.956535425,7.623661302,959.7099952,12.04115572,-0.33933063700000005,-0.010898743,-0.032910077999999995,3.614844595,0.33271963600000004,-8.277596447999999,-0.519706869,0.08982815599999999,-0.070368725,7.623661302,55.03615666,57.1423783,3.874641374,2.203360855,15.33531825,20.11186036,-0.095530845,1.416188267,-0.165585784,-21.23057341,455.62116480000003,12.04134813,95970.78216,1.140291659,-1.234517923,0.7237983109999999,-0.21056420000000003,-0.256116489,-0.045993309,-0.036625642,-0.862382518,0.234178511,0.428661622,0.8712181179999999,-0.428166206,0.015413109,0.239610994,0.555651286,398713740.8,327394115.4,455951.867,17.74664033,0.7431986359999999,17.73494007,-0.755707114,1.528317533,0,0,0.0,39.871413700000005,32.7364368,-4.359376192,255.2039726,-55.98331601,0.797558453,17.96024718,-0.638002767,1.3821542180000002,3.4803292310000002,0.19366023699999999,56.13898601,-0.245101133,0.37170441,-0.193131042,0.5522168000000001,24196082,0,1,0,0,0
24228715,-0.151397496,-0.00834102,-0.022094457,0.5303774,0.0,1488.0,1500.0,1546.0,1577.8833769999999,1421.1166230000001,1501.294459,17.75286526,18.14891989,20.81167712,20.7695861,21.19365667,20.64062093,21.06205714,187.4706544,187.4706544,12.04135428,-0.0016651379999999998,-0.006838566999999999,0.003189514,-0.159761854,-0.005328726999999999,-0.108891528,2.0,-1.0,0.0,11,0,0,1,0,0.0,0,0,0,0,0,-0.8575643140000001,0.231705527,0.446656303,0.123522157,-24.78483729,179.5458219,55.94048811,-0.022032804,-0.03891112,-0.005938705,0.0,3.887837585,0.484016041,-10.45787655,3.3505569889999998,959.7086751,12.04102584,-0.397655476,0.027138751000000003,-0.035008904,3.830323328,0.315045209,-8.917439404,-0.578787869,0.114788226,-0.08117517099999999,3.3505569889999998,55.20369959,57.2182556,3.881720291,2.255613387,15.33538939,20.1621728,-0.09653566699999999,1.3614788869999999,-0.166233847,-21.00645725,455.5198908,12.04119856,95971.93979,1.140305438,-1.607208131,0.11507872,-0.168257412,-0.323454056,-0.005976905,-0.039224114,-0.86211203,0.235317253,0.41499670899999996,0.872781356,-0.42800959,0.018879333,0.233868885,0.557473804,398713743.4,327394189.0,455979.7295,17.85409191,0.779375866,17.84142137,-0.720890147,1.526590708,0,0,0.0,39.871413700000005,32.7364368,-4.330792975,255.81983619999997,-56.00332036,0.846070975,18.08097949,-0.633541193,1.599669585,3.483257643,-0.33735475,56.15899036,-0.227954402,0.37801898700000003,-0.196550909,0.5542322,24228715,0,1,0,0,0
24265347,-0.153665885,-0.001680954,-0.023087346,0.53898984,0.0,1488.0,1500.0,1557.0,1586.813963,1412.186037,1508.0,17.820288,18.2178177,20.77410375,20.73213659,21.15572692,20.60385555,21.02482358,189.2473945,189.2473945,12.04109606,-0.0016614429999999999,-0.00683536,0.0031776609999999996,-0.159652896,-0.0056720469999999995,-0.108885164,2.0,-1.0,0.0,11,0,0,1,0,0.0,0,0,0,0,0,-0.85727446,0.232892493,0.433247492,0.119968256,-24.11517652,179.258272,55.95658686,-0.022020954,-0.038816586,-0.00565355,0.0,3.9042834369999997,0.5014188070000001,-10.955821400000001,2.2000000000000002e-23,959.7073457999999,12.04088891,-0.45746514,0.059163802,-0.052139162999999995,3.886515878,0.407668145,-9.447740482999999,-0.631017875,0.136938669,-0.09308966199999999,2.2000000000000002e-23,55.37124252,57.2941329,3.8887992089999996,2.30786592,15.33546054,20.21248523,-0.09754049,1.306769506,-0.16688191,-20.78234109,455.6430114,12.04106277,95970.53431,1.140288611,-1.606172181,0.956473097,0.076789019,-0.386482085,0.033892749,-0.044112717999999995,-0.8611989859999999,0.236399305,0.402521715,0.87431933,-0.427557374,0.022136039,0.228618995,0.559485989,398713746.2,327394263.3,456004.6165,17.97939714,0.836807335,17.96150556,-0.7226304929999999,1.5237658619999999,0,0,0.0,39.871413700000005,32.7364368,-4.29831947,256.4632586,-56.02522251,0.9092213790000001,18.20184311,-0.6510097770000001,1.873822291,3.396782253,-0.8257831459999999,56.18089251,-0.205569845,0.38378911600000004,-0.19970705100000002,0.556342753,24265347,0,1,0,0,0
24297980,-0.16260550000000001,0.007470437,-0.022736111,0.549470172,0.0,1487.333467,1500.0,1561.0,1585.333467,1413.666533,1510.0,17.90769068,18.30728312,20.73653037,20.69468707,21.11779717,20.56709017,20.98759002,191.0241346,191.0241346,12.04083783,-0.001657748,-0.006832154,0.003165807,-0.159543939,-0.006015368,-0.108878801,2.0,-1.0,0.0,11,0,0,1,0,0.0,0,0,0,0,0,-0.8569846059999999,0.23407945800000002,0.419838681,0.116414356,-23.44551575,178.9707221,55.97268561,-0.022009248,-0.038718386,-0.005359923000000001,0.0,3.855890463,0.453016429,-11.44143146,2.2000000000000002e-23,959.7059831,12.04072638,-0.508077012,0.089709034,-0.064552844,3.899410057,0.372718231,-9.976545907,-0.658366078,0.14888495699999998,-0.109028413,2.2000000000000002e-23,55.53878545,57.37001020000001,3.8958781260000004,2.360118453,15.33553168,20.26279767,-0.098545312,1.252060126,-0.167529973,-20.55822493,455.6243851,12.040927,95970.74722,1.140291272,-1.7296487669999998,0.320865991,-0.118155657,-0.442968663,0.062319730999999996,-0.051493004,-0.861267517,0.23745043899999999,0.38750502200000003,0.875899799,-0.427474983,0.025807559,0.222251339,0.561652675,398713749.0,327394337.6,456029.5035,18.10470238,0.8942388040000001,18.08158976,-0.72437084,1.5209410159999999,0,0,0.0,39.871413700000005,32.7364368,-4.26062641,257.14365630000003,-56.04967092,0.992011263,18.32288291,-0.697901804,2.223964671,3.190354795,-1.257073598,56.20534092,-0.19281588300000002,0.388510982,-0.202822322,0.55794114,24297980,0,1,0,0,0
24330613,-0.17372859,0.016757631999999998,-0.022857409,0.55761236,0.0,1488.0,1500.0,1568.0,1591.852971,1407.147029,1515.0,18.11321937,18.5172757,20.71914827,20.67748271,21.10046915,20.55139954,20.97180561,192.8008747,192.8008747,12.04057961,-0.001654053,-0.0068289480000000005,0.003153954,-0.159434981,-0.006358688,-0.10887243699999999,2.0,-1.0,0.0,11,0,0,1,0,0.0,0,0,0,0,0,-0.856694752,0.23526642399999997,0.40642987,0.112860455,-22.77585497,178.68317219999997,55.98878435,-0.022000336000000002,-0.03861596,-0.005072453,0.0,3.8074974889999997,0.40461405,-11.92704151,2.2000000000000002e-23,959.7046204,12.04056385,-0.564899855,0.106769061,-0.072425108,3.960421072,0.40159343,-10.42272658,-0.68571428,0.160831245,-0.124967165,2.2000000000000002e-23,55.71409473,57.45324138,3.902500432,2.410147275,15.33561161,20.30268022,-0.099341364,1.1969081259999999,-0.168204209,-20.31162039,455.49854460000006,12.04074726,95972.21141,1.140308659,-0.91407382,0.617174262,-0.30937943,-0.504458976,0.101839446,-0.070527153,-0.858901232,0.238472383,0.37780508100000004,0.877378777,-0.42636920899999997,0.028596902,0.218165105,0.56381775,398713751.8,327394411.9,456054.3905,18.23000761,0.951670273,18.20167395,-0.7261111859999999,1.51811617,0,0,0.0,39.871413700000005,32.7364368,-4.222933349,257.824054,-56.07411934,1.074801148,18.44392272,-0.744793832,2.574107051,2.983927337,-1.68836405,56.22978934,-0.17537608100000002,0.393424705,-0.206407585,0.55932045,24330613,0,1,0,0,0
24367246,-0.171340147,0.021731564,-0.023988641,0.5619765,0.0,1488.0,1500.0,1570.0,1587.372474,1411.627526,1518.0,18.11879334,18.52288882,20.70918944,20.66772141,21.09071529,20.54345698,20.96390692,194.5776148,194.5776148,12.04032139,-0.001650358,-0.006825741999999999,0.0031421009999999996,-0.159326024,-0.006702009,-0.10886607300000001,2.0,-1.0,0.0,11,0,0,1,0,0.0,0,0,0,0,0,-0.856404898,0.23645338899999999,0.393021058,0.109306555,-22.106194199999997,178.3956223,56.0048831,-0.021992126,-0.038512879,-0.0047767370000000005,0.0,3.720360678,0.38454609,-12.29818141,2.2000000000000002e-23,959.7035232000001,12.04035824,-0.622436118,0.136883104,-0.09185258199999999,3.9330316560000003,0.416384556,-11.03918548,-0.69745148,0.170018014,-0.138205162,2.2000000000000002e-23,55.90303175,57.54937656,3.9083215119999997,2.456274116,15.33570693,20.3242613,-0.099771082,1.140979455,-0.16892437,-20.02555514,455.6837156,12.04059444,95970.05523,1.14028306,0.081927168,0.196872653,-0.157266027,-0.571952456,0.12166472,-0.08592982699999999,-0.859021989,0.23944900800000002,0.362481615,0.878910118,-0.426245844,0.032287174,0.21162701,0.566097445,398713754.6,327394486.3,456079.2775,18.35531285,1.0091017420000001,18.32175814,-0.7278515320000001,1.515291324,0,0,0.0,39.871413700000005,32.7364368,-4.1787630689999995,258.51120430000003,-56.10310498,1.1820713040000002,18.55064348,-0.813256555,2.958307718,2.7621525730000003,-1.981080681,56.25877498,-0.161901525,0.397862196,-0.207735207,0.56224924,24367246,0,1,0,0,0
24399879,-0.185432483,0.031974328999999996,-0.02218336,0.56874114,0.0,1488.0,1500.0,1572.0,1578.8919779999999,1420.1080220000001,1521.0,18.33614055,18.74528564,20.69923061,20.65796011,21.08096144,20.53551441,20.95600822,196.3543549,196.3543549,12.04006316,-0.0016466629999999998,-0.006822536,0.003130248,-0.159217066,-0.007045329,-0.10885971,2.0,-1.0,0.0,11,0,0,1,0,0.0,0,0,0,0,0,-0.856115044,0.237640355,0.379612247,0.105752654,-21.43653343,178.10807250000002,56.02098185,-0.021984592,-0.038416281000000004,-0.004486212,0.0,3.574614211,0.407340961,-12.49615683,2.2000000000000002e-23,959.7028276000001,12.04008748,-0.66277212,0.146026684,-0.108357349,3.948260947,0.44098071200000005,-11.40508585,-0.685573168,0.17503032899999998,-0.1473576,2.2000000000000002e-23,56.09196878,57.64551173,3.9141425930000002,2.502400957,15.33580226,20.34584237,-0.1002008,1.085050784,-0.169644532,-19.73948988,455.6343414,12.04040349,95970.63088,1.1402899020000001,0.386943685,0.571652113,-0.338065169,-0.619122331,0.14978697900000001,-0.097065229,-0.8562738520000001,0.240395545,0.353284795,0.880374752,-0.42493638899999997,0.034957646,0.207719541,0.568490202,398713757.3,327394560.6,456104.1644,18.48061808,1.0665332109999999,18.44184233,-0.7295918790000001,1.5124664780000001,0,0,0.0,39.871413700000005,32.7364368,-4.130463859,259.2026589,-56.134982900000004,1.304946505,18.64823653,-0.895469602,3.3642189719999998,2.530594609,-2.185462895,56.2906529,-0.14578685800000002,0.402178405,-0.21110473300000002,0.5637336,24399879,0,1,0,0,0
24432512,-0.17658296899999998,0.037144482,-0.022649733,0.5703416,0.0,1488.0,1500.0,1573.0,1571.411482,1427.588518,1521.0,18.42463641,18.8356687,20.68927178,20.64819881,21.07120758,20.52757185,20.94810953,198.131095,198.131095,12.03980494,-0.0016429679999999999,-0.006819329,0.003118395,-0.159108109,-0.007388649000000001,-0.10885334599999999,2.0,-1.0,0.0,11,0,0,1,0,0.0,0,0,0,0,0,-0.85582519,0.23882732,0.366203436,0.102198754,-20.76687266,177.8205226,56.037080599999996,-0.021979077000000003,-0.038318713,-0.004187703,0.0,3.4288677439999997,0.43013583200000005,-12.69413225,2.2000000000000002e-23,959.7021321000001,12.03981671,-0.705448877,0.162116845,-0.118954145,3.7557086410000005,0.41658357700000004,-11.780336199999999,-0.673694855,0.18004264399999997,-0.15651003900000002,2.2000000000000002e-23,56.28090581,57.74164691,3.9199636730000003,2.5485277980000003,15.33589759,20.36742344,-0.100630519,1.029122113,-0.17036469399999998,-19.45342462,455.7044978999999,12.04020511,95969.8475,1.1402805440000001,-0.11876029199999999,-0.152219432,-0.515745831,-0.664384399,0.16046007,-0.113596117,-0.8562259609999999,0.241305882,0.33782571100000003,0.881882481,-0.424678135,0.038654309,0.201083519,0.570985289,398713761.5,327394638.0,456135.846,18.58860372,1.169261766,18.54460679,-0.793948742,1.507409379,0,0,0.0,39.871413700000005,32.7364368,-4.08216465,259.89411359999997,-56.16686082,1.427821705,18.74582957,-0.977682649,3.770130225,2.299036645,-2.3898451080000003,56.32253082,-0.135332767,0.40623093899999996,-0.21354034,0.5657591670000001,24432512,0,1,0,0,0
24465145,-0.160301624,0.042178880999999994,-0.023491531,0.5718009479999999,0.0,1487.0,1500.0,1571.0,1566.0,1433.0,1522.9309859999998,18.51550262,18.92866689,20.67931294,20.63843752,21.06145372,20.51962929,20.94021084,199.9078351,199.9078351,12.03954672,-0.0016392720000000002,-0.006816123,0.0031065409999999996,-0.158999151,-0.00773197,-0.10884698300000001,2.0,-1.0,0.0,11,0,0,1,0,0.0,0,0,0,0,0,-0.855535336,0.24001428600000002,0.352794625,0.098644853,-20.09721189,177.5329727,56.05317935,-0.021974692999999997,-0.038221425,-0.003907836,0.0,3.2886429039999996,0.449055671,-12.79459031,2.2000000000000002e-23,959.6952325,12.03954594,-0.7021244520000001,0.17187024,-0.134055739,3.770963993,0.337983756,-12.15307243,-0.654304215,0.183791901,-0.166032756,2.2000000000000002e-23,56.46984283,57.83778208,3.925784754,2.5946546390000003,15.33599292,20.38900451,-0.101060237,0.9731934409999999,-0.171084855,-19.16735937,455.6644966,12.039981800000001,95970.29162999999,1.1402858120000001,0.121198955,-0.165939631,-0.557470436,-0.699637748,0.17824568699999999,-0.12786484,-0.8531312109999999,0.242194501,0.328648905,0.88337452,-0.42317430899999997,0.041307629,0.19714446600000002,0.573536034,398713766.0,327394716.3,456169.6087,18.69128426,1.285865104,18.64206611,-0.8774854390000001,1.5016685280000002,0,0,0.0,39.871413700000005,32.7364368,-4.026471247,260.54998109999997,-56.20316844,1.568598575,18.81879655,-1.062165697,4.06630134,2.060459876,-2.44080646,56.35883844,-0.118446519,0.410709673,-0.21615540600000002,0.56849086,24465145,0,1,0,0,0
24497778,-0.145700379,0.042967875999999995,-0.022679428999999997,0.5730605,0.0,1487.0,1500.0,1570.0,1562.0,1437.0,1523.0,18.70955887,19.1269477,20.66935411,20.62867622,21.05169987,20.51168673,20.93231214,201.68457519999998,201.68457519999998,12.03928849,-0.001635577,-0.006812917,0.003094688,-0.158890194,-0.00807529,-0.108840619,2.0,-1.0,0.0,11,0,0,1,0,0.0,0,0,0,0,0,-0.8552454820000001,0.241201251,0.339385813,0.095090953,-19.42755111,177.2454228,56.0692781,-0.02197056,-0.03812396,-0.003608472,0.0,3.152415744,0.46516997200000004,-12.82444543,2.2000000000000002e-23,959.6838411,12.03927518,-0.689153015,0.182308973,-0.142390375,3.5962849230000002,0.37673721299999996,-12.46717525,-0.6294746210000001,0.18662669899999998,-0.17582355800000002,2.2000000000000002e-23,56.65877986,57.93391725,3.931605834,2.64078148,15.33608824,20.41058559,-0.10148995599999999,0.91726477,-0.171805017,-18.88129411,455.66485889999996,12.0397295,95970.29486000001,1.14028576,0.642558812,0.285274469,-0.37871553,-0.699067054,0.185594793,-0.139874572,-0.8527261190000001,0.24305145600000003,0.31342722300000003,0.884860031,-0.42270701299999996,0.044950922000000004,0.19057244899999998,0.576119539,398713770.5,327394794.6,456203.3715,18.79396479,1.402468442,18.73952542,-0.961022136,1.4959276769999998,0,0,0.0,39.871413700000005,32.7364368,-3.968863745,261.1966365,-56.24062275,1.714009565,18.8853887,-1.147236369,4.3340645460000005,1.8200661830000002,-2.452052482,56.39629275,-0.108339103,0.414575818,-0.21873789300000002,0.570418301,24497778,0,1,0,0,0
24530411,-0.135175391,0.044539237999999995,-0.023970093999999997,0.57249266,0.0,1487.0,1500.0,1568.0,1560.0,1439.0,1524.0,18.75247896,19.17089834,20.65939528,20.61891492,21.04194601,20.50374417,20.92441345,203.46131519999997,203.46131519999997,12.03903027,-0.001631882,-0.0068097109999999995,0.003082835,-0.158781236,-0.00841861,-0.108834255,2.0,-1.0,0.0,11,0,0,1,0,0.0,0,0,0,0,0,-0.85334349,0.242120433,0.327158826,0.091630937,-18.78591773,176.890888,56.07081266,-0.021968084,-0.038026879,-0.003316426,0.0,3.0161885839999996,0.481284272,-12.85430055,2.2000000000000002e-23,959.6724498,12.03900441,-0.678751225,0.176943033,-0.155445275,3.4754026789999997,0.36786959399999997,-12.63117047,-0.604645026,0.18946149699999998,-0.18561435899999998,2.2000000000000002e-23,56.83404663,58.02840104,3.9363139869999997,2.680262177,15.33614987,20.41555676,-0.10158814699999999,0.87248241,-0.172456907,-18.60424045,455.74330030000004,12.03945843,95969.38261,1.140275058,0.836208892,-0.412360275,-0.67068038,-0.68872451,0.193491423,-0.148127846,-0.849375436,0.243894843,0.304378611,0.886348213,-0.421052346,0.047556052,0.186652134,0.578733328,398713775.0,327394872.9,456237.1342,18.89664533,1.51907178,18.83698474,-1.044558832,1.490186825,0,0,0.0,39.871413700000005,32.7364368,-3.911256242,261.84329180000003,-56.27807706,1.8594205540000002,18.95198085,-1.232307042,4.601827752,1.57967249,-2.463298504,56.43374706,-0.09334025800000001,0.418318498,-0.22051560399999998,0.57363325,24530411,0,1,0,0,0
24570088,-0.125889161,0.047694279000000006,-0.025160929,0.5709871999999999,0.0,1486.0,1500.0,1566.0,1558.0,1441.0,1525.0,18.76209371,19.18078471,20.64943645,20.60915362,21.03219215,20.49580161,20.91651476,205.2380553,205.2380553,12.03877204,-0.0016281870000000001,-0.006806505,0.0030709820000000003,-0.158672279,-0.008761931,-0.108827892,2.0,-1.0,0.0,11,0,0,1,0,0.0,0,0,0,0,0,-0.8505355609999999,0.242889135,0.31559596,0.08822368,-18.16003426,176.49871130000002,56.06416293,-0.021967598999999997,-0.037937927999999996,-0.003025346,0.0,2.89224334,0.47595721,-12.87126637,3.2557331069999997,959.6707027999998,12.03869253,-0.658803415,0.18245934,-0.162246759,3.375609688,0.429016867,-12.74352612,-0.581576423,0.19521301,-0.18928807600000003,3.2557331069999997,57.00215732,58.12202036,3.940439545,2.716263762,15.33619385,20.41183302,-0.10151279,0.8335349009999999,-0.173073058,-18.33190416,455.78575989999996,12.03918735,95968.91107,1.140269438,1.208845199,-0.089536923,-0.17044215899999998,-0.672812843,0.192154517,-0.16015849199999999,-0.848876132,0.24470711399999998,0.289187442,0.887776175,-0.420489644,0.05116369,0.180059225,0.581323182,398713779.6,327394951.2,456270.89700000006,18.99932587,1.6356751180000002,18.93444406,-1.128095529,1.484445974,0,0,0.0,39.871413700000005,32.7364368,-3.838982301,262.49473939999996,-56.32314074,2.028269697,18.99599493,-1.311690944,4.855647985,1.353587527,-2.3939395009999997,56.47881074,-0.08554455,0.420895164,-0.222768242,0.57538253,24570088,0,1,0,0,0
24607677,-0.118285352,0.047029242,-0.025109479,0.5701513,0.0,1486.0,1500.0,1563.018004,1556.990998,1442.009002,1526.0,18.82229281,19.2424146,20.63947762,20.59939232,21.0224383,20.48785905,20.90861606,207.01479540000003,207.01479540000003,12.03851382,-0.0016244920000000002,-0.006803298,0.0030591290000000003,-0.158563321,-0.009105251,-0.108821528,2.0,-0.99879976,0.00120024,11,0,0,1,0,0.0,0,0,0,0,0,-0.847727633,0.243657837,0.304033094,0.08481642199999999,-17.53415078,176.1065346,56.057513199999995,-0.021967549,-0.037847703999999996,-0.0027299940000000003,0.0,2.7721316519999997,0.46393765200000003,-12.88420904,7.527678766,959.6719662,12.03836783,-0.632700539,0.182914939,-0.16942123,3.2912185860000003,0.375724544,-12.91977386,-0.559057479,0.201874917,-0.191052466,7.527678766,57.17026801,58.21563969,3.9445651039999996,2.752265347,15.33623784,20.40810927,-0.101437434,0.7945873929999999,-0.17368920899999998,-18.05956787,455.9387558,12.0388763,95967.13072999999,1.140248224,0.29776686399999996,0.129834961,0.264726333,-0.6471573970000001,0.19740777399999998,-0.16867875899999998,-0.8452975779999999,0.24549801,0.280171361,0.8892637590000001,-0.418694829,0.053731173,0.176113545,0.583904842,398713784.1,327395029.6,456305.0338,19.10125825,1.753638728,19.03078116,-1.211530206,1.478635086,0,0,0.0,39.871413700000005,32.7364368,-3.766378871,263.1462948,-56.36837537,2.197645388,19.03950178,-1.390947091,5.109154984,1.127824017,-2.322769671,56.52404537,-0.07013475,0.42451550200000004,-0.224626259,0.578723719,24607677,0,1,0,0,0
24644310,-0.11720821599999999,0.050259908,-0.026168701000000003,0.56672376,0.0,1486.0,1500.0,1561.0,1554.0,1445.0,1527.0,18.92563725,19.34815069,20.62951878,20.58963103,21.01268444,20.47991649,20.90071737,208.7915355,208.7915355,12.0382556,-0.0016207970000000002,-0.006800092,0.003047275,-0.15845436400000001,-0.009448571999999999,-0.108815165,2.0,-0.99619924,0.00380076,11,0,0,1,0,0.0,0,0,0,0,0,-0.844919705,0.244426539,0.29247022899999997,0.081409165,-16.908267300000002,175.7143579,56.05086347,-0.021969715,-0.03775578,-0.002414949,0.0,2.6520199630000003,0.451918095,-12.89715172,11.79962442,959.6732295,12.03804312,-0.611568059,0.180093836,-0.168695695,3.1198569419999997,0.427595622,-12.89671071,-0.536538534,0.208536825,-0.192816856,11.79962442,57.3383787,58.30925901,3.9486906630000003,2.788266932,15.33628182,20.40438553,-0.10136207800000001,0.755639885,-0.17430536,-17.78723157,455.86148710000003,12.03856,95968.02713,1.140258899,0.8690615190000001,-0.16915088,-0.036924143,-0.6203383729999999,0.19578859699999998,-0.173314501,-0.844372789,0.24628105399999997,0.26520389899999997,0.8906852120000001,-0.41789621899999996,0.057295029000000004,0.169579144,0.586490266,398713791.5,327395111.2,456357.9404,19.16565113,1.9398559709999998,19.07080934,-1.289845887,1.469310023,0,0,0.0,39.871413700000005,32.7364368,-3.68972641,263.8072179,-56.41547656,2.373103849,19.07943568,-1.4699254519999998,5.35628034,0.895425782,-2.247821745,56.57114656,-0.062382402999999996,0.42742996200000005,-0.22663924100000002,0.5806920999999999,24644310,0,1,0,0,0
24680943,-0.112903647,0.052705651,-0.027422147,0.5647652479999999,0.0,1485.0,1500.0,1560.0,1552.0,1447.0,1528.0,19.03460976,19.45955212,20.61955995,20.57986973,21.00293058,20.47197393,20.89281868,210.5682756,210.5682756,12.03799737,-0.0016171010000000001,-0.006796885999999999,0.0030354220000000003,-0.158345406,-0.009791892,-0.108808801,2.0,-0.99359872,0.00640128,11,0,0,1,0,0.0,0,0,0,0,0,-0.8421117770000001,0.245195241,0.280907363,0.078001907,-16.28238383,175.3221812,56.04421374,-0.021973316,-0.037666118,-0.0020936920000000003,0.0,2.53137964,0.446385049,-12.97467404,8.004479916000001,959.6637002999998,12.0376772,-0.587655715,0.184948005,-0.18189301,3.0873892169999997,0.468654059,-12.85168622,-0.516007656,0.21482464399999998,-0.198343409,8.004479916000001,57.50648939,58.40287834,3.9528162210000004,2.824268516,15.33632581,20.40066178,-0.101286721,0.7166923759999999,-0.174921511,-17.51489528,456.0965397,12.03820516,95965.32908,1.140226825,0.765071409,0.166255435,0.194253485,-0.598631566,0.196024571,-0.18646545399999997,-0.840405975,0.24704452600000001,0.256300023,0.892195905,-0.41589348299999995,0.059828887000000004,0.165642462,0.58904461,398713798.8,327395192.8,456410.847,19.23004401,2.126073215,19.11083752,-1.3681615669999998,1.459984959,0,0,0.0,39.871413700000005,32.7364368,-3.592081065,264.5167102,-56.47225525,2.580099456,19.10084504,-1.547463588,5.570318994,0.628628699,-2.15328565,56.62792525,-0.048666977,0.430308688,-0.228200147,0.58369034,24680943,0,1,0,0,0
24713576,-0.10945672699999999,0.054291333,-0.027581914,0.5618514,0.0,1485.0,1500.0,1557.0,1550.0,1449.0,1529.0,19.04864689,19.4739544,20.60960112,20.57010843,20.99317673,20.46403137,20.88491998,212.34501569999998,212.34501569999998,12.03773915,-0.001613406,-0.00679368,0.0030235690000000003,-0.158236449,-0.010135212,-0.108802438,2.0,-0.9909982,0.009001799999999999,11,0,0,1,0,0.0,0,0,0,0,0,-0.839303848,0.245963942,0.269344498,0.07459465,-15.65650035,174.9300044,56.037564,-0.021976395,-0.037583457,-0.0017699810000000001,0.0,2.410708072,0.441235385,-13.05601331,3.7325342569999997,959.6535332999998,12.03730884,-0.56702197,0.18830997600000002,-0.183269917,2.80019059,0.47936337799999995,-12.94030461,-0.49559428200000005,0.221090352,-0.204092322,3.7325342569999997,57.67460008,58.49649766,3.95694178,2.8602701010000002,15.33636979,20.39693804,-0.101211365,0.677744868,-0.17553766199999998,-17.24255899,456.10807300000005,12.03784372,95965.22003,1.1402256370000001,0.60413932,0.47561110799999995,-0.476530448,-0.576094814,0.198442106,-0.188084243,-0.8369776959999999,0.247789271,0.24588624,0.89369511,-0.41406671799999994,0.062607339,0.161032058,0.591586237,398713806.1,327395274.5,456463.7536,19.29443689,2.312290458,19.1508657,-1.446477248,1.450659896,0,0,0.0,39.871413700000005,32.7364368,-3.4944357189999997,265.22620240000003,-56.52903395,2.787095063,19.12225441,-1.625001723,5.784357647999999,0.36183161700000005,-2.058749555,56.68470395,-0.041610335,0.432586859,-0.229723078,0.58595866,24713576,0,1,0,0,0
24750208,-0.104878493,0.056145984,-0.028910124,0.5602294,0.0,1485.0,1500.0,1555.0,1548.0,1451.0,1529.0,19.14832408,19.57605535,20.59964229,20.56034713,20.98342287,20.45608881,20.87702129,214.12175580000002,214.12175580000002,12.03748092,-0.001609711,-0.006790473000000001,0.003011716,-0.158127491,-0.010478533,-0.108796074,2.0,-0.98839768,0.01160232,11,0,0,1,0,0.0,0,0,0,0,0,-0.83649592,0.24673264399999997,0.257781632,0.071187393,-15.03061688,174.53782769999998,56.03091427,-0.021981935,-0.037499537,-0.001424979,0.0,2.29257904,0.43815982200000003,-13.14231705,2.2000000000000002e-23,959.6438636,12.03693507,-0.546918621,0.19693432,-0.193367698,2.73926684,0.395695643,-12.94717576,-0.47463873799999995,0.227255717,-0.21003158800000002,2.2000000000000002e-23,57.84277219,58.59680044,3.9605459030000003,2.8936097189999996,15.33642984,20.38218093,-0.100915022,0.646697027,-0.176123439,-16.96167069,456.12547209999997,12.03747533,95964.96472999999,1.140222616,-0.327079938,0.229271392,-0.514642386,-0.560394762,0.202747495,-0.194058591,-0.835000623,0.24851715600000002,0.232491805,0.89510603,-0.412774517,0.065861606,0.155119059,0.5940616120000001,398713813.4,327395356.1,456516.6601,19.35882977,2.498507702,19.19089388,-1.524792929,1.441334832,0,0,0.0,39.871413700000005,32.7364368,-3.392577044,265.9171121,-56.58673282,2.9952603860000004,19.13490274,-1.6985339119999998,5.983834381,0.10178875400000001,-1.983353076,56.74240282,-0.03115143,0.434316136,-0.231830013,0.58769786,24750208,0,1,0,0,0
24785683,-0.101115124,0.059050233,-0.029550213999999998,0.5576327,0.0,1485.0,1500.0,1553.0,1546.0,1453.0,1530.0,19.193524800000002,19.62217689,20.58968346,20.55058583,20.97366902,20.44814624,20.8691226,215.89849590000003,215.89849590000003,12.0372227,-0.001606016,-0.006787267,0.0029998629999999997,-0.15801853400000002,-0.010821853000000001,-0.10878971,2.0,-0.9857971590000001,0.014202841,11,0,0,1,0,0.0,0,0,0,0,0,-0.833687992,0.247501346,0.246218766,0.067780135,-14.4047334,174.14565100000002,56.02426454,-0.021987306,-0.037424238,-0.001103918,0.0,2.192043455,0.449436302,-13.26297318,2.2000000000000002e-23,959.6376356000001,12.03652377,-0.5279562179999999,0.20499066300000002,-0.194873157,2.602465686,0.42795100799999997,-12.9171362,-0.44993157799999994,0.23272673800000002,-0.217288025,2.2000000000000002e-23,58.01094754,58.69745668,3.964122451,2.926808559,15.33649073,20.36684033,-0.10060699199999999,0.616066957,-0.176707609,-16.68033012,456.1443774,12.03706798,95964.77329,1.140220222,0.775414543,0.31125809600000004,0.07151800900000001,-0.5351023189999999,0.210503405,-0.203937393,-0.8306920320000001,0.249241538,0.223632317,0.89661408,-0.410566775,0.06834388,0.151145945,0.596433572,398713820.7,327395437.7,456569.5667,19.42322264,2.684724945,19.23092206,-1.603108609,1.432009769,0,0,0.0,39.871413700000005,32.7364368,-3.2827316,266.5727969,-56.64617597,3.205643015,19.13094369,-1.7644724459999999,6.155707607,-0.14545084,-1.944237565,56.80184597,-0.016268807,0.436934804,-0.23345619199999998,0.59116423,24785683,0,1,0,0,0
24819474,-0.09629644,0.058785712000000004,-0.029254568999999998,0.5559022,0.0,1484.0,1500.0,1552.0,1543.126025,1455.873975,1531.0,19.26796989,19.69837543,20.57972462,20.54082454,20.96391516,20.44020368,20.8612239,217.67523599999998,217.67523599999998,12.03696448,-0.001602321,-0.006784061,0.0029880090000000002,-0.157909576,-0.011165173,-0.10878334699999999,2.0,-0.9831966390000001,0.016803361,11,0,0,1,0,0.0,0,0,0,0,0,-0.830880064,0.24827004800000002,0.23465590100000003,0.064372878,-13.77884992,173.7534743,56.01761481,-0.021995122000000002,-0.03734426,-0.000759262,0.0,2.091507869,0.460712781,-13.38362931,2.2000000000000002e-23,959.6314076,12.03611248,-0.492498725,0.219171824,-0.208628117,2.419325864,0.5060898420000001,-13.01621448,-0.425224417,0.23819775899999998,-0.224544462,2.2000000000000002e-23,58.17912289,58.79811292,3.967698998,2.9600074,15.33655162,20.35149973,-0.10029896199999999,0.5854368870000001,-0.17729178,-16.39898955,456.3024594,12.03666162,95962.97542999999,1.140198858,-0.077661612,0.45928448200000005,-0.68364164,-0.5210181110000001,0.21610860399999998,-0.203905366,-0.82838268,0.249981645,0.210692015,0.897985988,-0.409094876,0.071503271,0.145401941,0.598314325,398713829.0,327395519.0,456625.7107,19.479521899999998,2.881416283,19.25809562,-1.6790438090000002,1.4221362919999998,0,0,0.0,39.871413700000005,32.7364368,-3.1728861569999998,267.2284817,-56.70561911,3.416025645,19.12698465,-1.830410979,6.327580832000001,-0.392690434,-1.905122055,56.86128911,-0.006223195,0.439514667,-0.234525261,0.59452665,24819474,0,1,0,0,0
24852107,-0.093452052,0.061292317,-0.029661712000000003,0.55312777,0.0,1484.0,1500.0,1549.0,1541.645529,1457.354471,1531.354471,19.26562451,19.69622189,20.56976579,20.53106324,20.954161300000003,20.43226112,20.85332521,219.4519761,219.4519761,12.03670625,-0.0015986260000000001,-0.006780855,0.0029761559999999998,-0.157800619,-0.011508494,-0.10877698300000001,2.0,-0.9805961190000001,0.019403881,11,0,0,1,0,0.0,0,0,0,0,0,-0.828072136,0.24903875,0.223093035,0.06096562,-13.15296645,173.3612976,56.01096508,-0.022001816,-0.037263473,-0.000380984,0.0,2.0236019,0.48039528299999995,-13.4695011,2.2000000000000002e-23,959.6245832999999,12.03565096,-0.475285965,0.22886876899999997,-0.21083083800000002,2.319135432,0.46068249,-13.0946534,-0.40232509299999997,0.24523837,-0.231967431,2.2000000000000002e-23,58.34729825,58.89876916,3.971275545,2.99320624,15.33661252,20.33615913,-0.09999093199999999,0.554806817,-0.17787595,-16.11764899,456.40662139999995,12.03623422,95961.75852999999,1.140184389,0.49820671299999997,0.7244020999999999,-0.121096257,-0.50076051,0.229997325,-0.21613395600000002,-0.824856557,0.250717261,0.199902611,0.899422915,-0.40713454600000004,0.07429106,0.14056680400000002,0.600159532,398713840.2,327395599.4,456690.4517,19.51432887,3.1059211839999996,19.25113423,-1.7486577319999999,1.410806521,0,0,0.0,39.871413700000005,32.7364368,-3.045646203,267.9130089,-56.77159187,3.645669044,19.11034094,-1.897543991,6.515273455,-0.63428418,-1.8757892369999998,56.92726187,0.002006537,0.43970428,-0.233606588,0.59618306,24852107,0,1,0,0,0
24888740,-0.087895331,0.062890093,-0.031008831,0.5520784000000001,0.0,1484.0,1500.0,1549.0,1540.0,1459.0,1532.0,19.20010479,19.62917089,20.55980696,20.52130194,20.94440745,20.42431856,20.84542652,221.2287162,221.2287162,12.03644803,-0.001594931,-0.006777649,0.0029643029999999997,-0.15769166099999998,-0.011851813999999999,-0.10877062,2.0,-0.9779955990000001,0.022004401,11,0,0,1,0,0.0,0,0,0,0,0,-0.825264207,0.249807451,0.21153017,0.057558363,-12.52708297,172.9691209,56.00431535,-0.022011185,-0.037180605,3.47e-05,0.0,2.028888874,0.518933706,-13.47734659,2.2000000000000002e-23,959.6164213,12.03507677,-0.457647087,0.242290862,-0.22289408,2.260151695,0.523374288,-13.22626569,-0.38348100799999996,0.255799798,-0.239763953,2.2000000000000002e-23,58.5154736,58.99942539999999,3.974852093,3.02640508,15.33667341,20.32081852,-0.09968290199999999,0.524176747,-0.17846012100000003,-15.83630842,456.3334967,12.03578227,95962.58297999999,1.140194191,0.754714764,0.5389436470000001,0.115013763,-0.48692114799999997,0.237320234,-0.21509508,-0.820122572,0.251416412,0.19102218199999998,0.9009447859999999,-0.404681677,0.076738866,0.136524744,0.602143608,398713851.3,327395679.8,456755.1926,19.54913583,3.330426085,19.24417283,-1.8182716540000001,1.399476751,0,0,0.0,39.871413700000005,32.7364368,-2.9029197630000003,268.6232149,-56.843378,3.8924604780000003,19.08240395,-1.9657404569999999,6.717050228,-0.87085138,-1.8551660380000001,56.999047999999995,0.009430127,0.442222719,-0.233233496,0.5987361999999999,24888740,0,1,0,0,0
24926746,-0.084721763,0.063881576,-0.030905892999999997,0.5498035,0.0,1483.0,1500.0,1548.0,1538.0,1461.0,1534.0,19.31111863,19.74265888,20.54984813,20.51154064,20.93465359,20.416376,20.83752782,223.00545630000002,223.00545630000002,12.03618981,-0.001591235,-0.0067744419999999994,0.00295245,-0.157582704,-0.012195135,-0.10876425599999999,2.0,-0.9753950790000001,0.024604921000000002,11,0,0,1,0,0.0,0,0,0,0,0,-0.8224562790000001,0.250576153,0.19996730399999998,0.054151106,-11.901199499999999,172.57694419999999,55.99766561,-0.022021697000000003,-0.037095877,0.00048351599999999997,0.0,2.034175849,0.55747213,-13.48519207,2.2000000000000002e-23,959.6082592,12.03450259,-0.423946075,0.24757599800000002,-0.227236795,2.133150583,0.48510432299999995,-13.32277794,-0.36463692299999995,0.266361227,-0.247560476,2.2000000000000002e-23,58.68876837,59.10489324,3.978416923,3.059286751,15.33675097,20.30484604,-0.099361901,0.496420609,-0.17905263300000002,-15.54460627,456.4921603,12.03532963,95960.76884,1.14017267,0.739874887,-0.115413048,-0.124487935,-0.46631243299999997,0.246588858,-0.22090856899999997,-0.815487753,0.252097248,0.181763373,0.9024505079999999,-0.40224314299999997,0.079229246,0.132300277,0.604333865,398713862.5,327395760.2,456819.9336,19.58394279,3.5549309860000005,19.23721144,-1.8878855769999998,1.38814698,0,0,0.0,39.871413700000005,32.7364368,-2.760193324,269.3334208,-56.91516413,4.139251912,19.05446697,-2.033936923,6.9188270020000004,-1.107418579,-1.834542839,57.07083413,0.016852396000000002,0.444221782,-0.23325232199999998,0.5999895000000001,24926746,0,1,0,0,0
24962006,-0.08128830599999999,0.065409497,-0.031731756,0.54900646,0.0,1483.0,1500.0,1548.0,1536.204041,1462.795959,1534.0,19.40141293,19.83516719,20.53988929,20.50177935,20.92489973,20.40843344,20.82962913,224.7821963,224.7821963,12.03593158,-0.00158754,-0.006771236,0.002940597,-0.157473746,-0.012538455,-0.10875789300000001,2.0,-0.9727945590000001,0.027205441,11,0,0,1,0,0.0,0,0,0,0,0,-0.8196483509999999,0.251344855,0.188404438,0.050743848,-11.27531602,172.1847674,55.99101588,-0.022031877000000002,-0.037009113999999996,0.000954231,0.0,1.9941249980000002,0.56512657,-13.51388676,2.2000000000000002e-23,959.5996273,12.03396566,-0.407856007,0.248595075,-0.230605509,2.029946095,0.508885452,-13.43013489,-0.342262843,0.27458398100000003,-0.252352063,2.2000000000000002e-23,58.87799821,59.22533807,3.98194528,3.0911811769999997,15.33688038,20.2869067,-0.09900052599999999,0.477610087,-0.17967111100000002,-15.22065186,456.5638415,12.03484436,95959.92092,1.140162698,0.5768197970000001,-0.003946325,-0.347482389,-0.441915689,0.25412065699999997,-0.226148557,-0.8135026759999999,0.252766216,0.167461282,0.903722128,-0.40077812,0.08253252400000001,0.12588893,0.606377382,398713873.6,327395840.6,456884.6745,19.61874975,3.779435887,19.23025005,-1.9574995,1.37681721,0,0,0.0,39.871413700000005,32.7364368,-2.608577039,270.0024807,-56.98763627,4.382560585,19.01433623,-2.0942829990000003,7.036454351000001,-1.299689801,-1.773972084,57.14330627,0.024980567999999998,0.447972975,-0.23522482100000003,0.601244453,24962006,0,1,0,0,0
25005278,-0.076943,0.068197228,-0.032821045,0.5481523,0.0,1482.0,1500.0,1548.0,1534.0,1465.0,1536.0,19.3481767,19.78075406,20.52993046,20.49201805,20.91514588,20.40049088,20.82173044,225.6557431,225.6557431,12.03545526,-0.001583293,-0.0067640880000000006,0.0029155120000000003,-0.157007364,-0.012872699,-0.108647712,2.0,-0.970194039,0.029805961000000002,11,0,0,1,0,0.0,0,0,0,0,0,-0.8168404229999999,0.252113557,0.176841573,0.047336591,-10.64943255,171.79259069999998,55.98436615,-0.02204166,-0.036925949,0.001445028,0.0,1.906964499,0.540690066,-13.56424543,2.2000000000000002e-23,959.5905071000001,12.03346742,-0.390743657,0.262022374,-0.235769151,1.990648222,0.5114853079999999,-13.35406059,-0.31622081399999996,0.280376664,-0.25402128,2.2000000000000002e-23,59.06722805,59.3457829,3.985473638,3.123075603,15.33700979,20.26896736,-0.098639151,0.458799565,-0.18028959,-14.89669746,456.5470784,12.03434664,95960.13583,1.140165106,1.286530239,0.340897289,0.27946154100000004,-0.41758665899999997,0.260245542,-0.23676316600000002,-0.8082874,0.253432691,0.158718258,0.905257212,-0.39806252,0.084906779,0.121844058,0.608353878,398713884.7,327395921.0,456949.4155,19.65355671,4.003940788,19.22328866,-2.0271134230000003,1.36548744,0,0,0.0,39.871413700000005,32.7364368,-2.453376706,270.6549521,-57.060385,4.624465141,18.96928943,-2.151464097,7.120155844,-1.474102565,-1.6972959890000001,57.216055000000004,0.037495763,0.45022684700000004,-0.23499355800000002,0.60421526,25005278,0,1,0,0,0
25039272,-0.073903024,0.069501562,-0.033723435,0.54812187,0.0,1482.0,1500.0,1549.0,1533.0,1466.0,1535.756951,19.36098303,19.79378143,20.51997163,20.48225675,20.90539202,20.39254832,20.81383174,225.92432069999998,225.92432069999998,12.03483286,-0.0015786770000000001,-0.0067543,0.002881566,-0.156301574,-0.013200865,-0.108467995,2.0,-0.967593519,0.032406481,11,0,0,1,0,0.0,0,0,0,0,0,-0.811979844,0.252804006,0.166600757,0.044220922999999995,-10.08873581,171.3468374,55.97255007,-0.022051587999999997,-0.036857509,0.001919299,0.0,1.819804,0.516253562,-13.61460411,2.2000000000000002e-23,959.5813868999999,12.03296918,-0.36699496299999995,0.263853137,-0.248322359,1.998965735,0.5228142720000001,-13.52747329,-0.290178785,0.286169347,-0.255690497,2.2000000000000002e-23,59.2564579,59.46622773,3.9890019960000003,3.154970029,15.3371392,20.25102803,-0.098277777,0.43998904299999997,-0.180908068,-14.57274306,456.66685010000003,12.03384947,95958.79942000001,1.140149248,1.0313512809999998,0.015514658,-0.253063311,-0.39760809,0.26146710300000003,-0.237388618,-0.80277718,0.25408983,0.149890627,0.906829381,-0.395192261,0.08728642199999999,0.117731418,0.610176932,398713898.0,327396000.2,457021.3183,19.67734547,4.244972995,19.19796359,-2.0893818669999997,1.3532121609999999,0,0,0.0,39.871413700000005,32.7364368,-2.298176373,271.30742349999997,-57.13313372,4.866369697,18.92424264,-2.208645195,7.203857338,-1.648515329,-1.620619895,57.28880372,0.044763492,0.4515862,-0.234884375,0.6069759,25039272,0,1,0,0,0
25079905,-0.068804454,0.072173844,-0.034410559,0.5486866,0.0,1482.0,1500.0,1550.0,1531.762553,1467.237447,1537.0,19.41668602,19.850951199999997,20.5100128,20.47249545,20.89563816,20.38460576,20.80593305,226.19289819999997,226.19289819999997,12.03421045,-0.00157406,-0.006744511999999999,0.002847619,-0.155595785,-0.01352903,-0.10828827699999999,2.0,-0.964992999,0.035007001,11,0,0,1,0,0.0,0,0,0,0,0,-0.8048844279999999,0.253409256,0.157799332,0.041422724,-9.599011624,170.84275209999998,55.95510909,-0.022062957999999997,-0.036799531,0.0024447220000000003,0.0,1.7647542930000002,0.510180965,-13.652684599999999,2.2000000000000002e-23,959.5648615,12.03244922,-0.35193774200000005,0.271913273,-0.252132013,1.990754872,0.563667418,-13.47553093,-0.269439666,0.291288631,-0.260751187,2.2000000000000002e-23,59.44568774,59.58667257,3.9925303530000003,3.186864455,15.33726861,20.23308869,-0.09791640199999999,0.42117852100000003,-0.181526546,-14.24878865,456.82673780000005,12.03333554,95956.93206,1.140127109,0.813528569,0.644271763,0.168052057,-0.37841116700000005,0.274780094,-0.245395721,-0.796818186,0.254741222,0.141207764,0.9084588170000001,-0.39211033100000003,0.08963937,0.11365077,0.611887676,398713913.1,327396078.4,457099.6339,19.69126825,4.5008041610000005,19.15619524,-2.145072988,1.340090249,0,0,0.0,39.871413700000005,32.7364368,-2.107670161,272.003828,-57.21687655,5.136752007,18.85742916,-2.264478191,7.324734986,-1.8816385709999999,-1.544638634,57.37254655,0.056518625,0.451918592,-0.23588364899999997,0.609277678,25079905,0,1,0,0,0
25117075,-0.06618826400000001,0.072691993,-0.034113229,0.54955137,0.0,1482.0,1500.0,1550.0,1530.0,1469.0,1537.0,19.50421574,19.94054427,20.50005397,20.46273415,20.88588431,20.3766632,20.79803436,226.4614758,226.4614758,12.03358805,-0.0015694429999999998,-0.006734724,0.002813672,-0.154889995,-0.013857196,-0.108108559,2.0,-0.9623924779999999,0.037607522000000004,11,0,0,1,0,0.0,0,0,0,0,0,-0.797789011,0.254014507,0.14899790699999999,0.038624525,-9.109287436,170.3386668,55.937668099999996,-0.022072635,-0.036764913999999996,0.0028819270000000003,0.0,1.725342784,0.513051729,-13.68478551,2.2000000000000002e-23,959.5447297000001,12.03191869,-0.319024593,0.27593238800000003,-0.25412664,1.882233599,0.572507,-13.55665138,-0.251283104,0.296079964,-0.267463551,2.2000000000000002e-23,59.63491758,59.7071174,3.9960587110000003,3.21875888,15.33739802,20.21514935,-0.09755502699999999,0.402367999,-0.182145024,-13.92483425,456.7441405,12.03279238,95957.84893,1.140138004,0.597911031,-0.37379842,0.278938721,-0.352570039,0.28091613,-0.253530335,-0.790573544,0.255383541,0.132426607,0.910120485,-0.388875951,0.091994989,0.109494341,0.613533979,398713928.3,327396156.5,457177.9496,19.70519104,4.756635327,19.11442689,-2.200764109,1.326968338,0,0,0.0,39.871413700000005,32.7364368,-1.913080806,272.70531339999997,-57.30189085,5.410427785,18.78809835,-2.320155279,7.4499120770000005,-2.121551711,-1.468737731,57.45756085,0.064851735,0.451173893,-0.23697775199999999,0.61077946,25117075,0,1,0,0,0
25153171,-0.062777086,0.074334562,-0.034997644,0.5500088000000001,0.0,1482.0,1500.0,1552.0,1529.0,1470.0,1538.0,19.46286427,19.8981227,20.49009513,20.45297286,20.87613045,20.36872064,20.79013566,226.7300534,226.7300534,12.03296565,-0.0015648270000000002,-0.006724935,0.0027797259999999997,-0.154184206,-0.014185361,-0.107928841,2.0,-0.959791958,0.040208042,11,0,0,1,0,0.0,0,0,0,0,0,-0.790693595,0.25461975800000003,0.14019648199999998,0.035826327000000005,-8.619563249,169.83458159999998,55.92022712,-0.02208316,-0.036742525,0.0033383279999999998,0.0,1.685931275,0.5159224929999999,-13.71688643,2.2000000000000002e-23,959.5245979,12.03138816,-0.301870811,0.28068089399999996,-0.265858605,1.876538147,0.547685443,-13.64824268,-0.233126542,0.300871297,-0.27417591399999997,2.2000000000000002e-23,59.81287279,59.82381671,3.999174796,3.2533706000000002,15.33748874,20.1947738,-0.09714570199999999,0.388713598,-0.18270703,-13.61855002,456.8696707,12.03225023,95956.43116000001,1.140121152,0.36216864600000004,0.278929322,-0.184024434,-0.326212088,0.288583747,-0.257600243,-0.787268759,0.255992873,0.11826418300000001,0.9114709959999999,-0.38671103100000004,0.095197239,0.103004426,0.615236669,398713943.4,327396234.7,457256.2653,19.71911382,5.012466493,19.07265853,-2.25645523,1.313846427,0,0,0.0,39.871413700000005,32.7364368,-1.7176575090000001,273.4019363,-57.38677405,5.683073714,18.71776558,-2.3749694619999997,7.570143696000001,-2.353143535,-1.3945419159999999,57.54244405,0.072177465,0.449465885,-0.238681148,0.6119182,25153171,0,1,0,0,0
25185804,-0.059912612999999997,0.076292657,-0.035366882,0.550993153,0.0,1481.0,1500.0,1553.0,1527.0,1472.0,1539.0,19.45278926,19.88812206,20.4801363,20.44321156,20.8663766,20.36077807,20.78223697,226.99863100000002,226.99863100000002,12.03234324,-0.00156021,-0.0067151469999999994,0.0027457790000000003,-0.153478416,-0.014513527,-0.107749123,2.0,-0.957191438,0.042808562,11,0,0,1,0,0.0,0,0,0,0,0,-0.783598178,0.25522500800000003,0.13139505699999998,0.033028128,-8.129839062,169.33049630000002,55.90278614,-0.022093725,-0.036732974,0.003791305,0.0,1.6783795719999999,0.518233408,-13.73624798,3.648141945,959.5186767999999,12.03082973,-0.286870872,0.292046648,-0.266523723,1.788027482,0.545902702,-13.63207106,-0.21434942699999998,0.30629723,-0.277302256,3.648141945,59.98108862,59.93728052,4.001934748,3.2903295989999997,15.33754605,20.17229377,-0.096694957,0.379513207,-0.183220255,-13.32752982,456.8951016,12.03170807,95956.14975,1.140117797,0.380888756,-0.156883171,-0.6371658920000001,-0.305939229,0.291280735,-0.268008704,-0.7807949909999999,0.25660461,0.109129823,0.913134565,-0.383318503,0.097561467,0.09863876699999999,0.6167379,398713958.6,327396312.8,457334.5809,19.73303661,5.26829766,19.03089018,-2.31214635,1.3007245159999998,0,0,0.0,39.871413700000005,32.7364368,-1.512643873,274.0426407,-57.4701497,5.943876392000001,18.63591035,-2.419860238,7.63350239,-2.489040219,-1.339954612,57.6258197,0.08576956599999999,0.4492317,-0.241035451,0.6142043,25185804,0,1,0,0,0
25218436,-0.058010604,0.077627805,-0.035649806,0.5522168000000001,0.0,1481.0,1500.0,1555.0,1526.0,1473.0,1540.0,19.45354652,19.88888572,20.47017747,20.43345026,20.85662274,20.35283551,20.77433828,227.2672086,227.2672086,12.03172084,-0.001555594,-0.006705359,0.002711832,-0.152772627,-0.014841692,-0.107569405,2.0,-0.954590918,0.045409082,11,0,0,1,0,0.0,0,0,0,0,0,-0.776502762,0.255830259,0.122593632,0.03022993,-7.640114874,168.826411,55.88534516,-0.022104235,-0.03672537,0.004274087,0.0,1.67624992,0.520449045,-13.75344148,7.91714182,959.5151742,12.03026655,-0.25557309899999997,0.292756657,-0.266890213,1.755079232,0.64656221,-13.67919229,-0.195466704,0.311831163,-0.279818313,7.91714182,60.14930445,60.05074434,4.0046947,3.327288598,15.33760335,20.14981374,-0.096244212,0.370312817,-0.18373348,-13.03650962,457.1928124,12.03112,95952.73939,1.140077232,0.45690030600000003,0.24167583199999998,0.402047206,-0.282265275,0.301604014,-0.271093408,-0.773870382,0.257212745,0.100364125,0.914837421,-0.379721729,0.099848076,0.09440380599999999,0.617912487,398713973.7,327396390.9,457412.8966,19.74695939,5.524128826,18.98912182,-2.367837471,1.287602605,0,0,0.0,39.871413700000005,32.7364368,-1.3076302370000001,274.68334500000003,-57.55352534,6.20467907,18.55405512,-2.464751014,7.696861084,-2.624936903,-1.2853673079999999,57.70919534,0.093477319,0.445563727,-0.240579929,0.61636424,25218436,0,1,0,0,0
25255069,-0.055368555,0.079276311,-0.036184046,0.5531687,0.0,1481.0,1500.0,1556.0,1525.0,1474.0,1541.0,19.44345707,19.87870027,20.46021864,20.42368896,20.84686888,20.34489295,20.76643958,227.53578619999996,227.53578619999996,12.03109844,-0.001550977,-0.006695571,0.002677886,-0.15206683699999998,-0.015169858,-0.107389687,2.0,-0.951990398,0.048009602,11,0,0,1,0,0.0,0,0,0,0,0,-0.769407345,0.256435509,0.11379220699999999,0.027431731,-7.150390687000001,168.32232580000002,55.86790417,-0.02211762,-0.036726171,0.004719099,0.0,1.6742764680000002,0.523544343,-13.77165582,11.873306300000001,959.5114138,12.02970257,-0.237251398,0.300132888,-0.271450206,1.7680013330000002,0.594435348,-13.74434877,-0.176617577,0.317274365,-0.282399755,11.873306300000001,60.31752028,60.16420816,4.007454652,3.364247597,15.33766065,20.12733371,-0.095793467,0.361112427,-0.184246705,-12.74548942,457.2702401000001,12.03053289,95951.85867,1.1400666990000001,0.798734092,-0.027330421,0.11939032699999999,-0.259330685,0.302034166,-0.27247557699999997,-0.7666083290000001,0.257822363,0.091614092,0.916570503,-0.375953229,0.102115866,0.090142137,0.618827248,398713992.9,327396469.1,457500.8702,19.75408068,5.790842114,18.90654531,-2.419447776,1.273412322,0,0,0.0,39.871413700000005,32.7364368,-1.090601115,275.3358238,-57.63991935,6.4730671310000005,18.46586939,-2.509321811,7.759466653,-2.779080879,-1.236506259,57.79558935,0.09904513599999999,0.438916804,-0.238201498,0.61732215,25255069,0,1,0,0,0
