timestamp,control[0],control[1],control[2],control[3],control[4],output[2],output[3],output[4],output[5],output[6],output[7],indicated_airspeed_m_s,true_airspeed_m_s,indicated_airspeed_m_s.1,equivalent_airspeed_m_s,true_airspeed_m_s.1,equivalent_ground_minus_wind_m_s,true_ground_minus_wind_m_s,differential_pressure_raw_pa,differential_pressure_filtered_pa,temperature,gyro_bias[0],gyro_bias[1],gyro_bias[2],accel_bias[0],accel_bias[1],accel_bias[2],instance_count,seq_reached,seq_current,seq_total,item_changed_index,item_do_jump_remaining,valid,warning,finished,failure,stay_in_failsafe,flight_termination,item_do_jump_changed,execution_mode,nav_roll,nav_pitch,nav_bearing,target_bearing,xtrack_error,wp_dist,acceptance_radius,rollspeed_integ,pitchspeed_integ,yawspeed_integ,additional_integ1,x,y,z,temperature.1,pressure,temperature.2,gyro_rad[0],gyro_rad[1],gyro_rad[2],accelerometer_m_s2[0],accelerometer_m_s2[1],accelerometer_m_s2[2],x.1,y.1,z.1,temperature.3,altitude_sp,altitude_filtered,height_rate_setpoint,height_rate,airspeed_sp,airspeed_filtered,airspeed_derivative_sp,airspeed_derivative,throttle_integ,pitch_integ,baro_alt_meter,baro_temp_celcius,baro_pressure_pa,rho,xyz[0],xyz[1],xyz[2],xyz[0].1,xyz[1].1,xyz[2].1,roll_body,pitch_body,yaw_body,q_d[0],q_d[1],q_d[2],q_d[3],thrust_body[0],lat,lon,alt,vel_m_s,vel_n_m_s,vel_e_m_s,vel_d_m_s,cog_rad,ground_contact,maybe_landed,landed,ref_timestamp,ref_lat,ref_lon,x.2,y.2,z.2,vx,vy,vz,ax,ay,az,dist_bottom,roll,pitch,yaw,thrust_body[0].1,timestamp.1,isTakeoff,isClimbing,isDescending,isCruise,isLand
32785486,0.022988841,0.056992031,0.015310011,0.41744525,0.0,1507.0,1500.0,1490.0,1469.603321,1529.396679,1540.0,15.98312722,16.33485529,16.7962992,16.77024589,17.13970109,16.61033421,16.97626421,174.8719321,174.8719321,12.07706888,-0.001883914,-0.006296102,0.0009150380000000001,-0.18519664600000002,0.193669518,-0.096913109,2.0,-0.273254651,0.7267453490000001,11,0,0,1,0,0.0,0,0,0,0,0,0.48944613,0.210972744,-1.652837898,-1.187863652,27.163375,191.0217403,48.32195109,-0.019747798,0.012312288999999999,0.01269013,0.0,4.413803037,-0.194062984,-9.956223037,79448900.01,960.4297027000001,12.0805671,0.014569108,-0.016314968,-0.036112527,0.081543722,-0.43132228,-9.624803885,0.287244181,0.054253170999999996,0.017193426,79448900.01,56.10684518,52.93032711,4.15067173,5.040687303,15.33208654,19.67718721,-0.086902003,1.3575302480000002,-0.223643163,81.60195585,449.4306415,12.080566000000001,96041.97854,1.1411376009999998,2.2358974640000002,0.557099728,0.128204665,0.43303938700000005,0.125795145,0.045407712,0.585049304,0.23445381699999998,-1.5098517,0.669441519,0.285305879,-0.11467831099999999,-0.676172635,0.62983787,398701419.7,327344765.4,449972.235,16.05052351,-8.102784352999999,-13.839565499999999,-0.12,4.182663117,0,0,0.0,756000,39.871413700000005,32.7364371,-102.511909,-99.07534689,-48.81380692,-9.685253329,-14.01837583,0.606262975,1.0855443390000001,-0.843518852,-0.493893449,48.87310546,0.527502,0.27913552199999997,0.017184743,0.5952156,32785486,0,1,0,0,0
32827952,0.047085493,0.072690165,0.01528711,0.46471474,0.0,1507.0,1500.0,1534.0,1459.256651,1539.743349,1548.371674,16.06142598,16.41473355,16.89155464,16.86576633,17.23740264,16.70182557,17.06984702,176.8399958,176.8399958,12.07651794,-0.0018816339999999999,-0.006293504,0.0009138639999999999,-0.185192565,0.193610975,-0.096841754,2.0,-0.270654131,0.7293458690000001,11,0,0,1,0,0.0,0,0,0,0,0,0.535647744,0.22278268899999998,-1.610854249,-1.097683126,30.24214966,205.89944519999997,48.60739198,-0.019711983,0.012518395,0.012459158,0.0,4.83815487,-0.16007248699999999,-10.37346082,82382296.0,960.421827,12.08053443,0.018831268999999998,-0.011342578999999998,-0.033003276,0.046764318,-0.395763431,-9.665458586,0.373375374,0.092980238,0.037875045,82382296.0,56.28730431,53.12263621,4.151001934,5.141021676,15.3322105,19.66313076,-0.086618394,1.286889086,-0.223936007,81.98590218,449.3741342,12.080536,96042.61495,1.141145139,2.370123214,0.939025571,0.237678997,0.52151532,0.170083382,0.064598669,0.645138608,0.250745815,-1.5098517,0.658166438,0.310331236,-0.12914130599999998,-0.673660058,0.6363743860000001,398701392.3,327344704.6,449975.8002,16.08242171,-8.1290537,-13.84894757,-0.12,4.181549676,0,0,0.0,756000,39.871413700000005,32.7364371,-102.883042,-99.60835706,-48.79219314,-9.646752225,-14.05051832,0.587291435,1.107395155,-0.796652274,-0.539471345,48.85149246,0.5560383010000001,0.29124118,0.021198727999999997,0.60533947,32827952,0,1,0,0,0
32870418,0.072375072,0.09046622800000001,0.01540098,0.5133032999999999,0.0,1507.0,1500.0,1562.453291,1454.120024,1544.879976,1554.613323,16.25817277,16.61585615,16.98681009,16.96128677,17.33510418,16.79331694,17.16342983,178.8080594,178.8080594,12.075967,-0.0018793529999999998,-0.006290905,0.00091269,-0.18518848300000001,0.193552432,-0.09677039999999999,2.0,-0.268053611,0.7319463890000001,11,0,0,1,0,0.0,0,0,0,0,0,0.5818493579999999,0.234592633,-1.5688706000000001,-1.0075026,33.32092432,220.77715010000003,48.89283286,-0.01969345,0.012680872,0.012179333999999998,0.0,5.231957259,-0.12950697,-10.82073189,82382296.0,960.4124181,12.08049963,0.019051623,-0.021540093,-0.033819441,0.5457535720000001,-0.333426018,-9.629479459,0.459989077,0.132802175,0.059021295999999994,82382296.0,56.46777998,53.31611873,4.151213325,5.240084844,15.33233474,19.647069000000002,-0.086294673,1.216874125,-0.22422894100000001,82.36981663,449.43760149999997,12.08051691,96041.90821000001,1.14113672,2.052210102,1.206946261,0.52962377,0.601883764,0.21338094800000001,0.09041787400000001,0.656678153,0.266876093,-1.5098517,0.653885309,0.31906903,-0.12728249,-0.674108079,0.641033917,398701364.9,327344643.8,449979.3653,16.114319899999998,-8.155323048,-13.85832963,-0.12,4.180436235,0,0,0.0,756000,39.871413700000005,32.7364371,-103.25830040000001,-100.1485169,-48.77059276,-9.607780894,-14.083070300000001,0.5679067210000001,1.126043066,-0.758164087,-0.580022771,48.8298927,0.636994092,0.322900918,0.024232081000000003,0.6216781,32870418,0,1,0,0,0
32912884,0.08871284900000001,0.10519461199999999,0.015037578000000001,0.5521691,0.0,1507.0,1500.0,1582.0,1454.678336,1544.321664,1558.321664,16.4661551,16.82850683,17.08206554,17.056807199999998,17.43280572,16.884808300000003,17.25701264,180.77612299999998,180.77612299999998,12.07541606,-0.001877072,-0.006288307,0.0009115169999999999,-0.18518440100000003,0.19349388899999997,-0.096699045,2.0,-0.26545309100000003,0.7345469090000001,11,0,0,1,0,0.0,0,0,0,0,0,0.628050972,0.24640257699999998,-1.52688695,-0.917322075,36.39969897,235.6548549,49.17827375,-0.019709477,0.012816389,0.011821182,0.0,5.514767565,-0.11303428300000001,-11.32291267,82382296.0,960.4051461000001,12.08044772,0.062299583,-0.015926873,-0.022322138999999998,2.1952745240000002,-0.292425798,-9.705734263,0.5434319710000001,0.172684222,0.078625182,82382296.0,56.64825565,53.50960124,4.151424716,5.339148012,15.33245898,19.63100725,-0.085970953,1.146859164,-0.22452187399999998,82.75373108,449.5500828,12.08046845,96040.60429,1.1411211959999998,1.9772720369999999,1.729029616,0.18624594,0.66932858,0.253349376,0.102862491,0.658638408,0.28287089,-1.5098517,0.6510632,0.324589152,-0.12224075599999999,-0.675139085,0.644237318,398701336.1,327344580.3,449982.1592,16.26189138,-8.238657732,-13.98646914,-0.149303861,4.17996879,0,0,0.0,756000,39.871413700000005,32.7364371,-103.6580059,-100.7310464,-48.74907184,-9.566022968,-14.11804898,0.546073513,1.12571038,-0.769326724,-0.59078705,48.80837139,0.66052467,0.332028227,0.029147303,0.628183,32912884,0,1,0,0,0
32954701,0.100464524,0.118216079,0.015105511,0.580259266,0.0,1507.0,1500.0,1605.0,1449.4066810000002,1549.5933189999998,1563.0,16.60955772,16.97512832,17.17732099,17.15232764,17.53050726,16.97629967,17.35059546,182.74418669999997,182.74418669999997,12.07486512,-0.001874791,-0.006285708,0.000910343,-0.18518031899999998,0.193435346,-0.096627691,2.0,-0.26285257100000003,0.7371474290000001,11,0,0,1,0,0.0,0,0,0,0,0,0.651435616,0.254897191,-1.5001116469999998,-0.8791206159999999,37.24452735,241.5369653,49.47099965,-0.019778757,0.012900362,0.011477461000000001,0.0,5.528933347000001,-0.130671793,-11.95799653,82382296.0,960.4030462999999,12.08035439,0.137414758,-0.003378748,-0.013326371000000002,3.303206781,-0.3172796,-9.70194436,0.619200259,0.21271176,0.09449593699999999,82382296.0,56.82873131,53.70308375,4.151636107,5.43821118,15.33258321,19.61494549,-0.08564723199999999,1.076844203,-0.224814808,83.13764552,449.49345530000005,12.0804198,96041.2557,1.141128996,2.212485782,1.436843685,1.094466846,0.7394561829999999,0.29040128800000004,0.1247684,0.664190547,0.298676297,-1.5031487469999998,0.6498819579999999,0.331580569,-0.11735972800000001,-0.673739814,0.6443451,398701307.0,327344516.1,449984.7862,16.4345179,-8.334352871,-14.14033172,-0.184954991,4.179641268999999,0,0,0.0,756000,39.871413700000005,32.7364371,-104.0577114,-101.3135759,-48.72755091,-9.524265041,-14.15302767,0.524240305,1.125377694,-0.78048936,-0.601551329,48.78685007,0.6977983759999999,0.34558393600000004,0.031827142,0.6339582220000001,32954701,0,1,0,0,0
32989816,0.09977473199999999,0.123352462,0.015145765,0.5952156,0.0,1507.0,1500.0,1619.09842,1444.444889,1554.555111,1567.913383,16.87159929,17.24292844,17.27257644,17.24784808,17.628208800000003,17.06779104,17.44417827,184.7122503,184.7122503,12.07431418,-0.00187251,-0.00628311,0.0009091689999999999,-0.18517623800000002,0.19337680399999999,-0.09655633599999999,2.0,-0.26025205,0.73974795,11,0,0,1,0,0.0,0,0,0,0,0,0.65924039,0.261128032,-1.483720898,-0.876411473,36.56397391,241.27670940000002,49.76869992,-0.019904269,0.012967862,0.011019593000000001,0.0,5.543099129,-0.148309302,-12.59308039,82382296.0,960.4009465,12.08026107,0.215515958,0.026319058,0.0035599340000000003,3.850845472,-0.22647394899999998,-9.881889309,0.6949685459999999,0.252739299,0.11036669199999999,82382296.0,57.00920698,53.89656627,4.151847496999999,5.5372743479999995,15.33270745,19.59888374,-0.08532351099999999,1.006829242,-0.22510774100000003,83.52155997,449.56395210000005,12.08035846,96040.43376,1.141119244,1.5067904280000002,0.8543009159999999,0.5465546579999999,0.783187545,0.31982205399999997,0.13192130400000002,0.68202456,0.309658744,-1.4777028680000002,0.653604161,0.34214720200000004,-0.115092185,-0.665194183,0.643773102,398701277.9,327344451.9,449987.4131,16.60714443,-8.43004801,-14.29419431,-0.22060612100000002,4.179313747,0,0,0.0,756000,39.871413700000005,32.7364371,-104.4351844,-101.87016,-48.70844707,-9.483069865,-14.18500991,0.502558031,1.140710361,-0.775216537,-0.605700902,48.7677463,0.7021443509999999,0.36226672,0.036978495,0.6396427,32989816,0,1,0,0,0
33028282,0.11294821699999999,0.13332898,0.014656028,0.6141005,0.0,1507.0,1500.0,1628.0,1444.506701,1554.493299,1569.246649,16.98272174,17.35643193,17.36783189,17.34336852,17.72591035,17.1592824,17.53776108,186.6803139,186.6803139,12.07376324,-0.00187023,-0.006280511,0.0009079960000000001,-0.185172156,0.19331826100000002,-0.096484982,2.0,-0.25765153,0.74234847,11,0,0,1,0,0.0,0,0,0,0,0,0.667045164,0.26735887399999997,-1.467330148,-0.87370233,35.88342047,241.0164534,50.06640018,-0.020020776,0.013002673999999999,0.010616628999999999,0.0,5.474997687999999,-0.16097689199999998,-13.24563549,82382296.0,960.3987482000001,12.08012808,0.307385416,0.068142486,0.018530549,4.575741361,-0.257214965,-10.12119476,0.7406899720000001,0.287566678,0.127770234,82382296.0,57.20406736,54.117583999999994,4.151098123,5.6239074879999995,15.33287664,19.5736222,-0.08481489800000001,0.94183133,-0.225417945,83.92602157,449.5987614,12.080231199999998,96040.02308,1.1411144359999998,2.030069496,1.184132682,0.504840007,0.8044512690000001,0.34569865,0.147456103,0.701054436,0.313933538,-1.447946617,0.659411546,0.351347964,-0.114657675,-0.654655883,0.641720376,398701248.8,327344387.7,449990.04,16.77977095,-8.525743149,-14.44805689,-0.256257251,4.178986226,0,0,0.0,756000,39.871413700000005,32.7364371,-104.798017,-102.40965859999999,-48.6909349,-9.44224527,-14.21501896,0.48097515,1.1663589159999999,-0.759120701,-0.605494585,48.75023453,0.659396645,0.383678025,0.036787283,0.6442051,33028282,0,1,0,0,0
33062749,0.10797192300000001,0.13631415800000002,0.015135023999999999,0.6216781,0.0,1507.0,1500.0,1635.113423,1441.773155,1557.226845,1571.335067,17.1531741,17.53069799,17.46308734,17.43888896,17.82361189,17.25077377,17.63134389,188.64837759999998,188.64837759999998,12.073212300000002,-0.001867949,-0.006277913,0.0009068219999999999,-0.185168074,0.193259718,-0.09641362699999999,2.0,-0.25505101,0.74494899,11,0,0,1,0,0.0,0,0,0,0,0,0.6748499379999999,0.27358971600000004,-1.450939398,-0.870993186,35.20286703,240.7561975,50.36410045,-0.020153418,0.013002696000000001,0.01015646,0.0,5.367793925,-0.171282235,-13.90649483,82382296.0,960.3965030999999,12.07997623,0.387882967,0.085943072,0.03900679,4.932323415,-0.274024149,-10.35794873,0.772129865,0.319922376,0.145902322,82382296.0,57.40725447,54.35454075,4.149792601000001,5.703345393999999,15.33307184,19.54303527,-0.08419925800000001,0.8797375829999999,-0.22573814399999997,84.34237708,449.52463240000003,12.08011541,96040.89505,1.141124752,1.8438032180000001,1.021132028,0.350486962,0.794151995,0.378275884,0.16130777599999999,0.711764187,0.317528712,-1.42777843,0.663474341,0.35706185700000004,-0.11325217,-0.64766213,0.638721228,398701219.8,327344323.6,449992.6669,16.95239748,-8.621438288,-14.60191948,-0.29190838199999997,4.178658705,0,0,0.0,756000,39.871413700000005,32.7364371,-105.16250249999999,-102.95210829999999,-48.67350925,-9.401182257,-14.24513959,0.459224523,1.192518258,-0.743361457,-0.60455656,48.73280922,0.617972081,0.387451618,0.041941505,0.6444291,33062749,0,1,0,0,0
33097215,0.10534619699999999,0.137338557,0.014169992,0.629570897,0.0,1507.0,1500.0,1639.0,1450.410082,1548.589918,1572.196639,17.36622283,17.74843132,17.55834279,17.53440939,17.92131343,17.34226514,17.724926699999997,190.61644119999997,190.61644119999997,12.07266137,-0.0018656679999999998,-0.006275315,0.000905648,-0.185163993,0.193201175,-0.096342273,2.0,-0.25245049,0.74754951,11,0,0,1,0,0.0,0,0,0,0,0,0.682654713,0.279820558,-1.4345486490000001,-0.868284043,34.52231359,240.49594159999998,50.66180071,-0.020287074,0.012962673000000001,0.009678496,0.0,5.256614988,-0.180799732,-14.55406542,82382296.0,960.3942509,12.07981701,0.46234489700000003,0.129579002,0.062108870999999996,5.300508875,-0.179592168,-10.87978882,0.800432879,0.35127302200000005,0.163558435,82382296.0,57.61044157,54.591497499999996,4.148487079,5.7827833,15.33326704,19.51244835,-0.083583619,0.817643835,-0.226058344,84.75873259999999,449.58211869999997,12.07993296,96040.21872,1.141116647,1.628756405,1.4266557519999998,0.350192105,0.782206924,0.392762785,0.166397508,0.7201105940000001,0.320690102,-1.409257244,0.667413984,0.36176455799999996,-0.11145259,-0.641293885,0.635740593,398701189.8,327344256.7,450005.7371,17.12594828,-8.681090218,-14.77056921,-0.379313863,4.18054103,0,0,0.0,756000,39.871413700000005,32.7364371,-105.5522038,-103.5395799,-48.65740338,-9.356481897,-14.27696257,0.434914724,1.226470276,-0.7327373359999999,-0.592455454,48.71670296,0.599668987,0.403283303,0.044773084000000005,0.64395,33097215,0,1,0,0,0
33131681,0.11386208199999999,0.144280312,0.014465282,0.63654107,0.0,1506.0,1500.0,1644.0,1463.828366,1535.171634,1573.171634,17.47302192,17.85766885,17.65359824,17.62992983,18.01901497,17.4337565,17.81850951,192.58450480000002,192.58450480000002,12.07211043,-0.0018633870000000002,-0.006272715999999999,0.000904475,-0.185159911,0.19314263199999998,-0.09627091800000001,2.0,-0.24984997,0.75015003,11,0,0,1,0,0.0,0,0,0,0,0,0.690459487,0.2860514,-1.418157899,-0.8655748990000001,33.84176015,240.2356856,50.95950098,-0.0204252,0.012905733999999999,0.009203725,0.0,5.086596919,-0.17865579399999998,-15.00494057,82382296.0,960.3918947999999,12.07954851,0.543755193,0.170500436,0.073724268,5.416198657000001,-0.22449865100000002,-11.33048044,0.782304897,0.36774722600000004,0.17416933199999998,82382296.0,57.81362868,54.82845425,4.1471815560000005,5.862221206,15.33346224,19.48186143,-0.082967979,0.755550087,-0.226378544,85.17508811,449.67644400000006,12.07971399,96039.1341,1.141103792,0.62823385,0.959868816,0.502622579,0.7580458370000001,0.408432289,0.183476428,0.727757436,0.323353816,-1.38989982,0.671745967,0.36612690000000003,-0.10938154800000001,-0.6346187320000001,0.6320888020000001,398701158.8,327344187.1,450029.5671,17.30045137,-8.703606721,-14.95445417,-0.520042008,4.184700166,0,0,0.0,756000,39.871413700000005,32.7364371,-105.9419051,-104.12705140000001,-48.64129751,-9.311781537,-14.30878556,0.41060492600000004,1.260422293,-0.7221132140000001,-0.580354347,48.7005967,0.567910249,0.39109175700000004,0.05069367,0.6428458420000001,33131681,0,1,0,0,0
33174147,0.09112058099999999,0.151503776,0.014694078999999999,0.6421726,0.0,1506.0,1500.0,1644.0,1471.0,1528.0,1576.560112,17.68785277,18.07724373,17.74885369,17.72545027,18.11671652,17.52524787,17.91209232,194.5525685,194.5525685,12.07155949,-0.001861106,-0.006270118000000001,0.000903301,-0.185155829,0.193084089,-0.096199564,2.0,-0.24724945,0.75275055,11,0,0,1,0,0.0,0,0,0,0,0,0.6982642609999999,0.29228224199999997,-1.401767149,-0.8628657559999999,33.16120671,239.97542969999998,51.25720124,-0.020565783,0.012837118,0.008704826,0.0,4.91657885,-0.176511857,-15.45581572,82382296.0,960.3895388000001,12.07928001,0.618465069,0.21398199199999998,0.098554158,5.5839173010000005,-0.156539226,-12.01250702,0.764176915,0.384221429,0.18478022800000002,82382296.0,58.01681578,55.06541101,4.145876034,5.941659112000001,15.33365744,19.4512745,-0.08235233900000001,0.69345634,-0.22669874399999998,85.59144362,449.62221380000005,12.07942848,96039.75547999999,1.141111099,-0.629948591,0.5603020000000001,0.47605812299999994,0.738716438,0.40905653299999994,0.190812555,0.7378676959999999,0.325707847,-1.3650142680000001,0.677322451,0.37152030399999997,-0.107098275,-0.625886642,0.628841648,398701127.8,327344117.5,450053.3971,17.47495446,-8.726123225,-15.13833914,-0.6607701539999999,4.188859301,0,0,0.0,756000,39.871413700000005,32.7364371,-106.31290420000002,-104.6920166,-48.62686437,-9.26791161,-14.33744847,0.38696128700000004,1.25204411,-0.705556828,-0.577502075,48.68616358,0.544539145,0.38224011799999996,0.060082044,0.6396970999999999,33174147,0,1,0,0,0
33208613,0.067978678,0.147034797,0.013529278,0.6442051,0.0,1507.0,1500.0,1643.0,1474.878376,1524.121624,1576.0,17.79050283,18.18214866,17.84410914,17.82097071,18.21441806,17.61673923,18.00567513,196.5206321,196.5206321,12.07100855,-0.001858826,-0.006267519,0.000902127,-0.185151747,0.19302554600000002,-0.096128209,2.0,-0.24464893,0.75535107,11,0,0,1,0,0.0,0,0,0,0,0,0.7060690359999999,0.298513083,-1.3853764,-0.860156613,32.48065327,239.71517369999998,51.55490151,-0.020708389,0.012763251000000001,0.008189706,0.0,4.737198214,-0.165987667,-15.79769191,68242668.15,960.3860361999999,12.07894869,0.691064459,0.25344054,0.10843029400000001,5.537905524,-0.12062180900000001,-12.63002656,0.740067307,0.39290082200000004,0.193955988,68242668.15,58.21277585,55.298022499999995,4.144357275,6.012556731,15.33383428,19.41964142,-0.081716143,0.6363512,-0.22700426899999998,85.98636994,449.7012607,12.0791365,96038.84255,1.141100348,-0.30511719800000003,0.666197771,-0.09355847099999999,0.707004553,0.40946630799999995,0.20936986,0.7423224270000001,0.32773804100000004,-1.3475462790000001,0.681584002,0.374497384,-0.104462406,-0.619902017,0.625435898,398701096.9,327344047.9,450077.227,17.64945755,-8.748639727999999,-15.322224100000001,-0.8014983,4.193018437,0,0,0.0,756000,39.871413700000005,32.7364371,-106.6666455,-105.23621340000001,-48.613974799999994,-9.224807986,-14.36319536,0.363932364,1.2046046259999998,-0.683526291,-0.5831844070000001,48.673274400000004,0.5109271639999999,0.371213545,0.071363945,0.637621453,33208613,0,1,0,0,0
33247079,0.055869877000000005,0.15409239,0.013336764,0.64431524,0.0,1506.096619,1500.0,1641.193239,1476.289858,1522.710142,1572.0,17.87364186,18.26719982,17.93936458,17.91649115,18.312119600000003,17.7082306,18.09925794,198.4886957,198.4886957,12.07045761,-0.001856545,-0.006264921,0.000900953,-0.18514766600000002,0.192967003,-0.096056855,2.0,-0.24204841,0.75795159,11,0,0,1,0,0.0,0,0,0,0,0,0.71387381,0.304743925,-1.36898565,-0.857447469,31.80009982,239.45491780000003,51.85260177,-0.020851043,0.01268342,0.007652138,0.0,4.546316243,-0.14516885599999999,-16.00566963,36733380.92,960.3811252,12.07854021,0.738475016,0.276963169,0.127943138,5.5453935439999995,-0.09932775099999999,-13.14140942,0.70860964,0.39200477100000003,0.201368773,36733380.92,58.39344428,55.52143988,4.142387331,6.065384008,15.33397226,19.38579479,-0.081036451,0.589801427,-0.227278746,86.33595435,449.73187530000007,12.0787487,96038.5067,1.1410963379999999,-0.542556358,0.856283137,0.600562817,0.6813839970000001,0.401554258,0.222433155,0.7439311129999999,0.329500238,-1.333183807,0.685413371,0.376248274,-0.101595177,-0.6150735979999999,0.622126305,398701065.9,327343978.3,450101.05700000003,17.82396064,-8.771156231,-15.50610906,-0.942226445,4.197177573,0,0,0.0,756000,39.871413700000005,32.7364371,-107.0203868,-105.7804101,-48.60108522,-9.181704362,-14.38894224,0.34090344100000003,1.157165143,-0.661495753,-0.588866739,48.66038521,0.477345905,0.362541313,0.080300732,0.63366055,33247079,0,1,0,0,0
33281545,0.049259022,0.152789624,0.014379544,0.64395,0.0,1507.0,1500.0,1639.0,1480.928386,1518.071614,1570.0,18.09144454,18.48975112,18.03462003,18.01201159,18.40982114,17.79972197,18.19284075,200.4567594,200.4567594,12.06990667,-0.001854264,-0.006262322,0.00089978,-0.18514358399999997,0.19290846,-0.0959855,2.0,-0.23944789,0.76055211,11,0,0,1,0,0.0,0,0,0,0,0,0.7216785840000001,0.310974767,-1.352594901,-0.854738326,31.11954638,239.1946619,52.15030203,-0.020994271000000002,0.012604428,0.007090058000000001,0.0,4.355434272,-0.124350044,-16.21364734,5224093.695,960.3762142,12.07813172,0.779945302,0.30665754,0.130467836,5.512901016,-0.206262311,-13.604104699999999,0.677151973,0.391108721,0.208781558,5224093.695,58.5741127,55.74485726,4.140417386,6.118211285,15.33411024,19.35194815,-0.080356758,0.543251653,-0.227553223,86.68553877,449.7993289,12.07831824,96037.72839,1.141087051,-0.282030917,-0.5715878010000001,0.6669557939999999,0.653899976,0.403559637,0.230319484,0.748193295,0.331083587,-1.3135218929999999,0.690354695,0.379108565,-0.098585277,-0.608249299,0.619377172,398701035.3,327343908.4,450131.3449,17.984997,-8.769187837999999,-15.68846369,-1.097033407,4.202399718000001,0,0,0.0,756000,39.871413700000005,32.7364371,-107.400398,-106.372703,-48.58955535,-9.135039546,-14.41590482,0.316497505,1.181722546,-0.639305628,-0.593868086,48.64885497,0.44985754200000005,0.35716716200000004,0.09051439,0.629590434,33281545,0,1,0,0,0
33320011,0.045794935999999994,0.14493193099999999,0.014112612,0.641584,0.0,1508.0,1500.0,1636.046609,1483.046609,1515.953391,1568.953391,18.08770947,18.48602359,18.12987548,18.10753202,18.50752269,17.89121333,18.28642356,202.424823,202.424823,12.06935573,-0.001851983,-0.006259724,0.000898606,-0.18513950199999998,0.19284991699999998,-0.09591414599999999,2.0,-0.23684736899999997,0.763152631,11,0,0,1,0,0.0,0,0,0,0,0,0.729483358,0.317205609,-1.336204151,-0.852029182,30.43899294,238.9344059,52.44800229999999,-0.021138927000000002,0.012512398999999999,0.0065351459999999995,0.0,4.173541031,-0.07791644,-16.28447994,26285217.69,960.3646795,12.07761603,0.795861323,0.33703790200000006,0.149870702,5.347555519,-0.074632488,-14.20650261,0.645300572,0.390336387,0.229586376,26285217.69,58.75478112,55.96827464,4.1384474419999995,6.171038562000001,15.33424822,19.31810152,-0.07967706599999999,0.49670188,-0.2278277,87.03512319,449.92231339999995,12.07780798,96036.32469,1.141070475,-0.382752844,-0.329107056,0.303116271,0.610997886,0.397288601,0.253246762,0.748284307,0.33246404,-1.299353052,0.6943913270000001,0.380178258,-0.09539310699999999,-0.603471333,0.616730887,398701006.4,327343837.1,450194.7664,18.07693939,-8.641594319,-15.86296659,-1.324074815,4.213075862,0,0,0.0,756000,39.871413700000005,32.7364371,-107.7809824,-106.9660453,-48.57805515,-9.088297031,-14.44289391,0.292061526,1.207850791,-0.6171120210000001,-0.598854574,48.63735437,0.409073435,0.348939626,0.099339659,0.6275487,33320011,0,1,0,0,0
33354477,0.036773188,0.140660178,0.01607546,0.6396970999999999,0.0,1509.0,1500.0,1633.0,1486.9783960000002,1512.0216039999998,1566.0,18.18270672,18.58328718,18.22513093,18.20305246,18.60522423,17.9827047,18.38000637,204.3928866,204.3928866,12.06880479,-0.0018497020000000002,-0.006257125,0.000897432,-0.18513542100000002,0.192791375,-0.095842791,2.0,-0.23424684899999998,0.765753151,11,0,0,1,0,0.0,0,0,0,0,0,0.737288133,0.323436451,-1.319813401,-0.8493200390000001,29.7584395,238.67415,52.74570256,-0.021280700000000003,0.012408731999999999,0.005952616,0.0,3.993434265,-0.026391996,-16.32805549,57794504.92,960.3518282,12.07707904,0.792828416,0.363094381,0.158549029,5.2562914130000005,-0.128057838,-14.70563364,0.613370918,0.38958864200000004,0.253052808,57794504.92,58.93544955,56.19169202,4.136477497,6.223865839,15.33438619,19.28425488,-0.07899737400000001,0.450152106,-0.228102177,87.38470761,450.0054337,12.07726181,96035.35747,1.14105889,-0.991923181,-0.45785613399999997,0.157602285,0.575291409,0.40189305200000003,0.263095429,0.750438759,0.333722025,-1.280764465,0.6993461390000001,0.382116435,-0.09201348699999999,-0.597016588,0.6147574170000001,398700977.5,327343765.8,450258.1878,18.16888178,-8.5140008,-16.03746949,-1.5511162230000002,4.223752005,0,0,0.0,756000,39.871413700000005,32.7364371,-108.14592890000002,-107.5400389,-48.56808451,-9.042693815,-14.46814546,0.26845434,1.216040285,-0.600351768,-0.585192334,48.62738351,0.37736862200000004,0.345746479,0.109117655,0.623685245,33354477,0,1,0,0,0
33392943,0.030414326000000002,0.135692278,0.016934805,0.6360066999999999,0.0,1510.0,1500.0,1629.0,1490.0,1509.0,1564.996599,18.22400869,18.62544579,18.32038638,18.2985729,18.70292577,18.07419607,18.47358918,206.3609503,206.3609503,12.06825385,-0.0018474210000000001,-0.006254526999999999,0.0008962589999999999,-0.18513133899999998,0.192732832,-0.09577143699999999,2.0,-0.23164632899999998,0.768353671,11,0,0,1,0,0.0,0,0,0,0,0,0.7450929070000001,0.329667292,-1.303422652,-0.846610896,29.07788606,238.41389410000002,53.04340283,-0.021422913999999998,0.012282538999999999,0.005372073000000001,0.0,3.821695084,0.014720624,-16.35652633,82382296.0,960.3396995999999,12.07651389,0.776718385,0.374404471,0.171797554,5.034336118,-0.107023514,-15.24621905,0.581481829,0.390459678,0.273485002,82382296.0,59.11611815,56.41519215,4.134502407,6.276633059,15.33452456,19.25042975,-0.078318104,0.40364463799999994,-0.228376606,87.73411129,450.1032754,12.07667721,96034.26556,1.141046015,-0.701502301,0.034101373,-0.075102642,0.539220606,0.401398717,0.282957384,0.7490507940000001,0.33482311600000003,-1.267072962,0.7034980759999999,0.38252193100000004,-0.08855872,-0.5923877710000001,0.612901561,398700948.6,327343694.5,450321.6093,18.26082416,-8.386407281,-16.21197239,-1.7781576319999999,4.234428149,0,0,0.0,756000,39.871413700000005,32.7364371,-108.4907461,-108.08912659999999,-48.56008273,-8.998557113,-14.49116043,0.24591398399999997,1.201138853,-0.590585379,-0.547525275,48.61938173,0.340344845,0.34184815799999996,0.12071409300000001,0.62115955,33392943,0,1,0,0,0
33435409,0.023676408,0.132507695,0.01899018,0.63176654,0.0,1510.0,1500.0,1626.943189,1493.9715939999999,1505.0284060000001,1562.0284060000001,18.31807527,18.72183179,18.41564183,18.39409334,18.80062731,18.16568743,18.56717199,208.3290139,208.3290139,12.06770291,-0.001845807,-0.0062521669999999994,0.00089556,-0.18512538899999997,0.192694764,-0.095704767,2.0,-0.229045809,0.770954191,11,0,0,1,0,0.0,0,0,0,0,0,0.746761179,0.333091307,-1.288404245,-0.8439554490000001,28.41258706,238.09612230000002,53.18191769,-0.021560056,0.012140278999999999,0.0047908809999999994,0.0,3.6796807589999996,0.018846481,-16.33133948,82382296.0,960.3301377,12.07584877,0.7549817329999999,0.39485103,0.18321579100000002,4.79094501,-0.07995790400000001,-15.69875318,0.5497368420000001,0.397081245,0.283138426,82382296.0,59.29680822,56.64834255,4.13192726,6.322396078,15.33470771,19.21911152,-0.077688076,0.362070989,-0.228645447,88.06243728,450.23527300000006,12.07601524,96032.70168,1.141027365,-1.277432549,-0.143187541,1.096513452,0.506395312,0.413570327,0.290642584,0.747249341,0.33580621,-1.252973487,0.707829515,0.382738278,-0.084943646,-0.587586075,0.611253532,398700919.7,327343623.2,450385.0308,18.35276655,-8.258813763,-16.3864753,-2.00519904,4.245104293,0,0,0.0,756000,39.871413700000005,32.7364371,-108.83556329999999,-108.63821429999999,-48.55208094,-8.95442041,-14.51417539,0.223373627,1.186237422,-0.580818989,-0.509858217,48.61137994,0.308707048,0.338927631,0.12867854,0.618633849,33435409,0,1,0,0,0
33473876,0.017632378,0.129554775,0.021107962,0.6293991,0.0,1511.0,1500.0,1623.0,1497.0,1502.0,1562.0,18.47311052,18.88028383,18.51089728,18.48961378,18.89832885,18.2571788,18.6607548,210.2970775,210.2970775,12.06715197,-0.001844838,-0.006250037,0.0008953219999999999,-0.18511763,0.19267653899999998,-0.09564263699999999,2.0,-0.226445289,0.773554711,11,0,0,1,0,0.0,0,0,0,0,0,0.742482737,0.333795302,-1.2747157390000001,-0.84135204,27.76207071,237.7226136,53.16617041,-0.021696796,0.011976542,0.004225515,0.0,3.537666433,0.022972338,-16.30615264,82382296.0,960.3205757999999,12.07518364,0.738125612,0.39343445299999996,0.196278812,4.74727488,0.004901654,-15.98911079,0.517991855,0.403702812,0.292791849,82382296.0,59.4774983,56.88149294,4.129352112,6.368159097,15.33489087,19.18779329,-0.077058048,0.320497339,-0.22891428800000002,88.39076327,450.23030769999997,12.07531218,96032.77563999999,1.1410282109999998,-0.338680384,-0.356991584,0.527171286,0.462763406,0.42199581700000005,0.30193283600000004,0.7453089690000001,0.33670773299999995,-1.238230805,0.712368769,0.38288226700000005,-0.08120593,-0.582526174,0.610106856,398700890.8,327343551.9,450448.4523,18.44470894,-8.131220244,-16.5609782,-2.232240448,4.255780437,0,0,0.0,756000,39.871413700000005,32.7364371,-109.20357659999998,-109.2307722,-48.54581649,-8.908862547,-14.53650656,0.198791773,1.1948731940000001,-0.559659094,-0.553712011,48.60511584,0.27244446699999997,0.336701742,0.140029352,0.6162464,33473876,0,1,0,0,0
33508342,0.012060929,0.12621502099999998,0.021033092000000003,0.6251885,0.0,1512.0,1500.0,1620.843169,1500.0,1499.0,1561.0,18.408064800000002,18.81387212,18.60615273,18.58513421,18.9960304,18.34867016,18.75433761,212.2651412,212.2651412,12.06660103,-0.001843869,-0.006247907,0.0008950830000000001,-0.18510987,0.192658314,-0.095580507,2.0,-0.22384476899999997,0.776155231,11,0,0,1,0,0.0,0,0,0,0,0,0.738204295,0.334499298,-1.261027232,-0.83874863,27.11155436,237.34910490000001,53.15042313,-0.021840152,0.011779029,0.003651198,0.0,3.452335455,0.053695885,-16.30164969,82382296.0,960.3111527000001,12.07445475,0.71021845,0.396382141,0.21082566100000003,4.548964672,-0.035266206,-16.14372978,0.477020114,0.411920954,0.29901273899999997,82382296.0,59.65818837,57.11464334,4.126776965,6.413922116,15.33507402,19.15647506,-0.076428021,0.27892369,-0.22918312899999999,88.71908926,450.40314529999995,12.07455936,96030.81473,1.14100492,-0.677765348,0.550409049,-0.283817638,0.430277206,0.438089675,0.310217423,0.7432654000000001,0.337514011,-1.2226441940000001,0.717138198,0.3829616,-0.077309817,-0.577115422,0.609334849,398700864.1,327343475.1,450550.3559,18.48659332,-7.903510702,-16.71045193,-2.431124225,4.270333573,0,0,0.0,756000,39.871413700000005,32.7364371,-109.57428859999999,-109.8283876,-48.53975416,-8.863139339,-14.55875817,0.1739724,1.206247404,-0.53717362,-0.607050354,48.59905391,0.232042272,0.334969827,0.153520576,0.614029,33508342,0,1,0,0,0
33546808,0.0034812640000000004,0.124368094,0.023086781,0.6230518,0.0,1512.0,1500.0,1617.0,1503.0,1496.0,1560.0,18.47835106,18.88586588,18.70140818,18.68065465,19.09373194,18.44016153,18.84792042,214.23320479999998,214.23320479999998,12.066050099999998,-0.0018429000000000002,-0.0062457780000000004,0.000894845,-0.18510211,0.192640089,-0.095518378,2.0,-0.22124424899999998,0.7787557509999999,11,0,0,1,0,0.0,0,0,0,0,0,0.733925853,0.335203294,-1.247338726,-0.83614522,26.461038000000002,236.97559610000002,53.13467585,-0.021963088,0.011590771000000001,0.003188614,0.0,3.40399318,0.101775745,-16.31064401,82382296.0,960.3018203,12.07368425,0.680806723,0.388909699,0.219759503,4.263197798,-0.062737309,-16.25603643,0.43002745700000006,0.421180939,0.302993731,82382296.0,59.83887844,57.34779374,4.124201816999999,6.459685135,15.33525718,19.12515684,-0.075797993,0.237350041,-0.22945197,89.04741524,450.54442350000005,12.0737701,96029.16522000001,1.1409853490000001,-1.160485768,0.4285004,0.41177166299999995,0.396208574,0.44495118200000006,0.309448756,0.738508022,0.33826378700000004,-1.2105292909999998,0.721411857,0.38188579200000006,-0.073333034,-0.573016058,0.608991863,398700837.8,327343397.2,450659.9362,18.5184917,-7.655829166,-16.85493264,-2.6243908780000003,4.285660126000001,0,0,0.0,756000,39.871413700000005,32.7364371,-109.94264840000001,-110.42653500000002,-48.53481381,-8.817929295,-14.57985811,0.149581973,1.198776541,-0.504286126,-0.631767165,48.59411381,0.19786086600000002,0.331678517,0.160967029,0.61272526,33546808,0,1,0,0,0
33581274,-0.0007286189999999999,0.12336532,0.024901986,0.61952484,0.0,1513.0,1500.0,1615.871574,1505.128426,1493.871574,1559.0,18.51817073,18.9266833,18.70249042,18.68289967,19.09622727,18.44043283,18.84839533,214.2427789,214.2427789,12.06467077,-0.001841931,-0.006243648,0.000894607,-0.18509435100000002,0.19262186399999998,-0.09545624800000001,2.0,-0.21864372899999998,0.7813562709999999,11,0,0,1,0,0.0,0,0,0,0,0,0.729647411,0.335907289,-1.233650219,-0.83354181,25.81052165,236.6020874,53.11892857,-0.022092043,0.011372323,0.0027068540000000003,0.0,3.355650905,0.149855605,-16.31963833,82382296.0,960.2924879000001,12.07291375,0.652716862,0.390700675,0.231535725,4.028009803,-0.036909839,-16.38537549,0.383034799,0.430440924,0.306974722,82382296.0,60.01956851,57.58094414,4.12162667,6.505448155,15.33544033,19.09383861,-0.075167966,0.195776392,-0.22972081100000002,89.37574123,450.54193080000005,12.07294249,96029.19627,1.1409856790000001,-0.79467961,0.5216124120000001,0.111679738,0.35624467,0.460203255,0.317285406,0.7364937559999999,0.338948222,-1.193330726,0.7265821440000001,0.38193013600000003,-0.069201645,-0.566930876,0.609067157,398700811.6,327343319.3,450769.5165,18.55039008,-7.40814763,-16.99941335,-2.8176575319999997,4.300986678,0,0,0.0,756000,39.871413700000005,32.7364371,-110.3067225,-111.02565159999999,-48.53191781,-8.773654286000001,-14.59885959,0.125973127,1.15696817,-0.452445166,-0.604332835,48.59121781,0.16558345800000002,0.330822049,0.171819647,0.6107851,33581274,0,1,0,0,0
33615740,-0.006631876,0.12063513099999999,0.025721515,0.61774606,0.0,1514.0,1500.0,1614.0,1508.0,1491.0,1558.846569,18.55740125,18.96670898,18.69608162,18.67772505,19.09114938,18.43344798,18.84146392,214.096564,214.096564,12.06322555,-0.001840962,-0.006241519,0.000894368,-0.18508659100000002,0.192603639,-0.09539411800000001,2.0,-0.21604320899999999,0.7839567909999999,11,0,0,1,0,0.0,0,0,0,0,0,0.725368969,0.336611285,-1.219961713,-0.8309384,25.1600053,236.2285786,53.10318129,-0.022223704,0.01114101,0.00227764,0.0,3.2990603910000003,0.17887115,-16.40409674,82382296.0,960.2697205000001,12.07179658,0.6165384629999999,0.38674714299999996,0.253271932,3.9318821739999996,0.008149638,-16.36247996,0.347981484,0.443483704,0.314716385,82382296.0,60.21598749,57.84176203,4.118454567,6.553386261,15.33563423,19.05843957,-0.07445610700000001,0.15086564,-0.23001209399999997,89.71395839,450.73662649999994,12.07205186,96026.96026,1.140959146,-0.8250480379999999,0.487478029,0.085523178,0.314007676,0.47058010100000003,0.320530734,0.72909228,0.33955920100000003,-1.183671514,0.7306237879999999,0.379699574,-0.06502928200000001,-0.563723135,0.609246351,398700785.3,327343241.5,450879.0968,18.58228846,-7.160466092999999,-17.14389406,-3.010924185,4.31631323,0,0,0.0,756000,39.871413700000005,32.7364371,-110.67079650000001,-111.62476809999998,-48.5290218,-8.729379276,-14.61786107,0.102364281,1.1151598,-0.400604206,-0.576898505,48.5883218,0.11992150300000001,0.328837944,0.18331851300000002,0.6095815,33615740,0,1,0,0,0
33654206,-0.012366268,0.119745415,0.027588346,0.615028,0.0,1514.178436,1500.0,1611.0,1511.178436,1487.821564,1558.0,18.53321896,18.94232796,18.68967282,18.67255043,19.08607149,18.42646313,18.83453251,213.95034909999998,213.95034909999998,12.06178033,-0.0018399929999999998,-0.006239389000000001,0.00089413,-0.185078832,0.19258541399999998,-0.095331988,2.0,-0.213442689,0.7865573109999999,11,0,0,1,0,0.0,0,0,0,0,0,0.7210905259999999,0.337315281,-1.2062732059999999,-0.82833499,24.50948895,235.8550699,53.08743401,-0.022349768,0.010888891000000001,0.00190876,0.0,3.242391487,0.20770551399999998,-16.48927234,82382296.0,960.2468255000001,12.07067612,0.584826088,0.38252489700000003,0.270090467,3.8575866710000004,0.121792444,-16.32722807,0.313041637,0.45656243399999996,0.322493788,82382296.0,60.41927436,58.11466069,4.115021809,6.602274101,15.33583282,19.02125868,-0.073708519,0.104497771,-0.230313176,90.05649443,450.7862374,12.07112325,96026.36851,1.140952086,-1.16837461,-0.05735813,0.19192463699999998,0.28397988399999996,0.47262175100000003,0.322178487,0.723459524,0.34012322799999994,-1.17069699,0.73524233,0.37817498899999996,-0.060763204,-0.559204265,0.609632327,398700759.0,327343163.6,450988.6771,18.61418684,-6.912784557,-17.28837477,-3.204190838,4.331639782,0,0,0.0,756000,39.871413700000005,32.7364371,-111.0327466,-112.2270193,-48.528483200000004,-8.686316551,-14.635992199999999,0.078051395,1.106888015,-0.356263961,-0.567865904,48.58778256,0.09438506,0.326887236,0.19468669800000002,0.6092,33654206,0,1,0,0,0
33696672,-0.017471959,0.116763299,0.028504388999999998,0.613809928,0.0,1516.0,1500.0,1610.0,1513.203441,1485.796559,1557.0,18.63582656,19.04719451,18.68326401,18.6673758,19.08099359,18.41947829,18.827601100000003,213.80413430000004,213.80413430000004,12.06033511,-0.001839025,-0.00623726,0.000893892,-0.185071072,0.19256718899999997,-0.09526985800000001,2.0,-0.210842168,0.789157832,11,0,0,1,0,0.0,0,0,0,0,0,0.7168120840000001,0.33801927600000004,-1.1925847,-0.82573158,23.8589726,235.4815612,53.07168673,-0.022474183999999998,0.010625768,0.001590434,0.0,3.216721365,0.22801095,-16.56913132,82382296.0,960.2250782,12.06960391,0.529526145,0.393474011,0.2879532,3.682154372,0.094040704,-16.26097398,0.276273205,0.46660762299999997,0.324797108,82382296.0,60.62256123,58.38755935,4.11158905,6.65116194,15.33603141,18.9840778,-0.07296093,0.058129902000000004,-0.23061425800000002,90.39903048,451.0286215,12.07014954,96023.60509,1.140919273,-1.176812623,0.107626358,0.40203936799999995,0.247892946,0.483659412,0.31242500300000003,0.71770036,0.34062635700000005,-1.15731279,0.739973195,0.376556605,-0.05643332400000001,-0.554486496,0.610070722,398700735.7,327343085.0,451115.3835,18.62810753,-6.621578297,-17.41393188,-3.375695139,4.348749797,0,0,0.0,756000,39.871413700000005,32.7364371,-111.394208,-112.82999199999999,-48.52848713,-8.643532825,-14.65392303,0.05357648,1.10633447,-0.313649958,-0.5630683479999999,48.58778571,0.05559777,0.326111704,0.204105087,0.6089671999999999,33696672,0,1,0,0,0
33734276,-0.024817214,0.115784236,0.030588112,0.61165047,0.0,1517.0,1500.0,1609.0,1517.0,1482.0,1556.0,18.65533544,19.06736899,18.67685521,18.66220118,19.0759157,18.41249344,18.82066969,213.65791940000003,213.65791940000003,12.05888989,-0.001838056,-0.00623513,0.0008936539999999999,-0.185063313,0.192548964,-0.095207729,2.0,-0.208241648,0.791758352,11,0,0,1,0,0.0,0,0,0,0,0,0.712533642,0.338723272,-1.178896193,-0.8231281709999999,23.20845625,235.10805240000002,53.05593945,-0.022596569,0.010355555,0.0013161960000000002,0.0,3.242485938,0.23416477100000002,-16.64016868,82382296.0,960.2052353,12.06861176,0.498570798,0.400267837,0.292659234,3.5707854180000003,0.14308591199999998,-16.27651314,0.23647069699999998,0.471619412,0.318017559,82382296.0,60.8258481,58.660458,4.108156292,6.70004978,15.336229999999999,18.94689691,-0.072213341,0.011762033,-0.23091534100000002,90.74156653,451.3059413,12.0691659,96020.40996,1.140881362,-1.148746797,-0.096569219,-0.619715124,0.20576520199999998,0.49109318700000004,0.309524069,0.710974202,0.34107727,-1.144722652,0.74464063,0.37450407399999996,-0.052029781,-0.550042094,0.6104295,398700715.2,327343005.6,451258.9262,18.62435459,-6.28758346,-17.52088546,-3.525805161,4.36761311,0,0,0.0,756000,39.871413700000005,32.7364371,-111.753905,-113.43312490000001,-48.52904355,-8.600845345,-14.67123995,0.029524835,1.098942017,-0.282091529,-0.555168619,48.58834155,0.032944491,0.323198645,0.214094924,0.6090869999999999,33734276,0,1,0,0,0
33769604,-0.027163028,0.114811185,0.032688061000000004,0.610524771,0.0,1518.0,1500.0,1608.0,1519.0,1480.0,1556.0,18.61695774,19.02832066,18.67044641,18.65702656,19.07083781,18.40550859,18.81373829,213.51170449999998,213.51170449999998,12.05744467,-0.001837087,-0.006233001,0.000893415,-0.185055553,0.19253073899999998,-0.095145599,2.0,-0.205641128,0.794358872,11,0,0,1,0,0.0,0,0,0,0,0,0.7082552,0.33942726799999995,-1.165207686,-0.8205247609999999,22.557939899999997,234.7345437,53.04019218,-0.022715289,0.010083691,0.001074064,0.0,3.268250511,0.240318592,-16.71120604,82382296.0,960.1853924000001,12.06761962,0.453093564,0.411888617,0.30599671,3.469683743,0.182824811,-16.26159118,0.196668188,0.4766312,0.31123801,82382296.0,61.02913497,58.93335666,4.104723534,6.748937618999999,15.3364286,18.90971602,-0.07146575200000001,-0.034605836,-0.231216423,91.08410257,451.3775154,12.0681157,96019.55831000001,1.140871308,-0.564417225,0.365380896,0.130056839,0.171409153,0.491420035,0.304487981,0.7036751929999999,0.34148028,-1.132597991,0.749259896,0.37217020100000003,-0.047603395,-0.545735879,0.610932394,398700694.8,327342926.2,451402.4689,18.62060165,-5.953588624,-17.62783904,-3.6759151830000003,4.386476424,0,0,0.0,756000,39.871413700000005,32.7364371,-112.10886770000002,-114.0366878,-48.53108255,-8.558416144,-14.68690945,0.0066090440000000006,1.073197217,-0.280200958,-0.5389441420000001,48.59038055,-0.010814225,0.320416589,0.226400181,0.6093451999999999,33769604,0,1,0,0,0
33808070,-0.034938238999999996,0.113286999,0.034515684,0.6095815,0.0,1519.0,1500.0,1608.0,1522.278456,1476.721544,1555.0,18.69181477,19.10494477,18.6640376,18.65185194,19.06575992,18.39852374,18.80680688,213.36548969999998,213.36548969999998,12.05599945,-0.0018361179999999999,-0.006230871,0.000893177,-0.18504779300000002,0.192512514,-0.095083469,2.0,-0.203040608,0.796959392,11,0,0,1,0,0.0,0,0,0,0,0,0.7039767579999999,0.34013126299999996,-1.15151918,-0.817921351,21.90742355,234.36103500000002,53.0244449,-0.022843952,0.009771874,0.000871492,0.0,3.244729615,0.230976982,-16.76113591,58387776.01,960.166633,12.06656515,0.416892169,0.42612633200000005,0.314643544,3.394203239,0.144630589,-16.35537468,0.16258387900000001,0.47682635700000003,0.309638801,58387776.01,61.22375813,59.19811343,4.101237164,6.796594506,15.33661426,18.87548242,-0.07077736700000001,-0.078090159,-0.231505563,91.40225946,451.51936960000006,12.06704451,96017.93407,1.1408518890000001,-0.735222397,0.241134789,0.174742592,0.139626885,0.49249185100000004,0.310144409,0.697134294,0.34182373200000005,-1.119027878,0.7541058690000001,0.37009575,-0.043169339,-0.540818238,0.611245525,398700674.3,327342846.9,451546.0116,18.61684871,-5.619593787,-17.73479262,-3.826025205,4.405339737,0,0,0.0,756000,39.871413700000005,32.7364371,-112.46383030000001,-114.6402506,-48.53312156,-8.515986943,-14.70257895,-0.016306747,1.047452418,-0.278310388,-0.522719666,48.59241956,-0.034872877000000004,0.317759602,0.23610463,0.6096248000000001,33808070,0,1,0,0,0
33846537,-0.039781647,0.112369125,0.036423364,0.60899967,0.0,1520.0,1500.0,1609.0,1524.0,1475.0,1554.0,18.69974358,19.1131192,18.6576288,18.64667732,19.06068203,18.3915389,18.79987547,213.21927480000002,213.21927480000002,12.05455423,-0.001835149,-0.006228742,0.0008929389999999999,-0.185040034,0.19249428899999999,-0.09502133900000001,2.0,-0.20044008800000002,0.799559912,11,0,0,1,0,0.0,0,0,0,0,0,0.699698316,0.340835259,-1.137830673,-0.815317941,21.256907199999997,233.98752620000002,53.00869762,-0.022947633,0.009511132,0.000746183,0.0,3.20577316,0.21678240699999998,-16.8044552,26878488.78,960.1482129000001,12.06549115,0.377168415,0.432833921,0.318308945,3.3000122910000003,0.192032643,-16.34861261,0.130290434,0.47551301,0.309662005,26878488.78,61.40446176,59.44978905,4.097664658,6.842273683999999,15.33677916,18.84598407,-0.070184101,-0.116941639,-0.231775514,91.68124761,451.686629,12.0659399,96016.0068,1.140829058,-1.080271695,0.164632518,-0.017172528,0.10858579300000001,0.49344517600000004,0.311446422,0.685896187,0.342127285,-1.111622443,0.7581259140000001,0.366067396,-0.038649353,-0.5382803820000001,0.611575991,398700653.9,327342767.5,451689.5543,18.61309577,-5.285598951,-17.84174619,-3.976135227,4.42420305,0,0,0.0,756000,39.871413700000005,32.7364371,-112.7972389,-115.21138359999999,-48.5366635,-8.477808865,-14.71569359,-0.037735054,1.038889061,-0.26060906899999997,-0.5163803770000001,48.59596207,-0.067432387,0.314034197,0.244821779,0.61013734,33846537,0,1,0,0,0
33881003,-0.045922508,0.11131415199999999,0.03865214,0.6089671999999999,0.0,1521.0,1500.0,1609.0,1527.328466,1471.671534,1553.0,18.65092272,19.06359098,18.65121999,18.6415027,19.05560414,18.38455405,18.79294406,213.07306,213.07306,12.05310901,-0.00183418,-0.006226611999999999,0.0008927,-0.185032274,0.19247606399999997,-0.094959209,2.0,-0.19783956800000002,0.802160432,11,0,0,1,0,0.0,0,0,0,0,0,0.695419874,0.341539255,-1.124142167,-0.8127145309999999,20.60639085,233.6140175,52.99295034,-0.023058746,0.009215255,0.000584283,0.0,3.173662965,0.208590253,-16.82232423,4630822.584,960.1295911000001,12.06440344,0.339488195,0.447133026,0.312882848,3.262102607,0.36518383299999996,-16.44225336,0.098147716,0.473897067,0.31020217699999997,4630822.584,61.58516538,59.70146467,4.094092152,6.887952862000001,15.33694405,18.81648573,-0.069590836,-0.155793119,-0.232045466,91.96023575,451.9535368,12.06479876,96012.96305,1.140792812,-0.21155915100000003,0.20859958399999998,0.24599695,0.076191421,0.49575704299999995,0.301265978,0.677931408,0.342405003,-1.099316215,0.7628319590000001,0.36332191,-0.034158108,-0.533771309,0.612218219,398700634.6,327342688.0,451837.8212,18.60573418,-4.942746356000001,-17.93984197,-4.126573315,4.4434156510000005,0,0,0.0,756000,39.871413700000005,32.7364371,-113.1226773,-115.7705247,-48.54076119,-8.441202755,-14.72786349,-0.058613324,1.036679009,-0.237061297,-0.513696403,48.60006055,-0.102748069,0.310609512,0.25572286699999996,0.6106576,33881003,0,1,0,0,0
33919469,-0.048889800000000004,0.10941558900000001,0.040680256,0.6091723000000001,0.0,1522.0,1500.0,1609.0,1529.0,1470.0,1552.0,18.75943822,19.17451044,18.64481119,18.63632808,19.05052624,18.377569199999996,18.78601265,212.92684509999998,212.92684509999998,12.05166379,-0.001833211,-0.006224482,0.000892462,-0.185024515,0.192457839,-0.09489707900000001,2.0,-0.195239048,0.8047609520000001,11,0,0,1,0,0.0,0,0,0,0,0,0.6886607920000001,0.341996962,-1.111997135,-0.810317445,20.01019684,233.18568990000003,52.95314807,-0.023177635,0.008880684,0.000408031,0.0,3.181290311,0.23523776899999999,-16.69247307,36140109.82,960.1097979,12.06323613,0.299984405,0.45228316799999996,0.321516612,3.2890683710000004,0.309794336,-16.611233900000002,0.06687986,0.470524779,0.313742965,36140109.82,61.765868999999995,59.95314028,4.090519646000001,6.93363204,15.33710895,18.78698738,-0.06899757,-0.19464459899999997,-0.232315418,92.2392239,452.02328700000004,12.06362153,96012.16067000001,1.140783324,-0.673635394,0.6332954510000001,0.21130457100000002,0.04783898,0.489472726,0.304064806,0.669759206,0.342670496,-1.087054279,0.7675292340000001,0.36044940000000003,-0.02965769,-0.5292369229999999,0.613305573,398700621.1,327342608.1,452008.3837,18.58134149,-4.558089462,-17.99613323,-4.278559712,4.464276723,0,0,0.0,756000,39.871413700000005,32.7364371,-113.45214479999999,-116.3385096,-48.54530364,-8.404076399,-14.73977783,-0.079440173,1.030768477,-0.215020985,-0.512395073,48.60460364,-0.130073343,0.303712558,0.265138871,0.611114473,33919469,0,1,0,0,0
33961935,-0.055489317999999996,0.107802325,0.04324645,0.6094804420000001,0.0,1523.0,1500.0,1610.0,1531.0,1468.0,1552.0,18.75086418,19.16594881,18.63840239,18.63115346,19.04544835,18.37058436,18.77908124,212.78063019999996,212.78063019999996,12.05021857,-0.0018322420000000002,-0.006222353000000001,0.000892224,-0.185016755,0.19243961399999998,-0.09483495,2.0,-0.192638528,0.8073614720000001,11,0,0,1,0,0.0,0,0,0,0,0,0.678496608,0.342116596,-1.101970785,-0.8082035740000001,19.48856954,232.6821139,52.88032621,-0.023274262999999996,0.008604908,0.000272216,0.0,3.1889176569999997,0.261885285,-16.56262192,67649397.05,960.0900048000001,12.06206881,0.269603086,0.46399194899999996,0.314752931,3.201994638,0.26416785,-16.61809634,0.035612003999999996,0.467152491,0.317283753,67649397.05,61.94657263,60.2048159,4.08694714,6.979311217999999,15.33727384,18.75748904,-0.068404305,-0.233496079,-0.232585369,92.51821205,452.3138035,12.06240415,96008.81606,1.1407435559999999,-0.61087519,-0.278194155,0.071693983,0.017533176,0.48814653700000005,0.3075341,0.661070181,0.342902475,-1.075343965,0.77213835,0.357314859,-0.025170674,-0.524870286,0.6143875670000001,398700607.6,327342528.2,452178.9462,18.5569488,-4.173432568,-18.05242448,-4.430546109,4.485137794,0,0,0.0,756000,39.871413700000005,32.7364371,-113.7989455,-116.9445396,-48.55175945,-8.364712003,-14.75059279,-0.100045814,1.008938897,-0.19946559600000002,-0.517041718,48.61105945,-0.154533499,0.290876382,0.265240113,0.6113633,33961935,0,1,0,0,0
33996401,-0.058110893,0.105835538,0.044502549,0.6099638000000001,0.0,1524.0,1500.0,1610.0,1533.0,1466.0,1551.0,18.66231526,19.07563035,18.63199358,18.62597884,19.04037046,18.36359951,18.77214984,212.63441540000002,212.63441540000002,12.04877335,-0.0018312729999999998,-0.006220223,0.000891985,-0.185008995,0.192421389,-0.09477282,2.0,-0.190038008,0.8099619920000001,11,0,0,1,0,0.0,0,0,0,0,0,0.668332424,0.34223623,-1.091944435,-0.8060897020000001,18.96694223,232.17853799999997,52.80750436,-0.023382476,0.008276378000000001,9.84e-05,0.0,3.2070472239999996,0.270976121,-16.45825437,82382296.0,960.0654057,12.06087054,0.21947604,0.47703071799999996,0.31304371,3.159928795,0.296291078,-16.68082849,0.00980938,0.462611803,0.316619626,82382296.0,62.12727636,60.45706513,4.083349366,7.025176766,15.33744181,18.72752914,-0.067801747,-0.272140593,-0.23285565800000002,92.79536313,452.45982869999995,12.06115601,96007.13907,1.140723586,-0.35061022700000005,-0.476801195,0.19827256,-0.007980682,0.474641431,0.302588499,0.653803116,0.343089552,-1.061812103,0.77693788,0.35469583299999996,-0.020786929,-0.519731108,0.615358517,398700594.1,327342448.2,452349.5087,18.53255611,-3.7887756739999996,-18.10871574,-4.582532507,4.505998865,0,0,0.0,756000,39.871413700000005,32.7364371,-114.1457462,-117.5505696,-48.55821525,-8.325347607000001,-14.76140775,-0.12065145599999999,0.987109316,-0.183910207,-0.521688363,48.61751525,-0.178797156,0.277845423,0.26304779699999997,0.61182344,33996401,0,1,0,0,0
34038867,-0.06327291,0.104669895,0.046886990999999996,0.61036885,0.0,1524.428486,1500.0,1611.0,1535.0,1464.0,1550.0,18.67124897,19.08494109,18.62558478,18.62080422,19.03529257,18.35661466,18.76521843,212.48820049999998,212.48820049999998,12.04732813,-0.001830304,-0.006218094,0.0008917469999999999,-0.185001236,0.192403164,-0.09471069,2.0,-0.18743748699999999,0.8125625129999999,11,0,0,1,0,0.0,0,0,0,0,0,0.65816824,0.342355864,-1.081918085,-0.8039758309999999,18.44531493,231.67496200000002,52.7346825,-0.023473385,0.007982381,-5.9699999999999994e-05,0.0,3.2343997630000003,0.264648813,-16.37626633,82382296.0,960.0365860999999,12.05964508,0.18437416199999998,0.47843294399999997,0.313256559,3.2228528610000002,0.314788941,-16.71007256,-0.011193718,0.457045033,0.312262775,82382296.0,62.30798149,60.71679694,4.079421976,7.073473464,15.33764981,18.69154846,-0.067077971,-0.308085283,-0.23313034800000002,93.04855011,452.54823250000004,12.05987601,96006.10763,1.140711368,-0.41082379700000005,-1.032389671,0.136823729,-0.04375322,0.46601670100000003,0.307651706,0.6415827829999999,0.343247884,-1.054482338,0.780968565,0.350039327,-0.016260893000000002,-0.517006046,0.616266445,398700580.6,327342368.3,452520.0712,18.50816342,-3.40411878,-18.165007,-4.734518904,4.526859936,0,0,0.0,756000,39.871413700000005,32.7364371,-114.4913155,-118.1575659,-48.56595246,-8.2889173,-14.77095989,-0.140009857,0.952620137,-0.14005616699999998,-0.479473207,48.62525195,-0.198940863,0.26831632899999996,0.26504752800000003,0.61249745,34038867,0,1,0,0,0
34078666,-0.067730533,0.10280151900000001,0.049463457,0.610771511,0.0,1524.0,1500.0,1611.0,1536.453491,1462.546509,1547.0,18.71303034,19.12756991,18.61917597,18.61562959,19.03021468,18.34962982,18.75828702,212.34198560000002,212.34198560000002,12.04588291,-0.001829336,-0.006215964,0.000891509,-0.18499347600000002,0.19238493899999998,-0.09464856,2.0,-0.184836967,0.8151630329999999,11,0,0,1,0,0.0,0,0,0,0,0,0.648004056,0.34247549899999996,-1.071891735,-0.80186196,17.92368763,231.1713861,52.66186065,-0.023568303,0.0076690840000000005,-0.00023563299999999999,0.0,3.2617523019999997,0.258321504,-16.29427828,82382296.0,960.0077664999999,12.05841963,0.157892632,0.479035655,0.312785928,3.27047507,0.341645962,-16.64195353,-0.032196816,0.45147826399999996,0.307905924,82382296.0,62.48868662,60.97652875,4.0754945860000005,7.121770162000001,15.33785782,18.65556777,-0.066354195,-0.344029973,-0.23340503699999998,93.30173708,452.86039689999996,12.058589,96002.55187000001,1.140669187,-0.8948185820000001,0.09856174,0.146074166,-0.078912516,0.450717644,0.308100909,0.633301643,0.343367939,-1.042247257,0.7855405040000001,0.346906094,-0.011949315,-0.512282209,0.617018347,398700567.1,327342288.4,452690.6337,18.48377073,-3.019461887,-18.22129826,-4.886505301000001,4.547721008,0,0,0.0,756000,39.871413700000005,32.7364371,-114.8362133,-118.7650892,-48.57438825,-8.254086566,-14.77982359,-0.158688303,0.9112293379999999,-0.08077458400000001,-0.411710455,48.63368695,-0.22195845399999997,0.255071273,0.263164705,0.61387265,34078666,0,1,0,0,0
34115799,-0.071315753,0.09977157,0.050142315,0.6111677,0.0,1524.4784960000002,1500.0,1611.0,1538.0,1461.0,1545.0,18.71963386,19.13489353,18.61276717,18.61045497,19.02513679,18.34264497,18.75135561,212.19577080000002,212.19577080000002,12.04443769,-0.001828367,-0.006213835,0.000891271,-0.184985717,0.192366714,-0.09458643,2.0,-0.182236447,0.8177635529999999,11,0,0,1,0,0.0,0,0,0,0,0,0.637839872,0.342595133,-1.061865385,-0.799748088,17.40206032,230.66781009999997,52.58903879,-0.023662673999999998,0.007352064,-0.000426416,0.0,3.27975405,0.175118522,-16.10865536,82382296.0,959.9793155,12.05681923,0.12189822800000001,0.481325313,0.314328047,3.217368286,0.291469478,-16.78331918,-0.055317452999999996,0.44408846799999996,0.309379591,82382296.0,62.66939175,61.23626056,4.071567196,7.17006686,15.33806582,18.61958709,-0.06563042,-0.37997466399999996,-0.233679727,93.55492406,453.10679569999996,12.05726625,95999.69553,1.140635232,-0.5129414179999999,0.191058675,-0.148800092,-0.09117514199999999,0.44434061399999997,0.30840788199999997,0.621604507,0.34344467700000003,-1.034170937,0.789607955,0.342356156,-0.007537527,-0.509166701,0.617471613,398700559.6,327342205.1,452889.9086,18.45303261,-2.609423885,-18.24110422,-5.002006401,4.56996641,0,0,0.0,756000,39.871413700000005,32.7364371,-115.18053259999999,-119.37259240000002,-48.58302122,-8.219384027,-14.78832012,-0.177229953,0.8745325509999999,-0.028767581,-0.354965783,48.64231922,-0.239043686,0.24327554399999998,0.264393969,0.61514866,34115799,0,1,0,0,0
34158265,-0.07495385,0.09388207800000001,0.048978355,0.61157775,0.0,1524.496499,1500.0,1612.503501,1540.0,1459.0,1543.496499,18.67043967,19.08459724,18.60635837,18.60528035,19.0200589,18.33566012,18.7444242,212.0495559,212.0495559,12.04299247,-0.0018273979999999998,-0.006211705,0.0008910319999999999,-0.184977957,0.192348488,-0.0945243,2.0,-0.179635927,0.8203640729999999,11,0,0,1,0,0.0,0,0,0,0,0,0.627675688,0.34271476700000003,-1.051839035,-0.797634217,16.88043302,230.16423419999998,52.51621694,-0.023755152,0.007034947,-0.000625962,0.0,3.296919289,0.085038344,-15.91376141,82382296.0,959.9508975,12.05518529,0.087578992,0.48211512,0.305617275,3.2562974469999997,0.220646359,-16.65917481,-0.07862752099999999,0.43653558600000003,0.311374848,82382296.0,62.85009688,61.49599237,4.067639805,7.218363557999999,15.33827382,18.583606399999997,-0.064906644,-0.41591935399999996,-0.23395441600000003,93.80811104,453.1921539,12.05590282,95998.71139,1.140623491,-0.7109015740000001,-0.19440163100000002,0.147078051,-0.111844371,0.434767036,0.311161586,0.612813029,0.34349890299999997,-1.022660154,0.794014778,0.33891768299999997,-0.003326418,-0.504637879,0.617841027,398700553.2,327342121.2,453094.4335,18.42113423,-2.194744949,-18.25423885,-5.1108361669999995,4.592464938,0,0,0.0,756000,39.871413700000005,32.7364371,-115.51995910000001,-119.97992679999999,-48.59332171,-8.1857656,-14.79371156,-0.194614763,0.8775317640000001,-0.03827974,-0.391398058,48.65261971,-0.263003552,0.22965095800000002,0.260088537,0.6162884,34158265,0,1,0,0,0
34200731,-0.078007536,0.091086504,0.050603124000000006,0.611946674,0.0,1524.0,1500.0,1613.0,1540.471494,1458.528506,1541.471494,18.68874992,19.10351813,18.59994956,18.60010573,19.014981,18.32867527,18.73749279,211.90334109999998,211.90334109999998,12.04154725,-0.0018264289999999999,-0.006209576,0.000890794,-0.184970197,0.192330263,-0.094462171,2.0,-0.177035407,0.822964593,11,0,0,1,0,0.0,0,0,0,0,0,0.617511504,0.342834401,-1.041812685,-0.795520345,16.35880571,229.6606582,52.44339509,-0.023844688,0.0067205419999999995,-0.000827134,0.0,3.317435151,0.016521252,-15.72478312,82382296.0,959.9270206,12.05363268,0.061419724,0.483023396,0.302666537,3.260494735,0.195557631,-16.61372049,-0.10155872,0.42765850299999997,0.312648508,82382296.0,63.03080201,61.75572419,4.063712415,7.266660256000001,15.33848182,18.54762572,-0.064182868,-0.45186404399999996,-0.23422910600000002,94.06129801,453.539275,12.05452588,95994.7225,1.140576055,-1.581035798,-0.610999554,0.21172091199999998,-0.129821969,0.422657648,0.310242756,0.60022765,0.343528729,-1.015546128,0.7979170529999999,0.333918885,0.0010494389999999999,-0.501816165,0.61825029,398700546.8,327342037.3,453298.9584,18.38923585,-1.7800660130000001,-18.26737347,-5.219665933,4.614963465,0,0,0.0,756000,39.871413700000005,32.7364371,-115.8593856,-120.5872612,-48.60362219,-8.152147174,-14.79910301,-0.211999572,0.880530976,-0.047791898,-0.42783033299999995,48.66292019,-0.27190004100000004,0.221756292,0.261439715,0.6168485,34200731,0,1,0,0,0
