timestamp,control[0],control[1],control[2],control[3],control[4],output[2],output[3],output[4],output[5],output[6],output[7],indicated_airspeed_m_s,true_airspeed_m_s,indicated_airspeed_m_s.1,equivalent_airspeed_m_s,true_airspeed_m_s.1,equivalent_ground_minus_wind_m_s,true_ground_minus_wind_m_s,differential_pressure_raw_pa,differential_pressure_filtered_pa,temperature,gyro_bias[0],gyro_bias[1],gyro_bias[2],accel_bias[0],accel_bias[1],accel_bias[2],instance_count,seq_reached,seq_current,seq_total,item_changed_index,item_do_jump_remaining,valid,warning,finished,failure,stay_in_failsafe,flight_termination,item_do_jump_changed,execution_mode,nav_roll,nav_pitch,nav_bearing,target_bearing,xtrack_error,wp_dist,acceptance_radius,rollspeed_integ,pitchspeed_integ,yawspeed_integ,additional_integ1,x,y,z,temperature.1,pressure,temperature.2,gyro_rad[0],gyro_rad[1],gyro_rad[2],accelerometer_m_s2[0],accelerometer_m_s2[1],accelerometer_m_s2[2],device_id,x.1,y.1,z.1,temperature.3,altitude_sp,altitude_filtered,height_rate_setpoint,height_rate,airspeed_sp,airspeed_filtered,airspeed_derivative_sp,airspeed_derivative,throttle_integ,pitch_integ,baro_alt_meter,baro_temp_celcius,baro_pressure_pa,rho,xyz[0],xyz[1],xyz[2],xyz[0].1,xyz[1].1,xyz[2].1,roll_body,pitch_body,yaw_body,q_d[0],q_d[1],q_d[2],q_d[3],thrust_body[0],lat,lon,alt,vel_m_s,vel_n_m_s,vel_e_m_s,vel_d_m_s,cog_rad,ground_contact,maybe_landed,landed,ref_lat,ref_lon,x.2,y.2,z.2,vx,vy,vz,ax,ay,az,yaw,dist_bottom,roll,pitch,yaw.1,thrust_body[0].1,timestamp.1,isTakeoff,isClimbing,isDescending,isCruise,isLand
41503486,-0.013417862,0.082457328,-0.04388165,0.2634616,0.0,1478.0,1500.0,1263.0,1507.0,1492.0,1540.0,14.69190359,15.01577736,15.57972534,15.4916425,15.83307028,15.14516986,15.47896177,149.27669550000002,149.27669550000002,12.07626837,-0.001631601,-0.005911853000000001,0.000791412,-0.189853186,0.19248680199999998,-0.071471564,2.0,-0.07561512299999999,0.924384877,11,0,0,1.0,0.0,0.0,0,0,0,0,0,0.001299025,0.24467772100000001,-1.5535240030000002,-1.5862832980000001,-1.7844467169999998,318.1009769,47.25361988,-0.02132973,0.035942531,-0.042576755,0.0,0.141330893,0.175866553,-9.869804824,-340.26352,960.3515419,12.07654349,-0.001066507,-0.007941513,-0.002043366,0.094285204,0.19704315100000003,-9.820708961000001,2294028,-0.001183323,-0.0038722879999999998,-0.009458721,-340.26352,50.50630799,50.36866711,2.403067886,0.052878256,15.33053579,15.15368573,0.0035369990000000003,1.061050257,-0.26942363199999997,90.87660001,449.93428660000006,12.076538000000001,96036.17666,1.141068601,0.338990044,-0.074232185,-0.018722077,0.011311729,0.012314583999999998,-0.00018131200000000002,-0.003761312,0.293335778,-1.558858544,0.7038695159999999,0.101396214,0.10526082099999999,-0.6951301670000001,0.60214178,398713998.9,327335172.5,450590.6555,15.07098415,0.159507901,-15.07098415,-0.0034446890000000003,4.723000947,0,0,0.0,39.8714138,32.7364372,-1.4846287830000002,-249.83148140000003,-50.35346828,0.224925414,-15.06356192,0.06919405299999999,0.057060367,0.141795434,0.06262447,-1.57372395,50.52294828,-0.062009217,0.36631943299999997,-0.007968062,0.59507,41503486,0,1,0,0,0
41543706,-0.015609198999999999,0.090923186,-0.043670785,0.4003877,0.0,1478.0,1500.0,1263.0,1506.0,1493.0,1541.0,14.66574445,14.98882615,15.66652346,15.5784139,15.92175787,15.22880634,15.56444522,150.95887119999998,150.95887119999998,12.07622825,-0.0016300029999999999,-0.005911006,0.00079092,-0.189832776,0.19247176100000002,-0.071249973,2.0,-0.073014603,0.926985397,11,0,0,1.0,0.0,0.0,0,0,0,0,0,-0.000815568,0.262171408,-1.5550933169999999,-1.5864289319999998,-1.734025819,317.4087978,47.80815283,-0.021422543,0.036080929,-0.042558915,0.0,0.13892570099999998,0.165876215,-9.867710489,-340.26352,960.3468749,12.076538000000001,0.003165194,-0.0064891,0.004205708,0.075421074,0.216270532,-9.848919356,2294028,-0.001492853,-9.63e-05,-0.006562093000000001,-340.26352,50.63928769,50.37372324,2.66375306,0.10542997900000001,15.33054252,15.24828256,0.001645195,1.3932003469999998,-0.269389931,90.87385687,450.12063269999993,12.076538000000001,96034.00434,1.141042833,0.034007385,-0.549595377,0.05825302,0.002829027,0.007892310999999999,-0.002064317,-0.0052070120000000004,0.31168820399999997,-1.5594865969999998,0.7027566540000001,0.107301138,0.112179349,-0.694284495,0.6019920089999999,398713999.5,327335096.5,450591.7942,15.07,0.161588318,-15.07317648,-0.004764953,4.72314618,0,0,0.0,39.8714138,32.7364372,-1.47762338,-250.46914469999996,-50.35460729,0.224930661,-15.05943077,0.069220459,0.048370635,0.11914258300000001,0.032168535,-1.5737154759999998,50.52408729,-0.068121287,0.343530958,-0.006914803000000001,0.58989434,41543706,0,1,0,0,0
41592220,-0.017920036,0.11136426599999999,-0.043669429,0.45398968,0.0,1478.0,1500.0,1263.0,1506.0,1493.0,1541.0,14.67852634,15.00202181,15.75332157,15.665185300000001,16.01044545,15.31244282,15.64992868,152.6410469,152.6410469,12.07618813,-0.001628404,-0.005910158,0.0007904289999999999,-0.18981236699999998,0.19245672100000003,-0.071028382,2.0,-0.070414083,0.929585917,11,0,0,1.0,0.0,0.0,0,0,0,0,0,-0.00293016,0.279665094,-1.556662631,-1.586574567,-1.6836049219999998,316.7166186,48.36268578,-0.021513756000000002,0.036200663,-0.042540573,0.0,0.11510283,0.152400084,-9.864885236000001,-340.26352,960.3415060000001,12.076538000000001,0.000595688,-0.004671307,0.0069111730000000005,0.153736925,0.148665089,-9.871103545,2294028,-0.002118821,0.003431086,-0.002120414,-340.26352,50.77226739,50.37877937,2.9244382339999997,0.157981701,15.33054924,15.34287939,-0.000246608,1.725350436,-0.26935623,90.87111372,450.1734483,12.076538000000001,96033.42442000001,1.141035909,0.38042841200000005,-0.287539991,0.41624699200000004,0.004929053,0.0054651809999999995,-0.00623298,-0.006874208000000001,0.320375825,-1.560140285,0.7021445590000001,0.109771013,0.115771191,-0.693930642,0.598547328,398714000.1,327335020.0,450592.8344,15.07,0.163668734,-15.077337099999998,-0.011006201,4.723291414,0,0,0.0,39.8714138,32.7364372,-1.470522377,-251.08465719999998,-50.35541008,0.225516771,-15.05532266,0.069380386,0.033720855,0.137281577,-0.016276831999999998,-1.573695162,50.52489008,-0.07306828900000001,0.320422437,-0.00589999,0.5862632,41592220,0,1,0,0,0
41634587,-0.025196446,0.126162996,-0.042841442,0.490140401,0.0,1478.0,1500.0,1400.0,1507.0,1492.0,1545.0,14.70886843,15.03316242,15.84011969,15.75195671,16.09913304,15.39607931,15.73541213,154.3232226,154.3232226,12.07614801,-0.001626805,-0.00590931,0.000789937,-0.18979195699999998,0.19244168,-0.070806791,2.0,-0.067813563,0.932186437,11,0,0,1.0,0.0,0.0,0,0,0,0,0,-0.0050447520000000004,0.29715878100000004,-1.558231945,-1.5867202009999999,-1.633184024,316.0244395,48.91721872,-0.021605408,0.036292337,-0.042533807,0.0,0.437147655,0.14544674400000002,-9.866480933,-340.26352,960.3394171,12.07653515,0.00431654,0.0036425340000000002,-0.000765465,0.123454417,0.139302973,-9.856286428999999,2294028,0.0016880870000000002,0.007590637,0.001365116,-340.26352,50.92333726,50.39164276,3.145840329,0.252228871,15.33055933,15.47717181,-0.002932256,2.033262299,-0.269335172,90.89460405,450.114651,12.07653248,96034.12157999999,1.141044201,0.6585441479999999,-0.365547369,0.099747621,0.008579871,0.006616139,-0.001838811,-0.008603384,0.324653528,-1.560724931,0.701798795,0.11068414800000001,0.11783844800000001,-0.693787612,0.594257031,398714000.7,327334943.4,450593.8746,15.07,0.16574915,-15.08149772,-0.017247448999999998,4.723436648,0,0,0.0,39.8714138,32.7364372,-1.463484086,-251.71204509999998,-50.35619976,0.225714252,-15.06644287,0.068756997,0.017541718,-0.156714481,-0.07002118,-1.573690042,50.52567966,-0.078735264,0.30004248699999997,-0.004550084,0.5802998,41634587,0,1,0,0,0
41672954,-0.028289043,0.137405738,-0.042760437000000005,0.5158379,0.0,1478.0,1500.0,1453.0,1508.9984,1490.0016,1555.0,14.78050825,15.10610438,15.92691781,15.83872811,16.18782062,15.47971579,15.82089559,156.0053983,156.0053983,12.07610789,-0.001625207,-0.005908462,0.000789445,-0.189771548,0.19242663899999998,-0.0705852,2.0,-0.065213043,0.934786957,11,0,0,1.0,0.0,0.0,0,0,0,0,0,-0.007159345,0.314652468,-1.559801259,-1.586865835,-1.582763126,315.3322604,49.47175167,-0.02169231,0.036336191000000004,-0.04254714,0.0,1.956986923,0.161082858,-9.883387074,-340.26352,960.3486876000001,12.07652243,0.016000851,-0.002868187,-0.001382624,2.4004983909999997,0.16047409,-9.836228209,2294028,0.020846745,0.013939638999999998,0.001539351,-340.26352,51.11839109,50.42348848,3.271730624,0.44785320700000003,15.330577599999998,15.70797899,-0.007548033000000001,2.282241999,-0.269344855,90.98187777,450.06362520000005,12.076508,96034.68236,1.14105088,0.213804527,0.171364165,-0.39657829200000005,0.006351836,0.006674386,-0.0047796309999999995,-0.010523622,0.328201361,-1.56121013,0.701538102,0.1112718,0.11972037,-0.693635129,0.589132365,398714001.3,327334866.9,450594.9148,15.07,0.167829566,-15.08565835,-0.023488698,4.7235818819999995,0,0,0.0,39.8714138,32.7364372,-1.4566629780000002,-252.38055970000002,-50.35694403,0.224565848,-15.13030113,0.06542086400000001,-0.0039338229999999995,-1.5316835080000002,-0.14211673800000002,-1.57373754,50.52642351,-0.08482066699999999,0.275477722,-0.002636641,0.57358325,41672954,0,1,0,0,0
41711321,-0.039512017999999996,0.150263634,-0.041782564,0.5459906,0.0,1478.0,1500.0,1497.0,1512.0,1487.0,1564.0,14.99254252,15.32295539,16.01371593,15.92549951,16.27650821,15.56335227,15.90637904,157.68757390000002,157.68757390000002,12.07606777,-0.001623608,-0.005907615,0.000788953,-0.189751138,0.192411599,-0.07036360900000001,2.0,-0.062612523,0.937387477,11,0,0,1.0,0.0,0.0,0,0,0,0,0,-0.009289825,0.32475478,-1.5608113959999999,-1.586961714,-1.548594836,314.6089372,49.81801016,-0.021776962999999996,0.036343765,-0.042588829,0.0,3.4768261910000002,0.176718971,-9.900293215,-340.26352,960.3579581,12.076509699999999,0.039365498,0.018639801,-0.006284148000000001,3.5369248860000004,0.1869694,-10.0175996,2294028,0.040005402999999995,0.02028864,0.0017135870000000001,-340.26352,51.31344492,50.45533421,3.397620919,0.643477544,15.33059587,15.93878617,-0.012163811,2.5312217,-0.26935453800000003,91.06915148,450.01075419999995,12.076508,96035.2918,1.1410581370000001,-0.315687884,-0.046364145999999995,0.603406291,0.004464377,0.006815144,-0.00293701,-0.01258622,0.33114257399999997,-1.561759959,0.701296933,0.11160356099999999,0.12143457099999999,-0.6935278709999999,0.5836780979999999,398714002.0,327334790.3,450595.955,15.07,0.169909982,-15.08981897,-0.029729946,4.723727116,0,0,0.0,39.8714138,32.7364372,-1.4498418709999998,-253.04907430000003,-50.3576883,0.22341744300000002,-15.194159400000002,0.062084731,-0.025409364,-2.906652536,-0.21421229600000002,-1.573785037,50.52716735,-0.08969228,0.259689167,-0.000835987,0.56774175,41711321,0,1,0,0,0
41753688,-0.04279411599999999,0.157538904,-0.042229715999999994,0.5624584810000001,0.0,1478.0,1500.0,1532.0,1518.0,1481.0,1573.0,15.04501835,15.37652343,16.10051405,16.01227091,16.365195800000002,15.64698875,15.9918625,159.3697496,159.3697496,12.07602766,-0.001622009,-0.005906766999999999,0.000788462,-0.189730729,0.192396558,-0.070142018,2.0,-0.060012002,0.939987998,11,0,0,1.0,0.0,0.0,0,0,0,0,0,-0.011438361000000001,0.32645780399999996,-1.561186105,-1.587001052,-1.5328954190000001,313.8502229,49.92759314,-0.021861554,0.036338395,-0.042656042000000005,0.0,4.376322131,0.197624162,-10.184961900000001,-210.8583921,960.3528462000002,12.07649661,0.048806065999999995,0.043232926,0.0043334129999999995,4.436708288,0.154775479,-10.18008325,2294028,0.049793747,0.054955042999999995,0.000156518,-210.8583921,51.50849875,50.48717994,3.5235112139999996,0.83910188,15.33061415,16.16959335,-0.016779588999999998,2.7802014010000002,-0.269364221,91.1564252,450.17170880000003,12.076492800000002,96033.43301000001,1.141036012,-0.33840754700000003,-0.02730715,0.528907335,0.004321546,0.009953089,-0.000310523,-0.014632866999999999,0.333622639,-1.5622246780000002,0.7011102029999999,0.11177632300000001,0.12298579800000001,-0.6934153470000001,0.578203728,398714002.6,327334714.9,450596.7962,15.22326045,0.17,-15.23728866,-0.057865573,4.7236292230000005,0,0,0.0,39.8714138,32.7364372,-1.442905366,-253.68244080000002,-50.3593019,0.22397460100000002,-15.34481026,0.04393814,0.014893811000000002,-3.719873616,-0.450740893,-1.5738086619999998,50.52878127,-0.093363352,0.242054102,0.000546037,0.562854501,41753688,0,1,0,0,0
41796054,-0.044234617999999996,0.160959888,-0.040368283,0.5776403,0.0,1478.0,1500.0,1545.0,1519.0,1480.0,1573.872575,15.29593511,15.63306484,16.18731216,16.09904231,16.45388338,15.73062523,16.07734595,161.0519253,161.0519253,12.07598754,-0.001620411,-0.005905919,0.00078797,-0.189710319,0.192381518,-0.06992042700000001,2.0,-0.057411482,0.942588518,11,0,0,1.0,0.0,0.0,0,0,0,0,0,-0.013586896000000001,0.328160828,-1.5615608140000001,-1.587040391,-1.5171960009999998,313.0915086,50.03717611,-0.02194889,0.036327242999999995,-0.042752192,0.0,5.1798608239999995,0.219344395,-10.5110492,-61.43634894,960.3455095,12.07648347,0.058826668,0.098670021,-0.004302079,5.251040413999999,0.206464238,-10.62437687,2294028,0.058132652,0.09400169800000001,-0.001668356,-61.43634894,51.70355258,50.51902567,3.6494015089999996,1.034726216,15.33063242,16.40040053,-0.021395366000000002,3.029181102,-0.269373904,91.24369891,450.12000980000005,12.076477,96034.02088,1.141043099,-0.249033073,-0.013783215,0.47152178299999997,0.012487043,0.00821135,0.002075688,-0.016736578999999998,0.335671735,-1.5626273259999999,0.700972562,0.111776098,0.124408985,-0.693300603,0.572448133,398714003.2,327334639.6,450597.6283,15.38345228,0.17,-15.39123966,-0.08699139800000001,4.723520334,0,0,0.0,39.8714138,32.7364372,-1.435951011,-254.3103705,-50.36104998,0.22479558300000002,-15.50888656,0.023500608,0.06475317,-4.446201222,-0.7127046659999999,-1.573828594,50.53052977,-0.09819800000000001,0.22003023800000002,0.0030114079999999997,0.556505268,41796054,0,1,0,0,0
41838421,-0.047161746,0.170863273,-0.040807141,0.59017456,0.0,1478.0,1500.0,1568.0,1521.0,1478.0,1580.0,15.44455473,15.78490073,16.27411028,16.18581371,16.54257097,15.81426171,16.16282941,162.734101,162.734101,12.07594742,-0.001618812,-0.005905071,0.000787478,-0.18968991,0.19236647699999998,-0.069698836,2.0,-0.054810962000000005,0.945189038,11,0,0,1.0,0.0,0.0,0,0,0,0,0,-0.015735431,0.329863852,-1.561935523,-1.587079729,-1.5014965830000002,312.33279439999995,50.14675909,-0.022022472999999997,0.036310132,-0.042854635,0.0,5.729152629,0.20707117600000002,-10.97149284,-63.8327402,960.3408529,12.07645072,0.068671388,0.136445064,-0.006134605,5.66294647,0.20793521,-10.96279826,2294028,0.062872281,0.132959645,-0.002580605,-63.8327402,51.89602476,50.5731124,3.734082506,1.261472841,15.3306693,16.62460528,-0.025878722000000003,3.1552013430000003,-0.269430316,91.37981436,449.9417694,12.07644614,96036.09564,1.141067655,0.17987102300000002,0.037920438,-0.321446435,0.018394116999999998,0.017031858,-0.002231214,-0.018987413,0.33745429,-1.563079574,0.70084114,0.11163533099999999,0.125786766,-0.6932077209999999,0.567285191,398714003.8,327334564.3,450598.4605,15.54364411,0.17,-15.54519065,-0.116117223,4.723411445,0,0,0.0,39.8714138,32.7364372,-1.4289156280000002,-254.9766188,-50.365399100000005,0.22656184399999998,-15.70866522,-0.022720527,0.092721869,-4.979013925,-1.174210273,-1.573925805,50.534879100000005,-0.10029681800000001,0.202815728,0.004335707,0.5534588,41838421,0,1,0,0,0
41880788,-0.049741245999999996,0.17854295899999997,-0.04120382,0.59872663,0.0,1479.0,1500.0,1584.0,1522.0,1477.0,1582.7865570000001,15.679534599999998,16.02502967,16.3609084,16.27258511,16.63125855,15.89789819,16.24831286,164.4162767,164.4162767,12.0759073,-0.001617213,-0.0059042240000000005,0.000786987,-0.1896695,0.192351437,-0.06947724400000001,2.0,-0.052210442,0.947789558,11,0,0,1.0,0.0,0.0,0,0,0,0,0,-0.017883967,0.331566876,-1.562310232,-1.587119067,-1.485797165,311.57408010000006,50.25634207,-0.022097245,0.036292343,-0.042979421,0.0,6.032223911,0.16187765099999998,-11.56205131,-213.2547833,960.3387918999999,12.07639898,0.068951372,0.177693823,-0.003936640999999999,6.008228883999999,0.164126165,-11.58799054,2294028,0.064126259,0.171831686,-0.00260904,-213.2547833,52.08621192,50.64688462,3.782289206,1.515765765,15.33072265,16.84296621,-0.030244871,3.17239032,-0.269528088,91.55915957,450.2220112,12.076391699999999,96032.8528,1.141029169,0.453514068,-0.001650222,-0.7075510159999999,0.045279992000000005,0.03469305,-0.004248278,-0.02115752,0.33887401899999997,-1.563369007,0.7007820020000001,0.111386956,0.127018521,-0.6930828529999999,0.561667103,398714004.5,327334489.0,450599.2927,15.70383594,0.17,-15.69914165,-0.145243049,4.723302556,0,0,0.0,39.8714138,32.7364372,-1.421801775,-255.6799762,-50.37226715,0.229243545,-15.94301916,-0.09391129599999999,0.09949097800000001,-5.32442083,-1.828958342,-1.5740978559999999,50.54174715,-0.10413455699999999,0.186065642,0.006436536999999999,0.5489768,41880788,0,1,0,0,0
41919155,-0.050707737999999995,0.171969975,-0.038318121000000004,0.60048246,0.0,1479.0,1500.0,1594.0,1524.0,1475.0,1587.743549,15.91375833,16.26453028,16.44770652,16.35935651,16.71994614,15.98153467,16.33379632,166.09845239999999,166.09845239999999,12.07586718,-0.001615615,-0.005903376,0.000786495,-0.18964909100000002,0.19233639600000002,-0.069255653,2.0,-0.049609922,0.950390078,11,0,0,1.0,0.0,0.0,0,0,0,0,0,-0.020032502,0.3332699,-1.5626849409999999,-1.587158406,-1.4700977469999998,310.8153659,50.36592505,-0.022173433,0.036262446000000004,-0.043125155,0.0,6.283583162999999,0.124318728,-12.16965881,-340.26352,960.3364204,12.0763356,0.073664633,0.218068762,-0.008334471,6.2150272079999995,0.067722974,-12.2645387,2294028,0.066242368,0.21053938,-0.003685953,-340.26352,52.27639907,50.72065683,3.830495905,1.770058689,15.330776,17.06132714,-0.034611019,3.189579297,-0.269625861,91.73850478,450.12915419999996,12.07632052,96033.96231,1.141042353,0.858124138,-0.17704109399999998,0.350816708,0.051983782,0.058272383,0.001002618,-0.023441557999999998,0.340131862,-1.563769485,0.7006996879999999,0.111049804,0.128226756,-0.6929975859999999,0.556958709,398714005.1,327334412.7,450602.6525,15.87370177,0.171560312,-15.86339068,-0.19090818199999998,4.723280807,0,0,0.0,39.8714138,32.7364372,-1.414616205,-256.3784151,-50.38048017,0.232132802,-16.17544225,-0.173637316,0.10893581599999999,-5.592153057999999,-2.4782028730000003,-1.5742751680000002,50.54996017,-0.106730754,0.165594558,0.00853924,0.54545987,41919155,0,1,0,0,0
41957522,-0.051245425,0.179380946,-0.038328945,0.6021392,0.0,1480.0,1500.0,1598.59892,1524.0,1475.0,1585.19784,16.14782667,16.50369025,16.53450464,16.44612791,16.80863372,16.06517115,16.41927977,167.780628,167.780628,12.07582706,-0.001614016,-0.005902528000000001,0.0007860030000000001,-0.18962868100000002,0.192321355,-0.06903406200000001,2.0,-0.047009402,0.952990598,11,0,0,1.0,0.0,0.0,0,0,0,0,0,-0.022181037,0.33497292300000003,-1.56305965,-1.587197744,-1.45439833,310.0566516,50.47550802,-0.022237922,0.036208676,-0.043263064000000004,0.0,6.241907585,0.13002255199999999,-12.87387751,-340.26352,960.3322898,12.07620625,0.075077167,0.262687142,-0.011378418999999999,6.154295779,0.087699465,-13.01642005,2294028,0.07324389,0.24831577800000001,-0.010704244,-340.26352,52.46658623,50.79442905,3.878702604,2.024351612,15.33082935,17.27968807,-0.038977168,3.2067682730000002,-0.269723633,91.91784999,450.16083619999995,12.07620227,96033.55352,1.141037502,0.240765925,0.602913017,-0.086110979,0.064255736,0.107930303,-0.004133419,-0.025701327000000003,0.341171334,-1.564072841,0.70066171,0.110639346,0.129355532,-0.692891787,0.552439597,398714006.0,327334331.0,450620.3361,16.09838692,0.181962392,-16.0859952,-0.330296059,4.723752853,0,0,0.0,39.8714138,32.7364372,-1.407024239,-257.04898219999995,-50.39631465,0.236198215,-16.39692394,-0.301729756,0.13354312599999998,-5.419728781,-3.096260692,-1.574482291,50.56579465,-0.10769945800000001,0.149084166,0.009973796,0.5440265000000001,41957522,0,1,0,0,0
42003889,-0.051955494000000005,0.177692386,-0.035730919,0.6019302,0.0,1480.0,1500.0,1601.0,1526.0,1473.0,1587.657532,16.46724712,16.83017219,16.62130275,16.53289931,16.89732131,16.14880763,16.50476323,169.46280369999997,169.46280369999997,12.07578695,-0.001612417,-0.00590168,0.0007855119999999999,-0.189608272,0.192306315,-0.068812471,2.0,-0.044408882000000004,0.955591118,11,0,0,1.0,0.0,0.0,0,0,0,0,0,-0.024329572,0.33667594700000003,-1.56343436,-1.5872370830000002,-1.4386989119999998,309.2979373,50.585091,-0.022294302999999998,0.036141022,-0.043376699000000005,0.0,6.200232007,0.13572637699999998,-13.57809622,-340.26352,960.3281592000001,12.07607691,0.080528405,0.29151285600000004,-0.016262271000000002,6.162553666,0.130025117,-13.69837018,2294028,0.080245411,0.28609217600000003,-0.017722535,-340.26352,52.65677339,50.86820126,3.9269093039999996,2.278644536,15.330882699999998,17.498048999999998,-0.043343317,3.22395725,-0.26982140600000004,92.0971952,450.2192058,12.07604054,96032.93934,1.141030188,0.010516198000000001,1.0648834109999998,0.067574555,0.066946572,0.156689098,-0.007679598,-0.027989401,0.342094415,-1.5643807719999998,0.7006300679999999,0.11017903400000001,0.130453065,-0.692791525,0.5486275389999999,398714006.8,327334249.2,450638.0196,16.32307206,0.192364473,-16.30859972,-0.46968393700000005,4.7242249,0,0,0.0,39.8714138,32.7364372,-1.3994322719999999,-257.7195494,-50.41214913,0.24026362699999998,-16.61840563,-0.429822196,0.158150435,-5.2473045030000005,-3.7143185119999997,-1.574689415,50.58162913,-0.109221884,0.12977721,0.011972053,0.5418906,42003889,0,1,0,0,0
42042256,-0.052133599,0.17204442600000003,-0.035753164,0.59852931,0.0,1480.0,1500.0,1602.0,1526.0,1473.0,1590.0,16.6260719,16.99241305,16.70810087,16.61967071,16.98600889,16.23244411,16.59024668,171.1449794,171.1449794,12.07574683,-0.0016108189999999999,-0.005900833,0.00078502,-0.189587862,0.19229127399999998,-0.06859088,2.0,-0.041808362,0.958191638,11,0,0,1.0,0.0,0.0,0,0,0,0,0,-0.026478107999999997,0.33837897100000003,-1.5638090690000002,-1.5872764209999999,-1.4229994940000001,308.5392231,50.69467398,-0.022355469,0.036044529,-0.043495543,0.0,5.977702535,0.066787976,-14.13702013,-340.26352,960.3222486,12.07581422,0.066531721,0.315477554,-0.005083973,5.905783533999999,0.056510797,-14.19183116,2294028,0.074759002,0.30962081399999997,-0.01914144,-340.26352,52.8519802,50.97886977,3.954963054,2.517297835,15.33094397,17.67647544,-0.046910621,3.146871392,-0.269984263,92.33929836,450.2064448,12.07585167,96033.05248,1.141031505,0.84185503,0.834278262,0.35764508700000003,0.07431215099999999,0.208724872,-0.013266186000000001,-0.030081972000000002,0.34290093899999996,-1.564593677,0.700626643,0.1097407,0.1314473,-0.692676603,0.545535796,398714007.6,327334167.5,450655.7031,16.54775721,0.20276655300000002,-16.53120424,-0.609071814,4.724696946,0,0,0.0,39.8714138,32.7364372,-1.39126154,-258.4515298,-50.44301131,0.248673002,-16.8295725,-0.6212320029999999,0.222656038,-4.8680577210000004,-4.373529162,-1.5748140819999998,50.61249131,-0.110597131,0.11282648699999999,0.013766256999999999,0.5404557,42042256,0,1,0,0,0
42080623,-0.053341915999999996,0.164648818,-0.035918742999999996,0.59507,0.0,1482.0,1500.0,1599.0,1526.0,1473.0,1588.0,16.799755800000003,17.17006617,16.79489899,16.70644211,17.07469648,16.3160806,16.67573014,172.8271551,172.8271551,12.07570671,-0.00160922,-0.005899985,0.000784528,-0.189567453,0.192276234,-0.068369289,2.0,-0.039207842,0.960792158,11,0,0,1.0,0.0,0.0,0,0,0,0,0,-0.028626642999999997,0.340081995,-1.564183778,-1.587315759,-1.4073000759999998,307.7805088,50.80425696,-0.022412900000000003,0.035924427,-0.043581947999999995,0.0,5.707670642,-0.02175568,-14.65778145,-340.26352,960.3158703,12.07551651,0.063630758,0.327618523,-0.008227940999999999,5.742768891,0.031413245,-14.73650667,2294028,0.06599255799999999,0.329407186,-0.01908963,-340.26352,53.04869042,51.10058891,3.976980897,2.7512669880000002,15.33100762,17.84294129,-0.050238667,3.041549755,-0.270166613,92.60019784,450.22345,12.07558603,96032.83718999999,1.141028972,-0.549430632,0.972860262,0.158394397,0.07700330400000001,0.250015104,-0.013667078000000001,-0.032267267,0.343619265,-1.564925765,0.700591728,0.109247194,0.132436202,-0.692601527,0.543184168,398714008.5,327334085.7,450673.3867,16.77244235,0.213168634,-16.75380876,-0.7484596920000001,4.7251689930000005,0,0,0.0,39.8714138,32.7364372,-1.38293879,-259.1996409,-50.47782062,0.258223345,-17.03803012,-0.829272518,0.29764118,-4.434487695,-5.043548865,-1.574917092,50.64730062,-0.110917659,0.092972891,0.01455192,0.5395789000000001,42080623,0,1,0,0,0
42126989,-0.053813975,0.154109114,-0.034904997,0.5893928,0.0,1482.0,1500.0,1597.0,1526.0,1473.0,1583.528506,16.95210623,17.32582502,16.86170436,16.77321179,17.14300028,16.3838937,16.74509946,174.1362596,174.1362596,12.07523188,-0.0016078429999999999,-0.005899334,0.000783853,-0.189555168,0.192255642,-0.068156156,2.0,-0.036607321,0.963392679,11,0,0,1.0,0.0,0.0,0,0,0,0,0,-0.030775177999999997,0.34178501899999997,-1.5645584869999998,-1.5873550980000002,-1.3916006580000002,307.0217946,50.91383993,-0.022467292000000003,0.035779105,-0.043643773,0.0,5.444416584,-0.049013865999999996,-15.09612482,-340.26352,960.3104822,12.075168199999998,0.052332057,0.338529783,0.001181845,5.333636954,0.028620864,-15.33776242,2294028,0.05497516400000001,0.336035995,-0.013598998999999999,-340.26352,53.24540064,51.22230804,3.9989987389999997,2.9852361419999998,15.33107126,18.00940714,-0.053566712999999995,2.9362281180000003,-0.270348963,92.86109732,450.3124607,12.07526046,96031.83544,1.141017041,-0.153854731,-0.124606946,0.146497155,0.07664044,0.28348774,-0.012696903,-0.034235716,0.344250967,-1.56518063,0.700576025,0.108794633,0.133323956,-0.692518317,0.5415386879999999,398714009.4,327334001.7,450706.2815,16.97141828,0.22499899999999998,-16.95070407,-0.924268854,4.725728236,0,0,0.0,39.8714138,32.7364372,-1.3741890019999998,-259.9298562,-50.52095207,0.269462905,-17.21865825,-1.051569488,0.36002654799999995,-3.968420819,-5.576698056000001,-1.5748046690000002,50.69043189,-0.11020386300000001,0.07842872299999999,0.014292101000000001,0.53940213,42126989,0,1,0,0,0
42165356,-0.054980435,0.14790954,-0.034875225,0.5832103,0.0,1482.0,1500.0,1592.0,1525.5145029999999,1473.4854970000001,1579.0,17.10052283,17.4774824,16.90243224,16.81389225,17.18471653,16.43106763,16.79345035,174.9587497,174.9587497,12.07419003,-0.001606755,-0.00589894,0.0007829369999999999,-0.18955348,0.19222781100000003,-0.067954054,2.0,-0.034006801,0.965993199,11,0,0,1.0,0.0,0.0,0,0,0,0,0,-0.032923714,0.34348804299999997,-1.564933196,-1.5873944359999999,-1.375901241,306.2630803,51.02342291,-0.022520225,0.035600997999999995,-0.043680603,0.0,5.190003183,0.003665517,-15.42696653,-340.26352,960.3063855,12.07475387,0.046278426,0.327947837,0.007011229,5.057801541,0.085015936,-15.59098551,2294028,0.041021748,0.32550276300000003,-0.0010142530000000001,-340.26352,53.44211087,51.34402717,4.021016582,3.219205296,15.331134900000002,18.175873,-0.05689476,2.83090648,-0.270531313,93.1219968,450.38884529999996,12.07484661,96030.96392000001,1.141006667,-0.501016017,0.602658975,0.34404219799999997,0.07912142900000001,0.305677043,-0.010524182,-0.036093567,0.34480254299999996,-1.56543197,0.700559739,0.108352807,0.134145609,-0.692445402,0.5403267620000001,398714010.4,327333913.5,450768.2779,17.12120824,0.239561912,-17.0984134,-1.169757952,4.726454301,0,0,0.0,39.8714138,32.7364372,-1.3648822059999999,-260.6367293,-50.57493849,0.282905792,-17.36298703,-1.292461836,0.40597742700000006,-3.459966745,-5.9313204939999995,-1.574411246,50.74441788,-0.10911577900000001,0.062634409,0.013868406000000002,0.53953815,42165356,0,1,0,0,0
42211446,-0.054055855,0.13823723300000001,-0.03367694,0.577103136,0.0,1482.0,1500.0,1586.0,1526.0,1473.0,1575.4424880000001,17.31050366,17.69217232,16.94316011,16.85457271,17.22643277,16.47824155,16.84180123,175.7812397,175.7812397,12.07314818,-0.001605668,-0.005898546,0.000782022,-0.189551793,0.192199979,-0.067751953,2.0,-0.031406281,0.968593719,11,0,0,1.0,0.0,0.0,0,0,0,0,0,-0.035130069,0.344270254,-1.5656986869999998,-1.587514883,-1.33649471,305.5111236,50.96192486,-0.022567324,0.035417308,-0.043687126,0.0,4.937950798,0.053570270999999996,-15.73020043,-340.26352,960.3023014,12.07432778,0.038538911,0.309034594,0.016783679,4.727596657,0.093973369,-15.70690022,2294028,0.02790965,0.314982826,0.01100687,-340.26352,53.63905981,51.466293900000004,4.042934966,3.4530354219999997,15.33119919,18.34174421,-0.060210900000000005,2.7250529439999998,-0.270714483,93.38371726,450.44355369999994,12.07438569,96030.31955,1.140999105,0.34589869100000004,0.763100456,-0.096139994,0.072727704,0.32753394199999997,-0.010593799,-0.037993271,0.34528258100000003,-1.565738883,0.7005300999999999,0.107875316,0.134953803,-0.6923929120000001,0.539577179,398714011.4,327333825.3,450830.2743,17.270998199999998,0.254124825,-17.24612274,-1.415247049,4.727180366,0,0,0.0,39.8714138,32.7364372,-1.355399798,-261.3490716,-50.63138014,0.29673017100000004,-17.5039362,-1.536600914,0.45232321200000003,-2.949713857,-6.262130833,-1.5739571,50.80085917,-0.107813089,0.04754729,0.01335855,0.54011655,42211446,0,1,0,0,0
42258090,-0.054501663,0.130371979,-0.033699115,0.571996879,0.0,1482.0,1500.0,1581.1984400000001,1526.60052,1472.39948,1571.60052,17.36907695,17.75216383,16.98388799,16.89525318,17.26814902,16.52541547,16.89015212,176.60372969999997,176.60372969999997,12.07210633,-0.00160458,-0.005898151999999999,0.000781106,-0.189550105,0.19217214800000001,-0.067549851,2.0,-0.028805761000000003,0.971194239,11,0,0,1.0,0.0,0.0,0,0,0,0,0,-0.037367541000000004,0.344556901,-1.5666744890000002,-1.58767898,-1.284329443,304.7628037,50.80835412,-0.022614354,0.035213287999999995,-0.04367572,0.0,4.714626546,0.069714182,-15.697510699999999,-340.26352,960.2983701999999,12.07375866,0.025904825,0.29035858,0.022640836,4.486583916,0.027690181,-15.65811024,2294028,0.025034459,0.30462466899999996,0.01617001,-340.26352,53.86362097,51.65189899,4.053349332,3.6707846280000003,15.33133803,18.43883486,-0.062149937,2.557676454,-0.270992448,93.740398,450.5421003000001,12.07384782,96029.18509,1.140985593,0.110764347,0.756877522,0.16558447,0.066509539,0.342311961,-0.008816585,-0.039482048,0.34570158700000003,-1.5659043259999998,0.700530255,0.107511091,0.13560604699999998,-0.692322023,0.53940513,398714012.5,327333737.1,450892.2707,17.42078816,0.268687738,-17.39383207,-1.660736147,4.727906431,0,0,0.0,39.8714138,32.7364372,-1.343780595,-262.1279628,-50.71769624,0.315196431,-17.60376322,-1.8202452519999999,0.503474101,-2.417573544,-6.303202641,-1.5727641069999998,50.88717570000001,-0.10605929900000001,0.029618932,0.012650561999999999,0.54113376,42258090,0,1,0,0,0
42296457,-0.052211434,0.12272264199999999,-0.032509767,0.56774175,0.0,1483.0,1500.0,1576.0,1526.0,1473.0,1567.0,17.48776473,17.87357394,17.02461587,16.93593364,17.30986527,16.57258939,16.938503,177.4262197,177.4262197,12.07106448,-0.0016034929999999999,-0.005897758,0.0007801910000000001,-0.189548418,0.19214431699999998,-0.06734775,2.0,-0.026205241,0.973794759,11,0,0,1.0,0.0,0.0,0,0,0,0,0,-0.039605013,0.34484354700000003,-1.567650292,-1.5878430780000001,-1.232164176,304.0144838,50.65478337,-0.022659143,0.03499488,-0.043652207,0.0,4.491302294,0.08585809300000001,-15.66482097,-340.26352,960.2944389,12.07318954,0.018241366000000002,0.268764667,0.030403992,4.109418899,0.041982198,-15.505586800000001,2294028,0.022159268,0.294266512,0.02133315,-340.26352,54.08818213,51.83750408,4.063763698,3.8885338330000003,15.33147687,18.53592552,-0.064088973,2.390299964,-0.271270413,94.09707874,450.5916063,12.07321782,96028.60032,1.140978578,-0.139687326,0.140228731,0.073665757,0.053839025,0.34627216200000005,-0.003463312,-0.041030471,0.346075432,-1.566202347,0.700490042,0.10711932699999999,0.136256084,-0.6922958459999999,0.539668226,398714013.5,327333648.9,450954.2671,17.57057812,0.28325065,-17.5415414,-1.906225245,4.7286324969999995,0,0,0.0,39.8714138,32.7364372,-1.332161392,-262.9068539,-50.80401234,0.333662691,-17.70359025,-2.10388959,0.554624989,-1.88543323,-6.34427445,-1.5715711140000002,50.97349222,-0.104137887,0.014201565,0.011957934,0.5423794,42296457,0,1,0,0,0
42338824,-0.054133097000000005,0.11593682599999999,-0.032027926,0.5613646,0.0,1483.0,1500.0,1570.0,1526.0,1473.0,1563.3134630000002,17.58496932,17.97287802,17.06534374,16.9766141,17.35158152,16.61976332,16.98685389,178.24870980000003,178.24870980000003,12.07002263,-0.001602405,-0.005897364,0.000779275,-0.18954673100000002,0.192116485,-0.067145648,2.0,-0.023604721000000002,0.976395279,11,0,0,1.0,0.0,0.0,0,0,0,0,0,-0.041842486,0.345130194,-1.568626094,-1.5880071759999999,-1.179998909,303.2661639,50.50121262,-0.022702561,0.03475763,-0.043603828,0.0,4.216467369,0.097147871,-15.50723529,-232.9913403,960.2803508,12.07250868,0.001346794,0.25235949,0.034045643,3.871364148,0.028673973999999998,-15.32294594,2294028,0.017215301000000002,0.27963003399999997,0.026073026000000003,-232.9913403,54.312743299999994,52.02310917,4.074178064,4.106283039,15.3316157,18.63301618,-0.06602801,2.2229234730000003,-0.271548379,94.45375947,450.73866560000005,12.07253162,96026.92573999999,1.140958759,-0.43771283,-0.19146070899999998,0.7183746129999999,0.045421705,0.34768789200000005,0.005305763000000001,-0.042188637,0.346390035,-1.566362395,0.7004796,0.10683429400000001,0.136757785,-0.692251407,0.540259916,398714014.7,327333561.3,451041.6017,17.6645568,0.301162232,-17.63678847,-2.149481874,4.729553533,0,0,0.0,39.8714138,32.7364372,-1.319506687,-263.6474347,-50.90403771,0.352928965,-17.76703023,-2.364764332,0.56230626,-1.453509306,-6.238453043,-1.5700492730000002,51.07351771,-0.11992562699999999,0.002845698,0.011307201999999999,0.5440279,42338824,0,1,0,0,0
42389191,-0.05325374099999999,0.107873651,-0.031807072,0.556124,0.0,1483.0,1500.0,1564.0,1526.0,1473.0,1559.270454,17.64913379,18.03858611,17.10607162,17.01729457,17.39329777,16.66693724,17.03520477,179.07119980000002,179.07119980000002,12.06898078,-0.0016013179999999998,-0.00589697,0.00077836,-0.189545043,0.192088654,-0.066943547,2.0,-0.021004201,0.9789957990000001,11,0,0,1.0,0.0,0.0,0,0,0,0,0,-0.044079957999999995,0.34541684100000003,-1.569601896,-1.5881712730000002,-1.1278336420000001,302.5178439,50.34764188,-0.022743472999999997,0.034501604,-0.043561757,0.0,3.9213936910000005,0.10653044,-15.30057749,-83.57148414,960.2622721000001,12.07178392,-0.000645941,0.255531067,0.031222587000000003,3.6542244139999998,0.049722762999999996,-15.15681215,2294028,0.011458504,0.263312586,0.030646601000000002,-83.57148414,54.53730446,52.20871426,4.084592429,4.324032245,15.33175454,18.73010684,-0.067967046,2.055546983,-0.271826344,94.81044021,450.83981869999997,12.07176713,96025.74509,1.140944625,0.048546623,-0.38408750399999997,0.008651664,0.042764788,0.328224305,0.012086893000000001,-0.04351793,0.34666756200000004,-1.5666565680000002,0.70043378,0.10648567199999999,0.137298669,-0.692244395,0.541171972,398714015.9,327333474.4,451150.8236,17.71032575,0.321966393,-17.68671866,-2.390810098,4.730642984,0,0,0.0,39.8714138,32.7364372,-1.306445129,-264.3729633,-51.00944951,0.37250956700000004,-17.81617361,-2.6166928080000003,0.552908142,-1.06096081,-6.074916692,-1.568398226,51.17892951,-0.117307008,-0.010345459,0.01039203,0.545286274,42389191,0,1,0,0,0
42427558,-0.052920919000000004,0.10128525199999999,-0.030670776,0.551341334,0.0,1483.0,1500.0,1558.0,1526.0,1473.0,1556.0,17.68323202,18.07358581,17.14679949,17.05797503,17.43501401,16.71411116,17.08355566,179.8936898,179.8936898,12.06793893,-0.00160023,-0.005896576999999999,0.000777444,-0.18954335600000002,0.192060822,-0.066741446,2.0,-0.018403681,0.9815963190000001,11,0,0,1.0,0.0,0.0,0,0,0,0,0,-0.046317431,0.34570348700000003,-1.570577699,-1.5883353709999999,-1.075668375,301.76952400000005,50.19407113,-0.022783671000000002,0.034237984,-0.043521717,0.0,3.691594411,0.121974817,-15.10266099,-41.70573199,960.2454419,12.07100314,-0.009691801,0.24473361300000002,0.040499201,3.4726021119999997,0.096030984,-14.88150129,2294028,0.003270463,0.250316334,0.035448697,-41.70573199,54.75598611,52.39805629999999,4.093183435,4.5271744080000005,15.3318951,18.80656299,-0.069493358,1.8950771780000002,-0.272102998,95.16229282,451.0813698,12.07093351,96022.98345,1.140911883,-0.10552071199999999,-0.280775381,0.091579565,0.031383573,0.31250806600000003,0.017592931000000003,-0.044503293,0.346890236,-1.566812708,0.700420238,0.106229004,0.137708815,-0.6922161040000001,0.542267932,398714017.2,327333387.4,451260.0454,17.75609469,0.342770554,-17.73664886,-2.632138322,4.731732436000001,0,0,0.0,39.8714138,32.7364372,-1.292251648,-265.1215909,-51.12752139,0.39336436700000005,-17.85343301,-2.867675448,0.543071834,-0.679072858,-5.874853079,-1.5666080409999998,51.29700109,-0.1147644,-0.021582714,0.009550936,0.5467026,42427558,0,1,0,0,0
42473924,-0.052467535,0.093477078,-0.030131477,0.548100002,0.0,1484.0,1500.0,1553.0,1526.0,1473.0,1552.0,17.79155828,18.18445223,17.18752737,17.09865549,17.47673026,16.76128508,17.13190654,180.71617980000002,180.71617980000002,12.06689708,-0.001599143,-0.005896183,0.000776529,-0.189541668,0.19203299100000001,-0.066539344,2.0,-0.015803161,0.9841968390000001,11,0,0,1.0,0.0,0.0,0,0,0,0,0,-0.048554902999999996,0.345990134,-1.571553501,-1.5884994680000002,-1.0235031079999999,301.02120410000003,50.04050038,-0.022821794,0.033974192,-0.043489454000000004,0.0,3.5778860339999996,0.148200155,-14.92029095,-191.12558810000002,960.2308322,12.07012274,-0.020088794,0.23479428,0.038656222999999997,3.397674905,0.174200667,-14.74703282,2294028,-0.009241559,0.243226849,0.040657221,-191.12558810000002,54.95680307,52.59875291,4.096234233000001,4.68593363,15.33204086,18.82032201,-0.069765623,1.7555930690000001,-0.272375666,95.49947536,450.9735455,12.0700226,96024.2086,1.140926466,-0.51983772,-0.325547047,-0.560254677,0.025502959,0.298293672,0.021525167999999997,-0.057445244000000006,0.347082668,-1.57561982,0.6980322459999999,0.10238702,0.141802492,-0.694377397,0.543689915,398714018.4,327333300.5,451369.2673,17.80186364,0.363574715,-17.78657905,-2.8734665460000004,4.732821887,0,0,0.0,39.8714138,32.7364372,-1.276045035,-265.9113005,-51.26810933,0.41648533600000004,-17.86955672,-3.116975913,0.532456202,-0.316144744,-5.609825514,-1.564570398,51.43758817,-0.112456795,-0.032101588,0.008694766,0.548635,42473924,0,1,0,0,0
42516291,-0.052135161,0.086582514,-0.029446307999999997,0.54545987,0.0,1484.0,1500.0,1551.0,1526.0,1473.0,1548.141428,17.81057825,18.20385281,17.22825525,17.13933596,17.51844651,16.80845901,17.18025743,181.5386699,181.5386699,12.06585523,-0.001598055,-0.005895789,0.000775613,-0.18953998100000002,0.19200515899999998,-0.066337243,2.0,-0.013202641000000001,0.9867973590000001,11,0,0,1.0,0.0,0.0,0,0,0,0,0,-0.050792375,0.34627678,-1.572529303,-1.588663566,-0.971337841,300.27288419999996,49.88692964,-0.022864849,0.033698275,-0.043453404,0.0,3.4640237689999998,0.174351812,-14.73793618,-340.26352,960.2162088,12.0692421,-0.028617351,0.231514315,0.028285038,3.160364038,0.155051427,-14.60207941,2294028,-0.021739407000000002,0.23613886,0.045845695,-340.26352,55.15762003,52.79944952,4.09928503,4.844692853,15.33218663,18.83408102,-0.07003788799999999,1.61610896,-0.272648334,95.83665789,451.28467130000007,12.069064,96020.65944,1.140884257,-0.303696654,-0.540102545,-0.00028094599999999996,0.014252316000000001,0.275651384,0.02641433,-0.05834444900000001,0.347233301,-1.575858321,0.697987727,0.10214295300000001,0.14215454,-0.694386044,0.545140307,398714019.7,327333213.5,451478.4891,17.84763258,0.38437887600000004,-17.83650925,-3.11479477,4.733911339,0,0,0.0,39.8714138,32.7364372,-1.259835918,-266.70089509999997,-51.40871796,0.439604041,-17.88562937,-3.366200819,0.521861251,0.046574803,-5.344851268,-1.562533344,51.57819596,-0.110017424,-0.042233339,0.007800994,0.5495555999999999,42516291,0,1,0,0,0
42554658,-0.052139662,0.080381173,-0.028892582000000003,0.54285455,0.0,1485.0,1500.0,1547.0,1525.09842,1473.90158,1545.0,17.905594699999998,18.30138216,17.26898312,17.18001642,17.56016276,16.85563293,17.22860831,182.36115990000002,182.36115990000002,12.06481339,-0.0015969670000000001,-0.005895395,0.000774698,-0.189538293,0.191977328,-0.066135141,2.0,-0.01060212,0.98939788,11,0,0,1.0,0.0,0.0,0,0,0,0,0,-0.053029848,0.34656342700000003,-1.573505106,-1.588827664,-0.9191725740000001,299.5245643,49.73335889,-0.022913272999999998,0.033413437000000004,-0.043414924,0.0,3.268755357,0.161527102,-14.56366022,-340.26352,960.1943897,12.06823277,-0.033870524,0.225776757,0.029308927999999998,3.019898277,0.128628882,-14.34653151,2294028,-0.026738876,0.229842303,0.040427804,-340.26352,55.358437,53.00014613,4.102335827,5.003452076,15.332332399999999,18.84784003,-0.070310153,1.476624851,-0.27292100199999997,96.17384043,451.40480360000004,12.06802896,96019.28185,1.1408678840000002,-0.10371556300000001,-0.9913294029999999,0.413986401,0.005704338000000001,0.261146945,0.032273313,-0.059061299000000005,0.347355368,-1.576139102,0.6979206309999999,0.10195558099999999,0.142431257,-0.6944242709999999,0.546817666,398714021.2,327333123.8,451627.7942,17.84937087,0.403664733,-17.84089003,-3.3454949289999996,4.735027148,0,0,0.0,39.8714138,32.7364372,-1.242302428,-267.42967630000004,-51.56027654,0.46152532,-17.87469604,-3.575455082,0.522206184,0.29896226600000003,-5.108083443,-1.560807531,51.72975412,-0.10721180599999999,-0.053065963,0.006775709,0.5513483,42554658,0,1,0,0,0
42601025,-0.05184044,0.073187876,-0.028017579,0.54116094,0.0,1485.0,1500.0,1544.0,1526.0,1473.0,1541.055411,17.88582634,18.28107815,17.309711,17.22069688,17.60187901,16.90280685,17.2769592,183.1836499,183.1836499,12.06377154,-0.00159588,-0.0058950009999999995,0.000773782,-0.18953660600000002,0.191949497,-0.06593304,2.0,-0.008001600000000001,0.9919984000000001,11,0,0,1.0,0.0,0.0,0,0,0,0,0,-0.05526732,0.346850074,-1.5744809080000002,-1.588991761,-0.867007306,298.77624439999994,49.57978814,-0.022956425,0.03311674,-0.043382455,0.0,3.073486945,0.148702391,-14.38938426,-340.26352,960.1725705,12.06722345,-0.036613677000000004,0.227863188,0.02644621,2.91111031,0.134251423,-14.20576197,2294028,-0.031738346,0.22354574600000002,0.035009913999999996,-340.26352,55.55925396,53.20084274,4.105386623999999,5.162211299,15.33247817,18.86159904,-0.07058241700000001,1.337140743,-0.27319367,96.51102296,451.6112938999999,12.066950300000002,96016.87715,1.140839312,-0.49764340100000004,-0.168619429,0.410756503,-0.008953338,0.25639938100000004,0.038376292,-0.059583723,0.347437464,-1.576332916,0.697875751,0.101815894,0.142631127,-0.69444886,0.548521619,398714022.9,327333033.1,451791.939,17.83480796,0.42238847799999996,-17.82840732,-3.5722603239999997,4.736152715,0,0,0.0,39.8714138,32.7364372,-1.224768938,-268.15845759999996,-51.71183513,0.483446599,-17.86376271,-3.784709345,0.522551118,0.551349729,-4.871315617,-1.559081717,51.88131228,-0.10471386099999999,-0.06259806700000001,0.0058988669999999995,0.552322854,42601025,0,1,0,0,0
42639392,-0.05083063,0.067311232,-0.027415012000000002,0.5404557,0.0,1485.0,1500.0,1541.0,1525.0,1474.0,1538.0,17.94134772,18.3380307,17.35043887,17.26137735,17.64359525,16.94998078,17.32531008,184.0061399,184.0061399,12.06272969,-0.001594792,-0.005894607,0.000772867,-0.189534919,0.191921665,-0.065730938,2.0,-0.00540108,0.99459892,11,0,0,1.0,0.0,0.0,0,0,0,0,0,-0.057504793,0.34713672,-1.57545671,-1.5891558590000001,-0.8148420390000001,298.0279244,49.4262174,-0.022998296,0.03280585,-0.043366162,0.0,2.941530067,0.122612714,-14.23609855,-340.26352,960.1501506000001,12.06594736,-0.043301329000000006,0.215235097,0.018928783,2.90195013,0.163701399,-14.00341372,2294028,-0.037917516,0.219551083,0.02650448,-340.26352,55.76029826,53.41449027,4.106943326000001,5.30464836,15.33264142,18.85267554,-0.070400684,1.211954626,-0.27346429699999997,96.84431090000001,451.6700892,12.06581652,96016.19305,1.140831193,-1.010768378,0.413594962,0.196008773,-0.014566421999999999,0.253923505,0.029233647999999997,-0.060294622,0.34747647200000004,-1.5766685319999998,0.697793419,0.101605499,0.142874392,-0.694512428,0.550155061,398714024.5,327332942.4,451956.0838,17.82024505,0.44111222200000005,-17.81592462,-3.799025719,4.737278283,0,0,0.0,39.8714138,32.7364372,-1.204998121,-268.92521810000005,-51.8853615,0.50468001,-17.83872665,-3.9920306539999997,0.514751947,0.729455104,-4.70094102,-1.55759368,52.05483932,-0.102754906,-0.07189389,0.005130013,0.5535956,42639392,0,1,0,0,0
42685759,-0.05050145,0.060539475,-0.027281179,0.5395789000000001,0.0,1486.0,1500.0,1540.0,1525.0,1474.0,1534.0,17.89113659,18.2868522,17.39116675,17.30205781,17.685311499999997,16.9971547,17.37366097,184.82863,184.82863,12.06168784,-0.001593705,-0.005894213000000001,0.0007719510000000001,-0.18953323100000002,0.19189383399999999,-0.065528837,2.0,-0.00280056,0.99719944,11,0,0,1.0,0.0,0.0,0,0,0,0,0,-0.059742265,0.34742336700000004,-1.576432513,-1.589319956,-0.7626767720000001,297.2796045,49.27264665,-0.023039267000000002,0.032485084,-0.043356843,0.0,2.844591657,0.089186006,-14.09442284,-340.26352,960.1273984999999,12.064523699999999,-0.04804388,0.218125741,0.013582493000000001,2.814794726,0.13337853800000002,-14.00611859,2294028,-0.044749195,0.216829629,0.016291282,-340.26352,55.96158236,53.64179836,4.106924066,5.429868894,15.33282311,18.81982665,-0.069740077,1.101849954,-0.27373277100000004,97.17349084,451.9083176,12.06462818,96013.47204,1.140798878,0.295960968,-0.12190135099999999,0.39106651,-0.016549869,0.249798155,0.033369692,-0.06070206,0.34746663,-1.5768664319999999,0.6977459309999999,0.10147404199999999,0.143002434,-0.694553049,0.551683909,398714026.2,327332851.7,452120.2286,17.80568214,0.459835967,-17.80344191,-4.025791113,4.73840385,0,0,0.0,39.8714138,32.7364372,-1.1839898070000001,-269.7129853,-52.07103856,0.525532952,-17.80589019,-4.198282821,0.502448161,0.86647405,-4.5672894180000005,-1.55623716,52.24051765,-0.099923272,-0.08161031099999999,0.004143949,0.55513096,42685759,0,1,0,0,0
42724126,-0.051123429000000005,0.055204147,-0.027288613,0.53940785,0.0,1486.0,1500.0,1539.0,1525.0,1474.0,1531.0,17.93664105,18.33356467,17.43189462,17.34273827,17.72702775,17.04432862,17.42201185,185.65112,185.65112,12.06064599,-0.0015926170000000002,-0.005893819000000001,0.000771036,-0.189531544,0.19186600199999998,-0.065326735,2.0,-0.00020004,0.99979996,11,0,0,1.0,0.0,0.0,0,0,0,0,0,-0.060229209000000006,0.347285611,-1.5768218999999999,-1.589385911,-0.7413404709999999,296.55498739999996,49.1253455,-0.02307798,0.032156312,-0.043343400000000004,0.0,2.78746295,0.07228570599999999,-13.94309083,-340.26352,960.1064526,12.06314078,-0.053344691,0.200273595,0.011467537,2.8090322430000003,0.11941088,-13.78456659,2294028,-0.050299767,0.21199505800000001,0.008178318,-340.26352,56.16286645,53.86910645,4.106904805,5.555089428,15.33300479,18.78697776,-0.06907947,0.991745282,-0.274001244,97.50267077,452.13084979999996,12.06338136,96010.93721,1.140768737,-0.177376615,-0.44889696700000004,0.041728961,-0.028975534,0.239580088,0.023522286,-0.06119123,0.34741939,-1.577206467,0.6976548990000001,0.101311136,0.143138771,-0.694640032,0.553043223,398714027.9,327332761.0,452284.3735,17.79111922,0.478559712,-17.79095921,-4.2525565080000005,4.739529418,0,0,0.0,39.8714138,32.7364372,-1.162832133,-270.4822525,-52.25783536,0.5451480089999999,-17.76955265,-4.395503066,0.47378098799999996,0.999759154,-4.417908145,-1.555034061,52.42731536,-0.09740904,-0.092112685,0.0031565670000000003,0.5563272,42724126,0,1,0,0,0
42762492,-0.050034867999999996,0.049866864000000004,-0.027211588999999998,0.539689227,0.0,1486.0,1500.0,1539.0,1525.0,1474.0,1528.0,17.93038398,18.32735075,17.4726225,17.38341874,17.768744,17.09150254,17.47036274,186.47361,186.47361,12.05960414,-0.00159153,-0.005893425,0.00077012,-0.18952985600000002,0.191838171,-0.065124634,2.0,0.00240048,1.00240048,11,0,0,1.0,0.0,0.0,0,0,0,0,0,-0.060363063,0.347062251,-1.577093004,-1.5894320690000001,-0.726222512,295.8351512,48.97930896,-0.02311741,0.031815813,-0.043346312000000005,0.0,2.8297928060000004,0.09667416,-13.76763401,-340.26352,960.0900193,12.06185962,-0.053767703,0.19274407699999999,-0.0040999059999999995,2.773555598,0.115611577,-13.51457793,2294028,-0.052649687,0.201881182,0.005312474,-340.26352,56.36415055,54.09641455,4.106885544,5.680309962000001,15.33318648,18.75412887,-0.068418862,0.8816406109999999,-0.274269718,97.83185071,452.3548636,12.062085699999999,96008.37265,1.14073827,-0.47622275299999994,0.401435124,0.133621659,-0.032260476,0.239624015,0.023869231,-0.061357469000000005,0.34732097799999995,-1.577408818,0.697598119,0.10123307699999999,0.143152322,-0.69470587,0.554356513,398714029.9,327332672.6,452482.7011,17.74583036,0.49152229700000005,-17.74583036,-4.429391878000001,4.740353427,0,0,0.0,39.8714138,32.7364372,-1.141301304,-271.2053001,-52.44742969,0.561670396,-17.72446819,-4.570158411,0.40423235,1.123715813,-4.229228654,-1.5542142630000002,52.61690969,-0.094782384,-0.101185106,0.002222451,0.5568177,42762492,0,1,0,0,0
42805719,-0.049354305999999994,0.04413915,-0.027397598999999998,0.5402191999999999,0.0,1486.0,1500.0,1539.0,1524.159632,1474.840368,1525.0,17.86947312,18.26508342,17.51335038,17.4240992,17.81046025,17.13867647,17.51871363,187.2961001,187.2961001,12.05856229,-0.001590442,-0.005893031,0.0007692039999999999,-0.189528169,0.19181034,-0.064922533,2.0,0.005000999999999999,1.005001,11,0,0,1.0,0.0,0.0,0,0,0,0,0,-0.060496917000000004,0.34683889100000004,-1.577364108,-1.5894782280000002,-0.711104553,295.11531510000003,48.83327242,-0.023159334,0.031464683,-0.04334779,0.0,2.8721226619999998,0.121062614,-13.59217719,-340.26352,960.073586,12.06057846,-0.05506799999999999,0.18798171100000002,0.006900915,2.7493750510000003,0.045761588,-13.41425709,2294028,-0.054999607,0.191767307,0.002446629,-340.26352,56.56543465,54.32372264,4.1068662830000005,5.805530496,15.33336817,18.72127998,-0.067758255,0.7715359390000001,-0.274538192,98.16103065,452.37104339999996,12.06071665,96008.14457,1.140735662,-0.219813504,-0.448545617,0.249798593,-0.039964436,0.23637717100000002,0.014116311999999999,-0.061668764,0.34719518,-1.5777115780000002,0.697514972,0.101102013,0.143201735,-0.694798227,0.5555762,398714032.0,327332584.4,452683.8774,17.697981,0.504004785,-17.697981,-4.602066413,4.741152307,0,0,0.0,39.8714138,32.7364372,-1.119770476,-271.92834780000004,-52.63702401,0.578192782,-17.67938374,-4.744813757,0.33468371199999997,1.247672471,-4.0405491630000006,-1.553394465,52.80650401,-0.092825386,-0.109487708,0.0014411220000000002,0.5575036,42805719,0,1,0,0,0
42863226,-0.048522456,0.036948704,-0.02768643,0.54173446,0.0,1486.0,1500.0,1540.0,1524.0,1475.0,1522.797359,17.94788579,18.34546687,17.55407825,17.46477966,17.85217649,17.18585039,17.56706451,188.11859009999998,188.11859009999998,12.05752044,-0.0015893539999999999,-0.005892636999999999,0.0007682889999999999,-0.18952648100000002,0.19178250800000002,-0.064720431,2.0,0.00760152,1.00760152,11,0,0,1.0,0.0,0.0,0,0,0,0,0,-0.06063077,0.34661553100000003,-1.577635212,-1.589524386,-0.695986593,294.3954789,48.68723588,-0.023198734,0.031108722999999998,-0.043339299000000005,0.0,2.857668978,0.115603669,-13.39085189,-340.26352,960.0507311000001,12.059225099999999,-0.055917397,0.17433473600000002,0.004868664,2.698724687,0.189286137,-13.21298841,2294028,-0.05423417,0.18416351,0.003023515,-340.26352,56.78514820000001,54.59039026,4.105335369,5.919486616,15.33357615,18.66733563,-0.066675207,0.6789937979999999,-0.27481546,98.49870096,452.65660959999997,12.05932921,96004.86121,1.140696557,-0.326391248,0.217986636,-0.045255975,-0.043352322,0.229071725,0.012704745,-0.061871979,0.347017047,-1.577961105,0.697447461,0.10098645,0.143198283,-0.6948834970000001,0.556554151,398714034.1,327332496.2,452885.0536,17.65013163,0.516487273,-17.65013163,-4.774740948,4.741951187,0,0,0.0,39.8714138,32.7364372,-1.095568006,-272.70284669999995,-52.85768584,0.591241716,-17.62309694,-4.914990606,0.343763737,1.319542569,-3.8800740680000003,-1.5528823269999998,53.02716584,-0.090208039,-0.11812834400000001,0.000602207,0.5582059,42863226,0,1,0,0,0
42905593,-0.050754535999999996,0.031927881,-0.027760497999999998,0.542707065,0.0,1486.0,1500.0,1541.0,1524.0,1475.0,1519.754351,17.83928978,18.23480938,17.59480613,17.50546013,17.89389274,17.23302431,17.615415399999996,188.9410801,188.9410801,12.05647859,-0.0015882670000000002,-0.005892243,0.000767373,-0.189524794,0.19175467699999998,-0.06451833,2.0,0.01020204,1.01020204,11,0,0,1.0,0.0,0.0,0,0,0,0,0,-0.060764624,0.346392171,-1.577906316,-1.589570545,-0.6808686340000001,293.67564269999997,48.54119934,-0.02324287,0.030721073999999998,-0.043329445,0.0,2.8387984760000005,0.107823091,-13.18751446,-340.26352,960.0273768,12.05786612,-0.058346611,0.165366585,0.009338669,2.7703481410000004,0.168599794,-13.03292675,2294028,-0.053226410999999994,0.17675495600000002,0.003868188,-340.26352,57.01182722,54.87193393,4.103233122,6.029185318,15.33379407,18.60541818,-0.06543249599999999,0.593089465,-0.275096053,98.83958024,452.9713955,12.05790188,96001.23378,1.140653549,-0.240411493,-0.14311613,0.624175394,-0.043043437000000004,0.216141172,0.011688829,-0.061976521,0.346788321,-1.5782023180000002,0.697380329,0.10088693300000001,0.14314354,-0.694976582,0.557267914,398714036.2,327332407.9,453086.2298,17.60228227,0.528969761,-17.60228227,-4.947415483,4.742750067,0,0,0.0,39.8714138,32.7364372,-1.071157726,-273.4813477,-53.08076421,0.604020473,-17.56593879,-5.084819103,0.358959769,1.387361195,-3.721792807,-1.5523941209999998,53.25024421,-0.08837775099999999,-0.12544841,-8.609999999999999e-05,0.55852854,42905593,0,1,0,0,0
42943960,-0.053721423,0.027622555,-0.027990223999999998,0.5440279,0.0,1486.0,1500.0,1541.288658,1524.0,1475.0,1517.0,17.85140595,18.24724472,17.635534,17.54614059,17.93560899,17.28019824,17.66376628,189.76357009999998,189.76357009999998,12.05543674,-0.001587179,-0.005891849,0.000766458,-0.18952310600000002,0.191726845,-0.064316228,2.0,0.012802561,1.012802561,11,0,0,1.0,0.0,0.0,0,0,0,0,0,-0.060898478,0.346168811,-1.57817742,-1.589616704,-0.665750675,292.9558066,48.395162799999994,-0.023279873,0.030364615,-0.04332482,0.0,2.830950618,0.10104320900000001,-12.98511257,-255.1266201,959.9974496,12.05644818,-0.054628712999999995,0.15419833900000002,0.002840519,2.871064725,0.13498964,-12.78303208,2294028,-0.053301071,0.167914945,0.00361608,-255.1266201,57.23850623,55.15347760000001,4.101130874,6.138884021,15.33401198,18.54350074,-0.064189785,0.507185132,-0.275376646,99.18045951,453.15386399999994,12.05641384,95999.13269,1.140628558,-0.067665362,-0.20058527199999998,-0.403233632,-0.048863584,0.209033208,0.007148903000000001,-0.062086173,0.346503585,-1.578522781,0.6972886970000001,0.100771592,0.143067285,-0.695100974,0.5577504560000001,398714038.2,327332320.1,453290.6011,17.55322262,0.542420445,-17.5529806,-5.115733147,4.743599622,0,0,0.0,39.8714138,32.7364372,-1.047085633,-274.22241010000005,-53.30238713,0.61476285,-17.50862719,-5.237107991,0.330999289,1.405015271,-3.544660245,-1.551935106,53.47186713,-0.086507745,-0.132528182,-0.0007774430000000001,0.55895865,42943960,0,1,0,0,0
42990327,-0.052109933,0.022596715,-0.028141597999999997,0.5456788,0.0,1486.0,1500.0,1543.0,1526.331666,1472.668334,1514.668334,17.839748699999998,18.23581745,17.67626188,17.58682105,17.97732524,17.32737216,17.71211717,190.5860602,190.5860602,12.05439489,-0.001586092,-0.005891455,0.000765542,-0.189521419,0.19169901399999997,-0.064114127,2.0,0.015403081,1.0154030809999999,11,0,0,1.0,0.0,0.0,0,0,0,0,0,-0.061032332,0.345945451,-1.578448525,-1.589662862,-0.650632716,292.2359704,48.24912626,-0.023320862,0.029979656,-0.043314922,0.0,2.83142449,0.09501882,-12.78341698,-105.71418,959.9625601,12.05498572,-0.058998458,0.151385874,0.007045329,2.894479022,0.188407555,-12.6271954,2294028,-0.054192921,0.15799423099999998,0.002535939,-105.71418,57.46518525,55.43502127,4.099028627,6.248582723999999,15.3342299,18.4815833,-0.062947075,0.42128079799999996,-0.275657239,99.52133879,453.43800430000005,12.05490244,95995.89495,1.140590039,-0.394654038,0.357705416,-0.16114978800000002,-0.05029665,0.202051903,0.000653763,-0.062016880999999996,0.346212652,-1.5787362790000001,0.6972254840000001,0.100708798,0.14293214,-0.69520123,0.558448961,398714040.3,327332235.0,453519.2388,17.49497076,0.563224614,-17.49264853,-5.250960192,4.744834058,0,0,0.0,39.8714138,32.7364372,-1.02326886,-274.9352076,-53.52291124,0.623967827,-17.45119975,-5.376155055,0.27045707199999997,1.3847967730000001,-3.3532955760000003,-1.551498129,53.69239124,-0.084374861,-0.140067012,-0.001490904,0.559114158,42990327,0,1,0,0,0
43028694,-0.051297083,0.018156809,-0.028683205,0.5476791999999999,0.0,1485.0,1500.0,1544.0,1526.0,1473.0,1512.0,17.84911753,18.24547568,17.71698976,17.62750152,18.01904149,17.37454608,17.76046805,191.40855019999998,191.40855019999998,12.05335304,-0.0015850039999999999,-0.0058910609999999995,0.0007646269999999999,-0.189519732,0.191671183,-0.063912025,2.0,0.018003601,1.018003601,11,0,0,1.0,0.0,0.0,0,0,0,0,0,-0.061166186,0.345722091,-1.578719629,-1.589709021,-0.635514757,291.51613419999995,48.10308972,-0.02336349,0.029588222999999997,-0.043292209000000005,0.0,2.8466382269999997,0.083519751,-12.58944588,-19.59059418,959.9294464,12.05350678,-0.058528595999999995,0.136016509,0.002446932,2.9400852410000002,0.057514777999999996,-12.40754564,2294028,-0.05524619,0.14942819400000001,0.002743417,-19.59059418,57.69186426,55.71656494,4.096926379,6.3582814270000005,15.33444782,18.41966585,-0.061704364000000005,0.335376465,-0.275937832,99.86221806,453.6850615,12.05334367,95993.06214,1.140556447,0.305139515,-0.11508292,0.012236402,-0.050560118,0.190185683,0.003018793,-0.062065537000000004,0.345880733,-1.579095786,0.6971194540000001,0.100600892,0.142816511,-0.695346948,0.558873408,398714042.4,327332149.9,453747.8766,17.4367189,0.5840287829999999,-17.43231646,-5.386187237000001,4.746068493,0,0,0.0,39.8714138,32.7364372,-0.998957957,-275.6595144,-53.75017402,0.632626948,-17.39311914,-5.513643094,0.21746327899999998,1.372713645,-3.168404034,-1.551085465,53.91965393,-0.08251312599999999,-0.147391726,-0.00218886,0.5591065,43028694,0,1,0,0,0
43067061,-0.050408713,0.014144958999999999,-0.028952379,0.548635,0.0,1485.0,1500.0,1545.417684,1525.0,1474.0,1510.0,17.78983057,18.18508513,17.75771763,17.66818198,18.06075773,17.42172,17.80881894,192.23104019999997,192.23104019999997,12.0523112,-0.0015839170000000002,-0.005890668000000001,0.000763711,-0.189518044,0.19164335100000002,-0.063709924,2.0,0.020604121,1.0206041209999999,11,0,0,1.0,0.0,0.0,0,0,0,0,0,-0.06130004,0.345498731,-1.5789907330000001,-1.589755179,-0.6203967979999999,290.7962981,47.95705318,-0.023407237999999997,0.029189641000000002,-0.043277067999999995,0.0,2.916707895,0.051646099,-12.42422222,-169.00303430000002,959.9029411,12.05196651,-0.060377645,0.140619685,0.00882206,3.0071653960000004,0.030591869,-12.23183048,2294028,-0.056900192,0.14590372199999999,0.007742906999999999,-169.00303430000002,57.89432774,55.98575929,4.0937927730000006,6.435612419,15.33463413,18.36267663,-0.060560855,0.28212563,-0.276171543,100.134466,453.9585172,12.05173768,95989.91057000001,1.140518952,-0.09206946099999999,-0.070342555,0.5133503779999999,-0.048411761,0.184963254,0.002872576,-0.061867087,0.345506109,-1.5793150569999999,0.697051856,0.100554049,0.142607313,-0.6954644790000001,0.559116508,398714044.5,327332064.8,453976.5143,17.37846705,0.604832953,-17.3719844,-5.5214142829999995,4.747302929,0,0,0.0,39.8714138,32.7364372,-0.9728080990000001,-276.4266542,-54.00251552,0.639254605,-17.33260775,-5.645329063999999,0.192561727,1.3909071380000002,-3.0076029039999996,-1.5507632880000002,54.171994999999995,-0.097506465,-0.154071488,-0.002735475,0.5589484,43067061,0,1,0,0,0
