timestamp,control[0],control[1],control[2],control[3],control[4],output[2],output[3],output[4],output[5],output[6],output[7],indicated_airspeed_m_s,true_airspeed_m_s,indicated_airspeed_m_s.1,equivalent_airspeed_m_s,true_airspeed_m_s.1,equivalent_ground_minus_wind_m_s,true_ground_minus_wind_m_s,differential_pressure_raw_pa,differential_pressure_filtered_pa,temperature,gyro_bias[0],gyro_bias[1],gyro_bias[2],accel_bias[0],accel_bias[1],accel_bias[2],instance_count,seq_reached,seq_current,seq_total,item_changed_index,item_do_jump_remaining,valid,warning,finished,failure,stay_in_failsafe,flight_termination,item_do_jump_changed,execution_mode,nav_roll,nav_pitch,nav_bearing,target_bearing,xtrack_error,wp_dist,acceptance_radius,rollspeed_integ,pitchspeed_integ,yawspeed_integ,additional_integ1,x,y,z,temperature.1,pressure,temperature.2,gyro_rad[0],gyro_rad[1],gyro_rad[2],accelerometer_m_s2[0],accelerometer_m_s2[1],accelerometer_m_s2[2],device_id,x.1,y.1,z.1,temperature.3,altitude_sp,altitude_filtered,height_rate_setpoint,height_rate,airspeed_sp,airspeed_filtered,airspeed_derivative_sp,airspeed_derivative,throttle_integ,pitch_integ,baro_alt_meter,baro_temp_celcius,baro_pressure_pa,rho,xyz[0],xyz[1],xyz[2],xyz[0].1,xyz[1].1,xyz[2].1,roll_body,pitch_body,yaw_body,q_d[0],q_d[1],q_d[2],q_d[3],thrust_body[0],lat,lon,alt,vel_m_s,vel_n_m_s,vel_e_m_s,vel_d_m_s,cog_rad,ground_contact,maybe_landed,landed,ref_lat,ref_lon,x.2,y.2,z.2,vx,vy,vz,ax,ay,az,yaw,dist_bottom,roll,pitch,yaw.1,thrust_body[0].1,timestamp.1,isTakeoff,isClimbing,isDescending,isCruise,isLand
41503486.0,-0.013417862,0.082457328,-0.04388165,0.2634616,0.0,1478.0,1500.0,1263.0,1507.0,1492.0,1540.0,14.69190359,15.01577736,15.57972534,15.4916425,15.83307028,15.14516986,15.47896177,149.27669550000005,149.27669550000005,12.07626837,-0.001631601,-0.005911853000000001,0.000791412,-0.189853186,0.192486802,-0.071471564,2.0,-0.07561512299999999,0.924384877,11.0,0.0,0.0,1.0,0.0,0.0,0.0,0.0,0.0,0.0,0.0,0.001299025,0.244677721,-1.5535240030000002,-1.586283298,-1.7844467169999998,318.1009769,47.25361988,-0.02132973,0.035942531,-0.042576755,0.0,0.141330893,0.175866553,-9.869804824,-340.26352,960.3515419,12.07654349,-0.001066507,-0.007941513,-0.002043366,0.094285204,0.19704315100000006,-9.820708961000001,2294028.0,-0.001183323,-0.003872288,-0.009458721,-340.26352,50.50630799,50.36866711,2.403067886,0.052878256,15.33053579,15.15368573,0.0035369990000000007,1.061050257,-0.269423632,90.87660001,449.93428660000006,12.076538,96036.17666,1.141068601,0.338990044,-0.074232185,-0.018722077,0.011311729,0.012314583999999998,-0.000181312,-0.003761312,0.293335778,-1.558858544,0.7038695159999999,0.101396214,0.105260821,-0.6951301670000001,0.60214178,398713998.9,327335172.5,450590.6555,15.07098415,0.159507901,-15.07098415,-0.0034446890000000003,4.723000947,0.0,0.0,0.0,39.8714138,32.7364372,-1.4846287830000002,-249.83148140000003,-50.35346828,0.224925414,-15.06356192,0.06919405299999999,0.057060367,0.141795434,0.06262447,-1.57372395,50.52294828,-0.062009217,0.366319433,-0.007968062,0.59507,41503486.0,0.0,1.0,0.0,0.0,0.0
41525410.0,-0.014612338280561122,0.08707198406412825,-0.04376670955911824,0.3380986725450902,0.0,1478.0,1500.0,1263.0,1506.4549098196392,1492.5450901803608,1540.5450901803608,14.67764449965932,15.00108652008016,15.627038142885771,15.538940738076152,15.881413014428858,15.190759283967935,15.525557959178357,150.19363295571142,150.19363295571142,12.076246500981963,-0.0016307299458917838,-0.005911391308617234,0.0007911438156312625,-0.18984206070941884,0.1924786032985972,-0.07135077692184369,2.0,-0.07419760508416834,0.9258023949158317,11.0,0.0,0.0,1.0,0.0,0.0,0.0,0.0,0.0,0.0,0.0,0.0001463811202404811,0.254213358002004,-1.5543794206513026,-1.5863626816633265,-1.7569627806152304,317.7236768695391,47.55589034573146,-0.02138032145490982,0.03601797039078156,-0.042567030591182366,0.0,0.14001984645891782,0.17042091785771543,-9.868663222557114,-340.26352,960.3489979641282,12.076540497454909,0.0012401516613226452,-0.007149816935871744,0.0013629428737474952,0.08400255197595191,0.20752380757715433,-9.836086170298598,2294028.0,-0.001352044763527054,-0.0018140340200400802,-0.007879797521042085,-340.26352,50.57879391865732,50.37142315681363,2.545164814513026,0.08152368416833666,15.330539458456913,15.205249533126253,0.0025057952164328663,1.2421020094649298,-0.2694052619158317,90.87510475132265,450.0358620292585,12.076538,96034.9925496994,1.1410545551162323,0.1727469913987976,-0.33334799306412827,0.02323629250701403,0.006687891436873747,0.00990404641282565,-0.0012077195350701404,-0.004549348873747494,0.3033395051983968,-1.559200889523046,0.7032629058517034,0.10461493008817635,0.1090320426753507,-0.694669199496994,0.6020601412985972,398713999.2270541,327335131.0731463,450591.2761941884,15.070447699498997,0.16064191587775553,-15.07217916755511,-0.004164351941883767,4.723080112082164,0.0,0.0,0.0,39.8714138,32.7364372,-1.4808102066152307,-250.1790654032064,-50.354089143166334,0.22492827408817634,-15.061310070701403,0.0692084466513026,0.05232367941683367,0.12944758736272544,0.046023238897795596,-1.5737193309058115,50.523569143166334,-0.06534084633867736,0.35389765905210424,-0.007393940861723447,0.5922487985571142,41525409.52705411,0.0,1.0,0.0,0.0,0.0
41548081.0,-0.01581759111422846,0.09276656996793588,-0.04367066271543086,0.40522154589178355,0.0,1478.0,1500.0,1263.0,1506.0,1493.0,1541.0,14.666897125450902,14.990016139378756,15.67435094486974,15.586238976152304,15.929755747955912,15.236348707935871,15.572154149258516,151.11057041142283,151.11057041142283,12.076224631963928,-0.0016298588016032064,-0.005910929527054108,0.0007908757214428857,-0.18983093550901806,0.19247040468737475,-0.07122998984368736,2.0,-0.07278008716833667,0.9272199128316634,11.0,0.0,0.0,1.0,0.0,0.0,0.0,0.0,0.0,0.0,0.0,-0.0010062626693386773,0.26374899491382764,-1.5552348383026053,-1.5864420654168334,-1.7294788443206413,317.34637683006014,47.85816081146292,-0.021430768621242484,0.036091726655310616,-0.04255726091182365,0.0,0.1367773458997996,0.16466093264529058,-9.86745570666533,-340.26352,960.3463907306613,12.076538,0.0029334750220440884,-0.006325170771543086,0.004449687809619239,0.08248362569338677,0.21017384876352704,-9.850919934166333,2294028.0,-0.00154930302004008,0.00022180094188376746,-0.006161540785571143,-340.26352,50.65127984731463,50.37417920362725,2.687261743026052,0.11016911224649298,15.330543126012024,15.256813336252504,0.001474591523046092,1.4231537618396792,-0.26938689183166337,90.87360949174348,450.12539562985967,12.076538,96033.9520426052,1.1410422085911824,0.06524775817635271,-0.5259631277615231,0.09053704553106212,0.0030184081022044088,0.007673431541082164,-0.002440248533066132,-0.005357360336673347,0.3124716567955912,-1.559545546819639,0.7027014550521044,0.10752387221843687,0.11250326260721442,-0.6942525844088177,0.6016813664248496,398713999.5541082,327335089.6012024,450591.88800561125,15.07,0.16177593066533066,-15.073551686212426,-0.005327790995991984,4.723159277254509,0.0,0.0,0.0,39.8714138,32.7364372,-1.476983008987976,-250.52465183927853,-50.35467968589178,0.22498351661122246,-15.059060299158316,0.06923488127454909,0.04704951255511022,0.12077836402204409,0.027799714328657313,-1.573713644076152,50.52415968589178,-0.0685674094248497,0.341447023240481,-0.006823286797595191,0.5895668824849699,41548081.01002004,0.0,1.0,0.0,0.0,0.0
41574526.0,-0.017077205671342684,0.1039088019519038,-0.043669923573146294,0.4344394588376754,0.0,1478.0,1500.0,1263.0,1506.0,1493.0,1541.0,14.673864408176353,14.997208964068136,15.72166374230461,15.633537214228456,15.978098476933868,15.281938131903807,15.618750343887776,152.02750786713426,152.02750786713426,12.076202762945892,-0.0016289872024048096,-0.005910467290581162,0.0007906080821643286,-0.18981981076352705,0.19246220653106216,-0.07110920276553107,2.0,-0.07136256925250502,0.928637430747495,11.0,0.0,0.0,1.0,0.0,0.0,0.0,0.0,0.0,0.0,0.0,-0.0021589060040080156,0.2732846313707415,-1.5560902559539078,-1.5865214496252504,-1.7019949084809618,316.9690767450902,48.16043127719439,-0.021480487931863725,0.03615699248296593,-0.04254726286773547,0.0,0.1237917328496994,0.15731522596793587,-9.865915688997998,-340.26352,960.3434641959919,12.076538,0.0015328625330661328,-0.0053343096573146296,0.005924410214428858,0.12517282704008015,0.17332278564529058,-9.863012317749499,2294028.0,-0.00189051203006012,0.002144544412825651,-0.0037404251783567143,-340.26352,50.72376577597195,50.37693525044088,2.829358671539078,0.13881453986973946,15.330546789018037,15.308377139378758,0.0004433882845691385,1.604205513759519,-0.269368521747495,90.87211422761523,450.1541848947896,12.076538,96033.63593390782,1.1410384343867734,0.2540784582645291,-0.3831193101422846,0.28567604429659316,0.0041631116533066125,0.006350426811623247,-0.004712545799599198,-0.00626613250501002,0.3172071936933868,-1.5599018657294588,0.7023678080781564,0.10887017682765532,0.11446114041082164,-0.6940597026132265,0.5998037046372745,398713999.88116235,327335047.9018036,450592.45500841684,15.07,0.162909944997996,-15.075819599318637,-0.008729833993987975,4.7232384428817635,0.0,0.0,0.0,39.8714138,32.7364372,-1.473112321981964,-250.86016165891783,-50.355117278837675,0.22530299941683368,-15.056821008737476,0.06932205591182365,0.03906406133266534,0.13066575153306612,0.001392620492985979,-1.5737025711142283,50.524597278837675,-0.07126397163727455,0.3288507953607214,-0.006270122196392786,0.5875875837274549,41574525.51503006,0.0,1.0,0.0,0.0,0.0
41599861.0,-0.01923241455711423,0.11403337561923849,-0.04352009266733467,0.4605098501202405,0.0,1478.0,1500.0,1287.7094188376755,1506.1803607214429,1492.8196392785571,1541.7214428857715,14.683998861242484,15.007638352885772,15.768976541543086,15.680835454108216,16.02644120771543,15.32752755767535,15.665346536713427,152.9444453228457,152.9444453228457,12.076180893927855,-0.0016281156032064128,-0.0059100050541082165,0.00079034026252505,-0.18980868583767535,0.19245400819438882,-0.07098841568737475,2.0,-0.06994505133667335,0.9300549486633267,11.0,0.0,0.0,1.0,0.0,0.0,0.0,0.0,0.0,0.0,0.0,-0.0033115493386773544,0.282820268008016,-1.5569456736052105,-1.5866008336533066,-1.6745109724609217,316.5917766781563,48.462701741122245,-0.021530286420841684,0.03621719738877756,-0.04253935267935872,0.0,0.1731870669739479,0.15114597458116233,-9.865173037062124,-340.26352,960.3411292444889,12.076537485971944,0.0012667835511022043,-0.0031718166392785577,0.005526609032064129,0.14827515001002003,0.146976531004008,-9.868431119268537,2294028.0,-0.0014322043266533067,0.004181305619238476,-0.0014917612945891787,-340.26352,50.799514460741484,50.3810994203006,2.9643704755831664,0.1749801885751503,15.33055105983968,15.367100467755511,-0.0007309934108216431,1.780885641751503,-0.26935243196392783,90.87535045286573,450.16284357655314,12.076537004408817,96033.55016028056,1.1410374045511023,0.4305895667895792,-0.3016094579739479,0.35916293711022046,0.005587517168336673,0.005672768615230461,-0.005440444509018036,-0.007186083430861724,0.3211473545991984,-1.5602457321743486,0.7020821967555111,0.10993570668737475,0.11614404296392786,-0.693904845006012,0.5977735269378758,398714000.2082164,327335006.1843687,450593.02201122243,15.07,0.16404395933066132,-15.078087512424847,-0.012131876991983967,4.723317608509018,0.0,0.0,0.0,39.8714138,32.7364372,-1.469252945757515,-251.19781333426855,-50.35555250725451,0.22555238881563128,-15.057328309098196,0.06926795111022044,0.030802774178356716,0.08425623587775552,-0.02597020137875751,-1.573694238553106,50.52503248921844,-0.07409038869939881,0.31674669451503007,-0.00565651997995992,0.5851876368737475,41599861.34268537,0.0,1.0,0.0,0.0,0.0
41622955.0,-0.023198714196392786,0.1221000180240481,-0.04306876508416834,0.4802152531503006,0.0,1478.0,1500.0,1362.3867735470942,1506.7254509018037,1492.2745490981963,1543.9018036072143,14.700538036553107,15.024612793607215,15.816289344428858,15.72813369763527,16.07478394214429,15.373116987094187,15.711942725891785,153.86138277855713,153.86138277855713,12.07615902490982,-0.001627244004008016,-0.0059095428176352705,0.0007900720781563126,-0.1897975605470942,0.19244580949298598,-0.07086762860921843,2.0,-0.06852753342084168,0.9314724665791584,11.0,0.0,0.0,1.0,0.0,0.0,0.0,0.0,0.0,0.0,0.0,-0.004464192673346693,0.29235590501002007,-1.557801091256513,-1.5866802173166334,-1.6470270360761523,316.2144766476954,48.764972201402806,-0.021580245026052103,0.036267167985971946,-0.04253566459919839,0.0,0.3487305387174349,0.1473557772264529,-9.866042835827656,-340.26352,960.3399906056112,12.07653593246493,0.0032949834388777558,0.0013599764509018043,0.0013421490400801605,0.13176845226252504,0.14187333350501002,-9.86035445483567,2294028.0,0.0006429038416833673,0.006448636024048096,0.0004081668817635274,-340.26352,50.881861163426855,50.38811112787575,3.085054583478958,0.2263533954689379,15.330556559799598,15.440301947194389,-0.0021949137635270542,1.9487253746893787,-0.2693409534549098,90.88815480108217,450.1307937456914,12.07653399551102,96033.9301753507,1.1410419244388776,0.5821877234869739,-0.34413051371743486,0.18664223788777554,0.007577542210420842,0.006300144519038076,-0.0030452261362725447,-0.008128640288577155,0.32347908849899804,-1.5605644169679358,0.7018937241943888,0.11043344760921843,0.11727088445490982,-0.6938268807575151,0.5954349281723447,398714000.5352705,327334964.43046093,450593.589014028,15.07,0.16517797366332668,-15.080355425531062,-0.01553391998997996,4.723396774136273,0.0,0.0,0.0,39.8714138,32.7364372,-1.4654164424468938,-251.53979631783568,-50.35598295406814,0.22566003376953908,-15.063389826372745,0.06892814788777556,0.021983685472945894,-0.07599812840280559,-0.0552657177234469,-1.5736914476913828,50.52546288152305,-0.0771794011242485,0.3056377838937876,-0.0049206994749498995,0.5819370460921844,41622955.178356715,0.0,1.0,0.0,0.0,0.0
41644967.0,-0.026033120539078157,0.12920461958717436,-0.042819526819639284,0.49709263018837674,0.0,1478.0,1500.0,1414.3386773547095,1507.5406492985971,1491.4593507014029,1547.7054108216432,14.728249944428859,15.052896216793586,15.86360214731463,15.775431938456913,16.123126673867738,15.418706413807614,15.758538917775551,154.77832023426853,154.77832023426853,12.076137155891784,-0.0016263726753507014,-0.005909080581162325,0.0007898038937875751,-0.18978643552705413,0.19243761079158317,-0.07074684153106212,2.0,-0.06711001550501002,0.93288998449499,11.0,0.0,0.0,1.0,0.0,0.0,0.0,0.0,0.0,0.0,0.0,-0.005616836278557113,0.30189154201202406,-1.5586565089078157,-1.58675960097996,-1.6195430996913827,315.8371766172345,49.06724266438878,-0.021628918561122243,0.03630420130861724,-0.042537414124248496,0.0,0.8483266152805607,0.14967695520240482,-9.871054738681362,-340.26352,960.3419251511021,12.076531708717434,0.0074776261422845654,0.0018811164949899817,-0.0009324318637274547,0.7394883578617228,0.1450306299038076,-9.850859856454909,2294028.0,0.006871291068136267,0.009308302871743484,0.0014122537254509016,-340.26352,50.976107334248496,50.40025833555111,3.1798988256432863,0.3051532905591182,15.33056427278557,15.539614634248498,-0.004181013304609217,2.1006215364749496,-0.2693377916492986,90.9182151766533,450.1008464248497,12.076525857154309,96034.27329402807,1.1410460079438878,0.5382238096533067,-0.22029074156513043,-0.03452892860921834,0.007977096,0.0066318972064128255,-0.0026344236252505,-0.009122887266533066,0.32561336257915835,-1.560856197262525,0.7017282668336673,0.11084313200801603,0.11834758521442885,-0.6937463590841684,0.5928705983146293,398714000.86232466,327334922.7036072,450594.1560168337,15.07,0.166311987995992,-15.082623341342686,-0.01893596325851703,4.723475939763527,0.0,0.0,0.0,39.8714138,32.7364372,-1.4616386960601204,-251.89290576332667,-50.35640111561123,0.22540356153907817,-15.08371915276553,0.06785443596793587,0.011731701897795599,-0.5287000895070136,-0.0895259902805611,-1.5737028921603207,50.52588090198397,-0.08038161551302604,0.2933967088937876,-0.004032419060120241,0.5784826972945892,41644966.8496994,0.0,1.0,0.0,0.0,0.0
41665880.0,-0.027718864795591183,0.1353329278517034,-0.042775371789579165,0.5111000845531062,0.0,1478.0,1500.0,1443.2284569138276,1508.6299575150301,1490.3700424849699,1553.1563126252504,14.767300106833668,15.092656162925852,15.910914950200402,15.822730176533065,16.17146940284569,15.464295837775552,15.805135112404809,155.69525768997997,155.69525768997997,12.076115286873748,-0.001625501621242485,-0.005908618344689379,0.0007895357094188376,-0.18977531078156315,0.19242941209018036,-0.07062605445290582,2.0,-0.06569249758917836,0.9343075024108217,11.0,0.0,0.0,1.0,0.0,0.0,0.0,0.0,0.0,0.0,0.0,-0.006769480158316633,0.31142717901402805,-1.5595119265591184,-1.5868389846432867,-1.5920591633066132,315.45987658677353,49.36951313012025,-0.02167628798797595,0.03632810569338677,-0.04254468181162324,0.0,1.6767760759939878,0.1582000474028056,-9.880270110128256,-340.26352,960.3469784096192,12.076524775170341,0.013846629332665328,-0.0016678135891783556,-0.0012688391743486973,1.9806826683386771,0.15657079788777556,-9.839926317697394,2294028.0,0.01731448741282565,0.012769081517034066,0.001507227513026052,-340.26352,51.08242926162325,50.417617124809624,3.248520389250501,0.4117861951523045,15.330574231583165,15.665425361623248,-0.006697028022044088,2.2363379260541083,-0.26934306975751504,90.96578722442885,450.0730327623247,12.076512513346694,96034.5789696994,1.1410496486012025,0.2958006094288578,0.07237446334068126,-0.30507131004408816,0.006762616,0.006663647074148297,-0.004237435729458918,-0.010169590144288577,0.32754725150901803,-1.561120674472946,0.7015861656392786,0.11116345534268537,0.11937340241683367,-0.6936632420981964,0.5900771932004008,398714001.18937874,327334881.0042084,450594.7230196393,15.07,0.16744600232865733,-15.084891259899798,-0.022338006801603204,4.723555105390782,0.0,0.0,0.0,39.8714138,32.7364372,-1.4579205770701404,-252.25730650721442,-50.356806809879764,0.22477757779559118,-15.118527663226452,0.06603594262925852,2.559538076152626e-05,-1.2781822044248496,-0.12882457099398797,-1.5737287828537074,50.52628636731463,-0.08369870893186372,0.28000669670941886,-0.002989420070140281,0.5748215718436873,41665880.3246493,0.0,1.0,0.0,0.0,0.0
41686794.0,-0.032337410735470945,0.14204385679759518,-0.04240769724048096,0.5267146254509018,0.0,1478.0,1500.0,1468.8717434869739,1510.081141482966,1488.918858517034,1558.246492985972,14.856993557815631,15.184327189218436,15.958227753086172,15.870028414609218,16.21981213543086,15.509885261743486,15.851731303426853,156.61219510961925,156.61219510961925,12.076093417855711,-0.0016246302064128256,-0.005908156468937876,0.0007892675250501001,-0.18976418567535072,0.192421213749499,-0.0705052673747495,2.0,-0.0642749796733467,0.9357250203266534,11.0,0.0,0.0,1.0,0.0,0.0,0.0,0.0,0.0,0.0,0.0,-0.007927854819639278,0.31829658856112225,-1.5601656370761523,-1.5869004206112225,-1.5704378911302603,315.07134221162323,49.59665453212425,-0.02172284615230461,0.036338923104208415,-0.04256217811623246,0.0,2.5052255367074148,0.16672313924248497,-9.88948548157515,-340.26352,960.3520316681362,12.076517838016033,0.02442898017835671,0.004890205464929858,-0.0031507088096192383,2.81043179601002,0.17003151645290582,-9.90165275885972,2294028.0,0.027757683757515028,0.016229859801603207,0.0016022016613226452,-340.26352,51.188751188998,50.43497591767535,3.3171419528577153,0.5184191001062124,15.33058419038076,15.791236088997996,-0.0092130431002004,2.372054315993988,-0.2693483478657315,91.0133592685972,450.04455349659327,12.076508,96034.90219807616,1.1410534977555111,0.022805260507014063,0.09282489449899803,-0.035862410356713614,0.005670989066132264,0.006725160428857716,-0.004114958094188377,-0.011267645326653307,0.32926231959719443,-1.5614084651102205,0.7014511071703406,0.11139147330661323,0.12033871905811624,-0.693596438739479,0.5871648939378757,398714001.552505,327334839.26873744,450595.2900224449,15.07,0.16858001666132266,-15.087159174849699,-0.025740049983967936,4.723634271018036,0.0,0.0,0.0,39.8714138,32.7364372,-1.454202458440882,-252.6217072511022,-50.3572125041483,0.22415159369138277,-15.15333617729459,0.06421744929058117,-0.011680511136272543,-2.027664319703407,-0.16812315170741485,-1.5737546731863727,50.52669182903808,-0.08657796227054107,0.26978245165931863,-0.001987106490981964,0.5714760956913828,41686793.7995992,0.0,1.0,0.0,0.0,0.0
41707707.0,-0.038454944202404806,0.1490525696472946,-0.041874668270541086,0.5431505661322645,0.0,1478.0,1500.0,1492.8557114228456,1511.7172841683366,1487.2827158316634,1563.1523046092184,14.972571356292585,15.302530545370741,16.005540555971944,15.91732665268537,16.268154869859718,15.555474685711422,15.89832749260521,157.52913251082168,157.52913251082168,12.076071548837675,-0.0016237586072144288,-0.00590769477755511,0.0007889993406813628,-0.18975306038476955,0.19241301559318635,-0.0703844802965932,2.0,-0.06285746175751504,0.937142538242485,11.0,0.0,0.0,1.0,0.0,0.0,0.0,0.0,0.0,0.0,0.0,-0.009089158547094188,0.32380325963126255,-1.5607162528356715,-1.5869526833126253,-1.551813091771543,314.67706583807615,49.78539663488978,-0.021768989671342685,0.036343051617234466,-0.04258490238076153,0.0,3.333674997420841,0.1752462308977956,-9.898700853022044,-340.26352,960.3570849266533,12.076510899018038,0.03716481982565129,0.016613998523046083,-0.0058224814108216415,3.4298867191362725,0.18447384975951903,-10.000516523092184,2294028.0,0.038200880102204404,0.019690637901803604,0.001697175993987976,-340.26352,51.29507311637275,50.45233471238477,3.38576351646493,0.6250520052444889,15.330594149178356,15.917046816372746,-0.01172905836272545,2.5077707061182366,-0.2693536259739479,91.06093131092184,450.01573403366734,12.076508,96035.23439783568,1.1410574534749498,-0.265815853304609,-0.025856669813627164,0.5092193663486968,0.004642153699398799,0.00680188623246493,-0.0031105634809619246,-0.01239194724248497,0.3308655459218437,-1.561708171498998,0.7013196483166332,0.11157231296993989,0.12127311319038077,-0.6935379734569137,0.5841918265551101,398714001.93406814,327334797.5148297,450595.8570252505,15.07,0.16971403099398796,-15.089427087955912,-0.029142092981963925,4.723713436645291,0.0,0.0,0.0,39.8714138,32.7364372,-1.450484339995992,-252.98610799499,-50.35761819841683,0.2235256094028056,-15.188144693206414,0.062398955951903805,-0.023386617653306605,-2.7771464351663324,-0.20742173242084166,-1.5737805633346693,50.52709728891784,-0.08923343067935871,0.2611762653667335,-0.0010055876773547101,0.5682919514028056,41707707.2745491,0.0,1.0,0.0,0.0,0.0
41730424.0,-0.04099192190781563,0.15354406636472948,-0.04198418564328658,0.553415997244489,0.0,1478.0,1500.0,1512.7815631262524,1514.7054108216432,1484.2945891783568,1568.058116232465,15.016203966392785,15.347109315851704,16.052853358857718,15.964624890761524,16.31649760428858,15.601064109679358,15.944923686292585,158.44606995711425,158.44606995711425,12.076049684328657,-0.001622887008016032,-0.00590723263527054,0.0007887316072144289,-0.1897419355450902,0.19240481698597195,-0.07026369321843688,2.0,-0.061439943390781564,0.9385600566092185,11.0,0.0,0.0,1.0,0.0,0.0,0.0,0.0,0.0,0.0,0.0,-0.01025860375751503,0.3255226765931864,-1.560980352963928,-1.5869794515751503,-1.5415159405591181,314.26683155370745,49.86742132332665,-0.02181510523446894,0.03634134365731463,-0.04261913546292585,0.0,3.882410532683367,0.18614515932665332,-10.028650838496993,-281.91451443386774,960.3556531350703,12.076503797695391,0.043622267138276556,0.029728885418837676,-0.00149667059519038,3.942638844817636,0.17245310295591182,-10.090863770841683,2294028.0,0.044418984963927856,0.03591978363727455,0.001011501779559118,-281.91451443386774,51.4013950437475,50.469693507094185,3.4543850800721443,0.7316849099318637,15.33060411248497,16.042857543747495,-0.014245073625250501,2.643487096242485,-0.26935890408216434,91.10850335775551,450.0833289194389,12.076501146292587,96034.45366823647,1.141048160797595,-0.3259322210240481,-0.03777131213226453,0.5698145773727454,0.004399974244488978,0.008230049060120242,-0.0017527222745490978,-0.013509056823647295,0.3322608397815631,-1.5619695016352706,0.7012127361062124,0.11168145969739479,0.1221340220521042,-0.6934771337254508,0.5812096946933867,398714002.2705411,327334756.302004,450596.3342985972,15.139105413326654,0.16995057127855712,-15.156313319198397,-0.042416350959919843,4.72368297586974,0.0,0.0,0.0,39.8714138,32.7364372,-1.4467141883847694,-253.3346603971944,-50.3584158751503,0.2236686665470942,-15.26208814448898,0.053902400388777555,-0.0072365897014027986,-3.273335387703407,-0.320863466991984,-1.5737956895551102,50.52789506943888,-0.09134757298597194,0.2517374843847695,-0.0002128298857715429,0.5655380806112225,41730424.35671343,0.0,1.0,0.0,0.0,0.0
41753518.0,-0.04278096129859718,0.1575097446012024,-0.04222792380761523,0.562392477468938,0.0,1478.0,1500.0,1531.8597194388778,1517.9759519038075,1481.0240480961925,1572.9639278557115,15.044808026032063,15.376308728436875,16.100166161743488,16.011923128837676,16.364840338717435,15.646653533647294,15.991519880921844,159.36300741282565,159.36300741282565,12.076027820761523,-0.0016220154088176352,-0.005906770398797594,0.0007884639679358717,-0.1897308107995992,0.19239661828456914,-0.07014290614028056,2.0,-0.06002242492985972,0.9399775750701402,11.0,0.0,0.0,1.0,0.0,0.0,0.0,0.0,0.0,0.0,0.0,-0.011429749633266532,0.326450978252505,-1.5611846031603207,-1.5870008943326652,-1.53295834251503,313.8532638390782,49.92715392965932,-0.02186121495791583,0.0363384165230461,-0.04265577260921844,0.0,4.372716936851703,0.19754037365931862,-10.183820943346692,-211.37704992725455,960.3528666885775,12.07649666246493,0.04876822805210421,0.04313435636072144,0.004290857645290579,4.433101941699399,0.15490451275150302,-10.17943201292585,2294028.0,0.04975451516032064,0.054816099501002,0.00016275875751503035,-211.37704992725455,51.50771697112224,50.4870523018036,3.523006643679359,0.83831781452505,15.330614076733468,16.168668271122243,-0.016761088887775548,2.7792034863667334,-0.2693641821903808,91.15607540553107,450.17106369138276,12.076492860921846,96033.44046006011,1.1410361006773548,-0.33831648622645294,-0.027383530745490985,0.5292059280100201,0.004322118468937875,0.009940512066132265,-0.00032105000200400875,-0.014624664006012025,0.33361269885971945,-1.5622228153987978,0.7011109514168335,0.11177563056713427,0.12297958065731462,-0.693415797997996,0.5782256693627255,398714002.5975952,327334715.2022044,450596.7928284569,15.222646179659318,0.16999963920641284,-15.236697599118237,-0.05775280495591181,4.723629615356714,0.0,0.0,0.0,39.8714138,32.7364372,-1.4429331676232464,-253.67990225691383,-50.35929543266533,0.2239723679018036,-15.344206448937875,0.04401087182765531,0.014732275228456906,-3.7166142128737474,-0.4497928825911823,-1.573808567310621,50.52877480138277,-0.09334863828456913,0.2421247836232465,0.0005404978256513022,0.5628740891723447,41753518.19238477,0.0,1.0,0.0,0.0,0.0
41776611.0,-0.043573545939879756,0.1593899374268537,-0.04122252780360722,0.5706730924829659,0.0,1478.0,1500.0,1539.0340681362725,1518.5410821643286,1480.4589178356714,1573.472134769539,15.180784933567134,15.515333411362725,16.14747895921844,16.059221366913828,16.41318306773547,15.69224295761523,16.03811607014028,160.2799448685371,160.2799448685371,12.076005951783566,-0.0016211443507014027,-0.005906308162324649,0.0007881957875751503,-0.18971968551302604,0.1923884201242485,-0.07002211906212426,2.0,-0.058604907010020045,0.9413950929899799,11.0,0.0,0.0,1.0,0.0,0.0,0.0,0.0,0.0,0.0,0.0,-0.01260089496793587,0.32737927991182364,-1.5613888533567133,-1.5870223376312624,-1.5244007439298597,313.4396961244489,49.98688653058116,-0.021908809951903807,0.03633236085170341,-0.042708067050100204,0.0,4.811102586130261,0.20937659268136272,-10.361401922044088,-130.00878958857726,960.3488764424851,12.07648950018036,0.054228035018036067,0.07322894934669336,-0.0003390977014028013,4.877328877218436,0.18274334459118233,-10.420482603507013,2294028.0,0.054305779765531054,0.07608249159719437,-0.000830888773547093,-130.00878958857726,51.61403889849699,50.504411096513024,3.5916282072865733,0.9449507191182362,15.330624035571143,16.29447899849699,-0.019277103609218433,2.914919876490982,-0.2693694602985972,91.20364744789579,450.1437353931864,12.076484250901805,96033.75109597194,1.1410398466492986,-0.29004861317234476,-0.019989589979959928,0.49785703632264533,0.008739750789579153,0.009010665092184369,0.0009806132124248483,-0.015771148042084168,0.33473136829859723,-1.5624425436513028,0.7010357279098196,0.11177620125651302,0.12375585910220441,-0.6933532610681363,0.5750894782004008,398714002.9246493,327334674.15651304,450597.2464344689,15.309937392084167,0.17,-15.32058880028056,-0.0736250374288577,4.723570305104208,0.0,0.0,0.0,39.8714138,32.7364372,-1.43914248854509,-254.02220236112225,-50.360247754909814,0.22441881971743485,-15.433589019519038,0.032879755951903816,0.04187182087975949,-4.112876529066132,-0.5924848182705409,-1.5738194468496993,50.52972735216433,-0.0959792938036072,0.230137382,0.0018800052765531048,0.5594190442665331,41776611.48697395,0.0,1.0,0.0,0.0,0.0
41799705.0,-0.04448685548296594,0.16181328590581162,-0.04040610042284569,0.5787204065731463,0.0,1478.0,1500.0,1546.9819639278558,1519.1723446893789,1479.8276553106211,1574.4005895791583,15.308742011122245,15.646148894649299,16.19479175751503,16.10651960498998,16.461525797575153,15.737832381583166,16.08471226018036,161.1968823242485,161.1968823242485,12.075984082765531,-0.0016202732104208418,-0.005905845925851703,0.0007879276032064129,-0.1897085603086172,0.19238022188176354,-0.06990133198396795,2.0,-0.05718738909418838,0.9428126109058116,11.0,0.0,0.0,1.0,0.0,0.0,0.0,0.0,0.0,0.0,0.0,-0.013772040298597193,0.3283075815711423,-1.561593103553106,-1.5870437808476954,-1.5158431453406813,313.0261284184369,50.04661913232465,-0.021955230819639276,0.03632576850501002,-0.04276101975350702,0.0,5.227194586755512,0.21828678294188378,-10.550726708056112,-61.64285159366734,960.3451082298598,12.07648064785571,0.05967501060521042,0.1019251850260521,-0.004459992062124249,5.286535324637274,0.20659099510621243,-10.653539434669339,2294028.0,0.05854107694388778,0.09735879563727454,-0.001746966635270541,-61.64285159366734,51.720138359038074,50.523686450340676,3.6566986690621244,1.0542655043266533,15.330635598036073,16.419720778997995,-0.021781707298597193,3.0400405616452906,-0.26937876515430864,91.25542829747495,450.1046504068137,12.076474340721443,96034.19966693387,1.1410452150480963,-0.2120734014008016,-0.009327789991983968,0.40318985239078164,0.012996069416833667,0.008971433855711423,0.0017045521563126254,-0.016930538643286572,0.3358253419438878,-1.5626662972705412,0.7009612370581163,0.11176396777755511,0.12452771161923848,-0.6932925991402805,0.5720032301823647,398714003.2517034,327334633.11122245,450597.70001262525,15.397256385591183,0.17,-15.404505977775552,-0.08950123863126254,4.723510950779559,0.0,0.0,0.0,39.8714138,32.7364372,-1.4353447555511023,-254.36778267815632,-50.36142475386773,0.2249477858517034,-15.526101955551102,0.019517624422845693,0.06716329837074148,-4.492114941897795,-0.7524736862424849,-1.5738369708997997,50.53090456196393,-0.09837886006813627,0.21854682331062122,0.0031255259498997995,0.5562427467094189,41799704.86372746,0.0,1.0,0.0,0.0,0.0
41822799.0,-0.04608240421242485,0.16721152382164328,-0.04064531760921843,0.5855527086172345,0.0,1478.0,1500.0,1559.5190380761524,1520.2625250501003,1478.7374749498997,1577.740588777555,15.389753106593187,15.728913147314628,16.2421045604008,16.153817843066133,16.50986853200401,15.783421805551102,16.13130845480962,162.11381977995993,162.11381977995993,12.075962213747495,-0.001619401611222445,-0.005905383689378757,0.0007876594188376754,-0.18969743556312624,0.19237202318036073,-0.06978054490581162,2.0,-0.05576987117835672,0.9442301288216433,11.0,0.0,0.0,1.0,0.0,0.0,0.0,0.0,0.0,0.0,0.0,-0.014943185629258516,0.32923588323046094,-1.561797353749499,-1.5870652236052105,-1.5072855467515032,312.6125607583166,50.10635173865732,-0.021995340190380762,0.03631644146693387,-0.04281686042685371,0.0,5.526608155813627,0.21159677178356714,-10.80171001482966,-62.94910093779559,960.3425699629258,12.076462796152304,0.06504127080561121,0.1225159900280561,-0.0054588839899799586,5.511061270993987,0.207392807498998,-10.838009611182365,2294028.0,0.06112460217034068,0.11859438999398796,-0.0022442246072144284,-62.94910093779559,51.8250530543487,50.5531685957515,3.70285744898998,1.1778628630440882,15.330655700961925,16.541932586613225,-0.024225540629258517,3.1087329575410823,-0.2694095147815631,91.32962349266533,450.0074933150301,12.076457519238478,96035.33059823647,1.1410586002825651,0.021718009645290415,0.01885536354709417,-0.02904933657915798,0.016215957448897794,0.013779406152304606,-0.0006430978316633246,-0.018157446154308615,0.3367969951703407,-1.562912813214429,0.7008896002164329,0.11168723706813628,0.12527872651302605,-0.6932419700741482,0.5691889611963927,398714003.5787575,327334592.06593186,450598.15363667335,15.484575379098198,0.17,-15.488423150681363,-0.10537743983366733,4.723451596454909,0.0,0.0,0.0,39.8714138,32.7364372,-1.4315098373627255,-254.73094808416835,-50.36379541647295,0.2259105573787575,-15.634999341362725,-0.005677062390781546,0.0824087615531062,-4.782545914274549,-1.004035860799599,-1.5738899596613227,50.533275339038084,-0.0995229051503006,0.2091633629498998,0.0038473883306613223,0.5545821469178357,41822798.6993988,0.0,1.0,0.0,0.0,0.0
41845893.0,-0.047616647803607214,0.17221760640280562,-0.04087709641482966,0.5916827406813627,0.0,1478.1763527054109,1500.0,1570.8216432865731,1521.1763527054109,1477.8236472945891,1580.4914168657315,15.485994065791584,15.827248118216433,16.28941736328657,16.201116081142285,16.55821126466934,15.829011229519038,16.17790464767535,163.03075723567136,163.03075723567136,12.07594034472946,-0.0016185300120240482,-0.005904921629258516,0.0007873914108216432,-0.18968631064128255,0.19236382465531063,-0.06965975765130261,2.0,-0.054352353262525056,0.9456476467374749,11.0,0.0,0.0,1.0,0.0,0.0,0.0,0.0,0.0,0.0,0.0,-0.016114331136272544,0.33016418488977956,-1.5620016039458917,-1.5870866663627254,-1.4987279481623248,312.198993080561,50.16608434498998,-0.02203565924448898,0.036306994861723445,-0.0428766413486974,0.0,5.782600069513026,0.19910117559919843,-11.075639423887775,-90.1837217486973,960.3404894370741,12.076441595511023,0.06872076393587175,0.14371939424448896,-0.00574698810220441,5.723837957839678,0.2002093663927856,-11.073052609979959,2294028.0,0.06309342341282566,0.13981483459519034,-0.0025856195891783566,-90.1837217486973,51.9295647802004,50.58612233058116,3.742583887963928,1.3063180861142283,15.330678708416833,16.663113820761524,-0.026648704188376754,3.1582326655971946,-0.2694475583567134,91.41144237298597,449.9911907995992,12.076436539358717,96035.52375639278,1.1410608678897796,0.22812871430260503,0.030942045054108247,-0.3895370224308614,0.023135513793587158,0.02014645698997995,-0.002586928693386772,-0.01937011724048096,0.3377046630501002,-1.5631306162925853,0.7008307108537074,0.11159152939679359,0.1260039893266533,-0.6931857001903807,0.5662944259819639,398714003.9234469,327334551.02064127,450598.60726072144,15.571894372605211,0.17,-15.572340325350702,-0.12125364121242484,4.72339224213026,0.0,0.0,0.0,39.8714138,32.7364372,-1.4276610807775552,-255.10065778036073,-50.366610299198406,0.2270347692264529,-15.749994171342685,-0.035275211713426805,0.09391561968537074,-5.039927367164329,-1.2896768663306608,-1.5739561466593186,50.536090299198406,-0.10097361365531062,0.19986180501803608,0.004706194054108215,0.5526683871743487,41845892.53507014,0.0,1.0,0.0,0.0,0.0
41868986.0,-0.0490227079238477,0.17640372782965927,-0.04109332224248497,0.5963443900601203,0.0,1478.7214428857715,1500.0,1579.5430861723446,1521.7214428857715,1477.2785571142285,1582.0103417234468,15.614079285511021,15.958140045430861,16.336730166172345,16.248414319218437,16.606553993647292,15.874600653486974,16.224500836853707,163.94769469138276,163.94769469138276,12.075918475711424,-0.0016176584128256514,-0.005904459937875752,0.0007871237715430862,-0.18967518535070138,0.19235562649899798,-0.06953897002805612,2.0,-0.05293483534669339,0.9470651646533066,11.0,0.0,0.0,1.0,0.0,0.0,0.0,0.0,0.0,0.0,0.0,-0.01728547701202405,0.33109248654909823,-1.5622058541422845,-1.5871081091202404,-1.4901703495731462,311.78542536593187,50.22581695132265,-0.02207641672745491,0.03629729825250501,-0.04294466097194389,0.0,5.947801249280561,0.1744666289058116,-11.397547046813626,-171.63221017194388,960.3393660062125,12.07641339254509,0.06887338046492986,0.16620368772745492,-0.004548899509018036,5.912048011162323,0.17632948615230462,-11.413838782645291,2294028.0,0.06377695450701404,0.16100360243486975,-0.002601119228456914,-171.63221017194388,52.033233933547095,50.62633484328657,3.768860886761523,1.4449306619218436,15.330707788977955,16.782140219478958,-0.029028649134268537,3.1676022081703405,-0.26950085291382764,91.5092016858517,450.1439478529058,12.076406864649298,96033.7561161523,1.1410398895490983,0.3772888510561122,0.009372466857715436,-0.5999988381262524,0.03779074024649298,0.02977339932264529,-0.003686410472945892,-0.020553021256513024,0.3384785433867736,-1.5632883833787574,0.7007984753106213,0.11145614262324649,0.1266754068817635,-0.6931176358697394,0.5632320613807615,398714004.30501,327334509.9753507,450599.06088476954,15.659213366112224,0.17,-15.656257503707415,-0.13712984295991984,4.723332887805611,0.0,0.0,0.0,39.8714138,32.7364372,-1.4237833893627256,-255.48405099238477,-50.37035400581163,0.22849653810821643,-15.877738202765531,-0.0740806008276553,0.09760539453106212,-5.228205279308617,-1.6465736093527052,-1.57404992996994,50.53983400581163,-0.103065527498998,0.1907314976192385,0.00585133585771543,0.550225292985972,41868986.37074149,0.0,1.0,0.0,0.0,0.0
41891014.0,-0.049998848076152305,0.17679104142084165,-0.04043468579759519,0.599194616753507,0.0,1479.0,1500.0,1586.6653306613227,1522.5330661322646,1476.4669338677354,1584.107759276553,15.741962968917834,16.088864501923847,16.384042969058115,16.29571255729459,16.65489672529058,15.92019007745491,16.271097028697394,164.8646321470942,164.8646321470942,12.075896606693387,-0.0016167870801603206,-0.00590399797995992,0.0007868558657314629,-0.1896640603266533,0.1923474280761523,-0.06941818267134268,2.0,-0.05151731743086172,0.9484826825691383,11.0,0.0,0.0,1.0,0.0,0.0,0.0,0.0,0.0,0.0,0.0,-0.018456622621242487,0.33202078820841685,-1.5624101043386773,-1.5871295521442885,-1.4816127509839678,311.371857677956,50.285549557655315,-0.022117551621242487,0.036284374460921844,-0.04301826392985972,0.0,6.099219463136272,0.15186695609218434,-11.72399879997996,-247.10681131823654,960.3381598168337,12.076382087134268,0.07020761190581162,0.18845507928657315,-0.005108808114228458,6.063347475366733,0.13843152691783564,-11.768312995470941,2294028.0,0.06469027202004009,0.18214856636472948,-0.002896072923847696,-247.10681131823654,52.13690308422845,50.666547353326656,3.7951378852925854,1.5835432377294592,15.330736869539079,16.90116661819639,-0.031408593813627254,3.176971750743487,-0.26955414773747494,91.60696099871744,450.19726173907816,12.076372728176352,96033.1485211022,1.141032682971944,0.5613560305450903,-0.0483976888857716,-0.4254610214268532,0.04706677370340682,0.0409777219218437,-0.002848740589178355,-0.021766291651302606,0.339209275751503,-1.5634757476292584,0.7007600625971945,0.11129709384368737,0.12734055557915833,-0.69306012652505,0.5604121603106212,398714004.65991986,327334468.6635271,450600.1881977956,15.749110800501002,0.17041587474148298,-15.74291944757515,-0.15741431691382768,4.723296759172345,0.0,0.0,0.0,39.8714138,32.7364372,-1.419886582995992,-255.86613326152303,-50.37445619140281,0.2300136275270541,-16.004967598817636,-0.11516091656112229,0.10200833963126253,-5.395780321631262,-2.0020034775170346,-1.5741451155110222,50.54393619140281,-0.10482652934669338,0.18060942121442886,0.006996976877755511,0.5480394218637274,41891014.0741483,0.0,1.0,0.0,0.0,0.0
41911928.0,-0.0505256733747495,0.17320817238677355,-0.038861719609218436,0.6001517024448898,0.0,1479.0,1500.0,1592.11623246493,1523.623246492986,1475.376753507014,1586.8097669398799,15.869636024148296,16.219413932625248,16.43135577194389,16.34301079537074,16.70323945971944,15.965779501422846,16.317693223326653,165.78156960280563,165.78156960280563,12.07587473767535,-0.001615916026052104,-0.005903535743486974,0.0007865876813627254,-0.1896529355811623,0.19233922937474948,-0.06929739559318637,2.0,-0.05009979951503006,0.9499002004849699,11.0,0.0,0.0,1.0,0.0,0.0,0.0,0.0,0.0,0.0,0.0,-0.019627767951903807,0.33294908986773547,-1.5626143545350701,-1.5871509954468936,-1.4730551523947895,310.9582900178357,50.345282163987974,-0.022159080951903807,0.0362680778997996,-0.043097702102204406,0.0,6.2362329231442875,0.13139395597995995,-12.055199681743487,-316.33802651342677,960.3368671354709,12.076347539318638,0.07277676419438876,0.21046306206813625,-0.007506022062124244,6.176071211094189,0.08588309414829667,-12.137092754028055,2294028.0,0.06584374225651302,0.20324775026853703,-0.0034830876252505,-316.33802651342677,52.240572232124244,50.706759860581165,3.82141488354509,1.722155813537074,15.3307659501002,17.020193016913826,-0.033788538214428857,3.1863412933166333,-0.26960744283967936,91.70472031158317,450.1466463002004,12.076333928657315,96033.75330410822,1.1410398694408819,0.781905006577154,-0.1440015309378756,0.1514448321362717,0.050720943803607206,0.05383058479959918,1.3471258517029974e-05,-0.023011298336673345,0.33989491361923846,-1.5636940442545089,0.7007151940440881,0.1111133155991984,0.12799915261322645,-0.6930136483206413,0.5578456609759519,398714004.98697394,327334427.0731463,450602.0195917836,15.841702996412826,0.17126638549098197,-15.832449980961924,-0.18230593249699395,4.723284904006012,0.0,0.0,0.0,39.8714138,32.7364372,-1.4159697993486973,-256.246845447495,-50.37893302795591,0.23158853314629257,-16.131659142865733,-0.15861878718236466,0.10715662808016031,-5.54171853008016,-2.355900296018036,-1.5742417665410824,50.54841302795591,-0.10624169083767535,0.1694508343446894,0.008143139635270538,0.5461223778557114,41911927.54909819,0.0,1.0,0.0,0.0,0.0
41932841.0,-0.05089953817234469,0.17461356786172344,-0.038321982066132264,0.6010734414028056,0.0,1479.3567134268537,1500.0,1595.640496513026,1524.0,1475.0,1586.8354604188378,15.99725364967936,16.349841852464927,16.478668574829662,16.390309033446893,16.751582190581164,16.011368925390784,16.36428941438878,166.6985070228457,166.6985070228457,12.075852868657314,-0.001615044615230461,-0.005903073507014028,0.000786319496993988,-0.1896418104789579,0.1923310306733467,-0.06917660851503006,2.0,-0.0486822815991984,0.9513177184008016,11.0,0.0,0.0,1.0,0.0,0.0,0.0,0.0,0.0,0.0,0.0,-0.02079891328256513,0.3338773911703407,-1.562818604731463,-1.5871724383927854,-1.4644975541623246,310.5447223220441,50.40501476675351,-0.022196437092184367,0.03624326551903807,-0.04317434899198397,0.0,6.268716924755511,0.12635335860521044,-12.420863075731463,-340.26352,960.334946959519,12.076289459118236,0.07416850284368737,0.2339847372304609,-0.009420288122244488,6.193363491843687,0.07484885656112224,-12.53274487294589,2294028.0,0.06873990490581162,0.22401472838476952,-0.006189471633266531,-340.26352,52.34424138358717,50.746972371402805,3.847691881797595,1.8607683889879758,15.330795030661323,17.139219415631263,-0.03616848297194389,3.195710835533066,-0.26966073758517034,91.80247962444889,450.1404555947896,12.076278338637273,96033.81648911824,1.1410406225831664,0.6379041742444892,0.10117900972344665,0.19495873548296605,0.05636135276553106,0.07598602981362723,-0.0008294753587174335,-0.024247647943887778,0.3405026556192385,-1.5638776961583165,0.7006861407374749,0.11090338812024048,0.1286294055551102,-0.6929598460761522,0.5553466810721442,398714005.4210421,327334383.556513,450608.9604775551,15.953849979819639,0.1752708736032064,-15.942796701162324,-0.24062970926653302,4.723449192146292,0.0,0.0,0.0,39.8714138,32.7364372,-1.4119080487915832,-256.6176153881763,-50.38612854162324,0.2335829894028056,-16.25444774262525,-0.2193296092264529,0.11771357387575149,-5.530647003278556,-2.6986723956092185,-1.5743490515551104,50.55560854162324,-0.1070763037234469,0.15970507949098198,0.009050965386773547,0.5449485676753507,41932841.0240481,0.0,1.0,0.0,0.0,0.0
41953754.0,-0.051192626076152305,0.17865321538076154,-0.03832788212224449,0.6019765141082164,0.0,1479.9018036072143,1500.0,1598.1473226452904,1524.0,1475.0,1585.4478194408819,16.124842003346693,16.480205603647292,16.525981377715432,16.437607271523046,16.799924919559118,16.05695834935872,16.410885603567134,167.6154444240481,167.6154444240481,12.075830999639278,-0.0016141730160320641,-0.005902611270541083,0.0007860513126252505,-0.18963068518837675,0.1923228319719439,-0.06905582143687375,2.0,-0.04726476368336673,0.9527352363166333,11.0,0.0,0.0,1.0,0.0,0.0,0.0,0.0,0.0,0.0,0.0,-0.021970058613226453,0.3348056922845692,-1.5630228549278558,-1.5871938811503006,-1.4559399561182365,310.1311546074148,50.46474736763527,-0.02223158941282565,0.03621395602004008,-0.04324952183366733,0.0,6.2459999764268535,0.12946245705811624,-12.804725773927856,-340.26352,960.33269541002,12.076218951703407,0.07493846125651303,0.2583057780320641,-0.011079514286573148,6.160259386256513,0.08573784564328658,-12.942588013627255,2294028.0,0.07255636579559119,0.24460627198396795,-0.010015073140280563,-340.26352,52.44791053693387,50.787184884108214,3.8739688800501,1.999380964250501,15.330824111222444,17.258245814348697,-0.03854842791783567,3.205080377561122,-0.26971403214228457,91.90023893731463,450.15772514188376,12.076213881723447,96033.5936617034,1.1410379783507014,0.3013882745731462,0.5263243367615232,-0.043206256228456974,0.06305067438476954,0.10305407438276554,-0.003629078693386775,-0.025479425835671345,0.34106926159919837,-1.5640430525350701,0.7006654393026052,0.11067965149498998,0.12924469026853708,-0.6929021760801602,0.552883357496994,398714005.91162324,327334339.0226453,450618.59963426855,16.076323648757516,0.18094094526653307,-16.064136239118238,-0.3166086722805611,4.723706499785571,0.0,0.0,0.0,39.8714138,32.7364372,-1.4077697426753508,-256.9831349296593,-50.394759761182364,0.2357990061082164,-16.37517523697395,-0.28915154044889785,0.13112677692184369,-5.43666022303006,-3.0355696436412827,-1.574461952268537,50.564239761182364,-0.10760433476152305,0.15070542693787575,0.009832927775551102,0.5441672517635271,41953754.498997994,0.0,1.0,0.0,0.0,0.0
41978243.0,-0.0515627504248497,0.17862633902605213,-0.037167903320641286,0.6020457991983967,0.0,1480.0,1500.0,1599.671947735471,1524.8937875751503,1474.1062124248497,1586.2970610741484,16.29057368472946,16.649593000741483,16.573294176132265,16.484905509599198,16.848267653006012,16.102547773326656,16.457481797214427,168.53238186993985,168.53238186993985,12.07580913509018,-0.0016133014168336673,-0.005902149034068137,0.0007857835751503006,-0.18961956034468938,0.19231463371743487,-0.06893503435871744,2.0,-0.04584724576753507,0.9541527542324649,11.0,0.0,0.0,1.0,0.0,0.0,0.0,0.0,0.0,0.0,0.0,-0.023141203943887773,0.3357339938456914,-1.5632271055711424,-1.5872153243547096,-1.4473823576272544,309.71758689278556,50.52447997298597,-0.022263118318637275,0.03617844184769539,-0.043313846775551106,0.0,6.223283028098196,0.13257155595791584,-13.188588476593186,-340.26352,960.3304438605211,12.076148448757515,0.07751329139679358,0.275569174509018,-0.013560982118236468,6.157986177398797,0.10661453593386769,-13.321179326533066,2294028.0,0.07637282623847695,0.2651978155831663,-0.013840674647294583,-340.26352,52.55157969028056,50.827397392344686,3.900245878749499,2.1379935399599193,15.330853191783566,17.37727221306613,-0.04092837286372745,3.214449920036072,-0.2697673271462926,91.99799825018036,450.18692121162326,12.076129993867735,96033.27904677355,1.1410342334188377,0.13786875241282587,0.8093647161222439,-0.017429868615230618,0.06545825389178356,0.12972030557515024,-0.005718184364729455,-0.026723853056112225,0.34158385316432865,-1.5642104534509018,0.7006475693867735,0.11043363542685371,0.12984601267935872,-0.6928469805350701,0.5507360119619238,398714006.35751504,327334294.44408816,450628.2387462926,16.198797313226454,0.1866110173767535,-16.18547577707415,-0.39258763574148287,4.723963807871743,0.0,0.0,0.0,39.8714138,32.7364372,-1.4036314361122246,-257.34865451583164,-50.403390980741484,0.23801502236673347,-16.495902731322648,-0.3589734716713426,0.14453997952104206,-5.34267344233467,-3.37246689212024,-1.5745748534288577,50.572870980741484,-0.10837982072144288,0.14045600730661323,0.010866804639278554,0.5430719795591182,41978243.1242485,0.0,1.0,0.0,0.0,0.0
42003517.0,-0.05194980206412826,0.1777059215511022,-0.035751744859719436,0.6019318753507014,0.0,1480.0,1500.0,1600.9807528657316,1525.9839679358718,1473.0160320641282,1587.63781503006,16.464686635430862,16.8275551003006,16.620606973567135,16.532203747675354,16.89661038743487,16.148137197294588,16.504077991843687,169.44931932565126,169.44931932565126,12.075787271523046,-0.0016124298176352705,-0.005901686797595191,0.0007855159358717435,-0.1896084355991984,0.19230643556112226,-0.06881424728056112,2.0,-0.044429727851703404,0.9555702721482966,11.0,0.0,0.0,1.0,0.0,0.0,0.0,0.0,0.0,0.0,0.0,-0.0243123492745491,0.33666229550501003,-1.5634313563126252,-1.587236767657315,-1.4388247590380758,309.3040191781563,50.58421257931864,-0.022293851048096194,0.03614156431663327,-0.043375788098196394,0.0,6.20056607976954,0.1356806549559118,-13.572451180240481,-340.26352,960.328192311022,12.076077946793587,0.0804847077014028,0.29128178815230465,-0.016223121885771543,6.162487470513026,0.12968583321643284,-13.692903645891782,2294028.0,0.08018928658316633,0.28578935918236475,-0.017666276154308616,-340.26352,52.655248843627255,50.867609899599195,3.9265228775470944,2.276606115767535,15.330882272344688,17.496298611783565,-0.04330831780961924,3.2238194626092187,-0.269820622248497,92.09575756304609,450.21873790741483,12.076041836432864,96032.94426328657,1.1410302466292586,0.012361887194388882,1.0611802415090177,0.06634260683166326,0.06692500217234468,0.15629824593587172,-0.00765117171543086,-0.0279710597254509,0.3420870155531062,-1.5643783036152303,0.7006303216432865,0.1101827238757515,0.13044426714028057,-0.6927923287034068,0.5486580965791583,398714006.7935872,327334249.8557114,450637.877848497,16.32127097671343,0.19228108958517034,-16.30681531503006,-0.46856659930060124,4.724221116056112,0.0,0.0,0.0,39.8714138,32.7364372,-1.3994931294509019,-257.71417411182364,-50.412022200300605,0.2402310385270541,-16.616630225671344,-0.4287954028937875,0.1579531820220441,-5.2486866615410825,-3.709364140697395,-1.5746877546873748,50.581502200300605,-0.10920968018436875,0.12993197517835672,0.01195603490781563,0.5419077214428858,42003517.32064128,0.0,1.0,0.0,0.0,0.0
42024495.0,-0.05205114959118237,0.1746590126933868,-0.035742866214428855,0.6001036698997996,0.0,1480.0,1500.0,1601.5370741482966,1526.0,1473.0,1588.9156110060119,16.552547803446892,16.917307561703407,16.667919776372745,16.579501985751506,16.944953116492986,16.193726621262524,16.550674181102202,170.36625678136272,170.36625678136272,12.07576540258517,-0.0016115587555110221,-0.005901225098196393,0.000785247759519038,-0.18959731031663327,0.19229823686773548,-0.06869346020240481,2.0,-0.043012209935871744,0.9569877900641283,11.0,0.0,0.0,1.0,0.0,0.0,0.0,0.0,0.0,0.0,0.0,-0.02548349514228457,0.3375905971643287,-1.5636356065170343,-1.5872582104228459,-1.4302671604488977,308.89045151723445,50.6439451856513,-0.02232715367735471,0.036089198104208416,-0.04344052704008016,0.0,6.08071718035471,0.09870134399799597,-13.878279802925851,-340.26352,960.324984769539,12.075935825991984,0.07301114786172344,0.3043836757675351,-0.01025869612224449,6.024649066048095,0.09054247619839678,-13.963395315551102,2294028.0,0.07729880255911824,0.2987287992144289,-0.018484592194388777,-340.26352,52.76161392122244,50.927638455751506,3.9419762478877756,2.406819053298597,15.330915606533065,17.59387722829659,-0.04525922375751503,3.182556428468938,-0.26990887228456917,92.22722254845692,450.2123521967936,12.075939102805611,96033.00010456913,1.1410308953266532,0.4570067931422846,0.9410313470080159,0.22336393891983974,0.07090243406813626,0.18463616700200403,-0.010680009991983968,-0.02911326678757515,0.34252757819038077,-1.564495117771543,0.700628228521042,0.10994361614028056,0.13098704291583166,-0.6927298033647294,0.546967043761523,398714007.2296593,327334205.32104206,450647.5169507014,16.443744645571144,0.19795116125651302,-16.428154852985973,-0.5445455623226454,4.724478423703407,0.0,0.0,0.0,39.8714138,32.7364372,-1.3950439830701402,-258.1126771498998,-50.42872440903808,0.24478008491583167,-16.73181789685371,-0.5326234550701403,0.19279472679158316,-5.043620860563126,-4.068363510396794,-1.5747563704228456,50.59820440903808,-0.10996049361122245,0.12067341488176353,0.012935673585170341,0.5411199523046092,42024494.9238477,0.0,1.0,0.0,0.0,0.0
42045408.0,-0.052232879555110225,0.1714367708336674,-0.035766768687374745,0.5982450781162324,0.0,1480.1643286573146,1500.0,1601.753507014028,1526.0,1473.0,1589.8356713426854,16.640342521042083,17.007009799338675,16.715232579258515,16.626800223827658,16.993295846292586,16.239316046052103,16.597270371102205,171.28319423707416,171.28319423707416,12.075743533567135,-0.001610687619238477,-0.005900763324649299,0.0007849795751503006,-0.18958618510821643,0.192290038248497,-0.0685726731242485,2.0,-0.04159469202004008,0.9584053079799598,11.0,0.0,0.0,1.0,0.0,0.0,0.0,0.0,0.0,0.0,0.0,-0.02665464093587174,0.33851889882364733,-1.563839856713427,-1.5872796531803608,-1.4217095618597193,308.4768838488978,50.703677791983964,-0.02236018777955912,0.0360346608997996,-0.043502642408817634,0.0,5.955515545795591,0.05951284594789589,-14.179808134248496,-340.26352,960.3217245312625,12.075789758857715,0.06629336532264529,0.31647510856713423,-0.005342295020040077,5.8923895452965915,0.054448673488977986,-14.236584057615229,2294028.0,0.07403871301402808,0.3112465479719439,-0.019137183066132265,-340.26352,52.86814276316633,50.98887074142285,3.9567721352885767,2.536521753382765,15.33094919975952,17.69015299480962,-0.047184067665330655,3.138217710402806,-0.2699992456653307,92.36073499062124,450.20784202084167,12.075829843867735,96033.03479084169,1.1410312968777554,0.7275409776112239,0.8456647589939879,0.3412737878216435,0.07453326777955911,0.21211745619238473,-0.013299125022044087,-0.03026152529659318,0.3429599597735471,-1.5646209627875751,0.7006237742324649,0.10970015141082164,0.13152855246893785,-0.6926704344308617,0.5453425760641283,398714007.67394793,327334160.7789579,450657.15606112225,16.566218313687376,0.203621233002004,-16.549494390941884,-0.6205245254188375,4.7247357314248495,0.0,0.0,0.0,39.8714138,32.7364372,-1.3905777068336673,-258.5129978462926,-50.445871393587176,0.24945769952104208,-16.846700280400803,-0.6383255122484967,0.22881714185170332,-4.832433730887775,-4.428580881084168,-1.574822545747495,50.615351393587176,-0.11062346696793587,0.11119522961322648,0.013830810472945891,0.5403836583166333,42045408.398797594,0.0,1.0,0.0,0.0,0.0
42066322.0,-0.05289152128657315,0.16740549753507017,-0.035857024174348696,0.5963594422044088,0.0,1481.254509018036,1500.0,1600.118236472946,1526.0,1473.0,1588.745490981964,16.735015909418838,17.10384677056112,16.76254538214429,16.67409846190381,17.041638580721443,16.284905475470943,16.64386656573146,172.20013169278556,172.20013169278556,12.075721664549098,-0.00160981602004008,-0.005900301088176353,0.0007847113907815631,-0.18957506036272545,0.19228184009218438,-0.06845188604609219,2.0,-0.040177174104208416,0.9598228258957915,11.0,0.0,0.0,1.0,0.0,0.0,0.0,0.0,0.0,0.0,0.0,-0.027825786266533065,0.33944720048296595,-1.5640441069098197,-1.5873010959378757,-1.413151963270541,308.0633161342686,50.76341039831663,-0.022391492853707416,0.03596919447895792,-0.043549740925851704,0.0,5.808323812537075,0.011248568529058166,-14.463670016092184,-340.26352,960.3182477825651,12.07562748006012,0.06471207887775551,0.3230930315490982,-0.007056041104208414,5.803531864142284,0.04076824434268539,-14.533481329599198,2294028.0,0.0692602104729459,0.3220319050541082,-0.019108941943887774,-340.26352,52.97536757246493,51.055218649398796,3.968773845300601,2.6640560411903804,15.3309838947495,17.78089189501002,-0.04899815285971944,3.0808079202945895,-0.27009864285971946,92.50294873523046,450.21711138837674,12.075685046112225,96032.91743837675,1.1410299161643287,-0.030835174821642553,0.9212044463687373,0.23266419327254523,0.07600018885370742,0.23462435620040079,-0.013517647314629257,-0.03145270814228457,0.3433515122224449,-1.5648019806953908,0.7006047424088176,0.10943114613627254,0.13206759323847694,-0.692629511240481,0.544060726733467,398714008.1645291,327334116.19058114,450666.79521783564,16.688691977174347,0.20929130521042083,-16.670833928897796,-0.6965034889779559,4.724993039609219,0.0,0.0,0.0,39.8714138,32.7364372,-1.3860410575350701,-258.9207858607215,-50.46484560665331,0.2546634977094188,-16.96032848208417,-0.7517263540921842,0.2696908064288577,-4.596098967216433,-4.793802041837675,-1.5748786954869738,50.63432560665331,-0.11079818363326653,0.10037322938877757,0.014259067659318636,0.539905723246493,42066321.8737475,0.0,1.0,0.0,0.0,0.0
42088614.0,-0.05342327286172345,0.16283235598797596,-0.035744029260521046,0.5940915647294589,0.0,1482.0,1500.0,1598.6553106212425,1526.0,1473.0,1587.229361755511,16.82601258753507,17.19691038062124,16.806412540741483,16.71794950975952,17.08646827719439,16.32776782765531,16.687685573907814,173.05277230841682,173.05277230841682,12.075624875571142,-0.0016089826813627255,-0.005899872803607214,0.0007844116673346693,-0.18956533574549098,0.1922726850781563,-0.06833255665931863,2.0,-0.03875965601603206,0.9612403439839678,11.0,0.0,0.0,1.0,0.0,0.0,0.0,0.0,0.0,0.0,0.0,-0.028996931597194388,0.34037550214228457,-1.5642483571062125,-1.5873225388677354,-1.4045943646813626,307.6497484368738,50.823143002925846,-0.022422274172344693,0.0358993815250501,-0.04359260321042084,0.0,5.662300203146293,-0.026453483599198396,-14.733327601943888,-340.26352,960.3149416895792,12.075456480621241,0.06168348688577154,0.32949902071543086,-0.006606214354709418,5.672257174402805,0.030931992963927856,-14.840129905470942,2294028.0,0.06409376865330661,0.3305496260280561,-0.018143348905811624,-340.26352,53.082592381763526,51.1215665556513,3.9807755551402804,2.7915903291703406,15.33101858801603,17.87163079521042,-0.05081223805410822,3.023398130186373,-0.2701980400541082,92.64516247983968,450.23879052144287,12.075529919739479,96032.66454370742,1.141026915755511,-0.48125522621643285,0.7837176169338678,0.15634397052304608,0.07694076631663327,0.2557839350541082,-0.013499873490981964,-0.032606518731462926,0.34372813548496994,-1.5649696896292584,0.7005890216713427,0.10916919751503007,0.13258920168737476,-0.6925871861983968,0.5429005782605211,398714008.65511024,327334071.22304606,450679.05594408815,16.8067347948497,0.215207534753507,-16.78774262104208,-0.7787594674148297,4.725265375561123,0.0,0.0,0.0,39.8714138,32.7364372,-1.3814308105050102,-259.32548962905815,-50.485254096352705,0.2601604234769539,-17.069160418957914,-0.867584220244489,0.3083929668697395,-4.3541635440260515,-5.135434296715431,-1.574897716492986,50.654734065330665,-0.1107946400501002,0.09046628088376754,0.0145071415751503,0.5395484346292586,42088613.93386774,0.0,1.0,0.0,0.0,0.0
