,timestamp,control[0],control[1],control[2],control[3],control[4],output[2],output[3],output[4],output[5],output[6],output[7],indicated_airspeed_m_s,true_airspeed_m_s,indicated_airspeed_m_s.1,equivalent_airspeed_m_s,true_airspeed_m_s.1,equivalent_ground_minus_wind_m_s,true_ground_minus_wind_m_s,differential_pressure_raw_pa,differential_pressure_filtered_pa,temperature,gyro_bias[0],gyro_bias[1],gyro_bias[2],accel_bias[0],accel_bias[1],accel_bias[2],instance_count,seq_reached,seq_current,seq_total,item_changed_index,item_do_jump_remaining,valid,warning,finished,failure,stay_in_failsafe,flight_termination,item_do_jump_changed,execution_mode,nav_roll,nav_pitch,nav_bearing,target_bearing,xtrack_error,wp_dist,acceptance_radius,rollspeed_integ,pitchspeed_integ,yawspeed_integ,additional_integ1,x,y,z,temperature.1,pressure,temperature.2,gyro_rad[0],gyro_rad[1],gyro_rad[2],accelerometer_m_s2[0],accelerometer_m_s2[1],accelerometer_m_s2[2],x.1,y.1,z.1,temperature.3,altitude_sp,altitude_filtered,height_rate_setpoint,height_rate,airspeed_sp,airspeed_filtered,airspeed_derivative_sp,airspeed_derivative,throttle_integ,pitch_integ,baro_alt_meter,baro_temp_celcius,baro_pressure_pa,rho,xyz[0],xyz[1],xyz[2],xyz[0].1,xyz[1].1,xyz[2].1,roll_body,pitch_body,yaw_body,q_d[0],q_d[1],q_d[2],q_d[3],thrust_body[0],lat,lon,alt,vel_m_s,vel_n_m_s,vel_e_m_s,vel_d_m_s,cog_rad,ground_contact,maybe_landed,landed,ref_lat,ref_lon,x.2,y.2,z.2,vx,vy,vz,ax,ay,az,yaw,dist_bottom,roll,pitch,yaw.1,thrust_body[0].1,timestamp.1,isTakeoff,isClimbing,isDescending,isCruise,isLand
447,33447422,-0.039274082,0.030640402,-0.030467246,0.56072104,0.0,1484.0,1500.0,1558.0,1521.0,1478.0,1510.0,18.817734899999998,19.23522546,18.47731874,18.49239104,18.90289506,18.54721597,18.95893705,210.0730296,210.0730296,12.05438658,-0.001990787,-0.00676167,0.001077655,-0.186178598,0.19286313100000002,-0.091933154,2.0,-0.8375675140000001,0.162432486,11,0,0,1.0,0.0,0.0,0,0,0,0,0,-0.103890126,0.283283153,-0.24575019899999997,-0.066069689,12.80116961,209.5705154,53.70124172,-0.026006901000000002,-0.02230329,-0.035161731,0.0,2.420954052,2.1800686540000003,-12.33431738,-1.05e+21,959.9496318,12.05369803,0.042002855,0.145546561,0.057068544000000006,2.526787712,2.206652103,-13.09836844,0.022805465,0.11346953900000001,0.052931038,-1.05e+21,61.78362361,60.29234323,4.074521127,5.804637607,15.33745114,19.20549038,-0.077360791,0.162295673,-0.218349459,23.37064541,453.2520801,12.05618195,95998.03001,1.140615393,-0.248469925,-0.155821129,-0.212318237,0.03520122,0.143149202,0.043466202999999995,-0.103026287,0.285343047,-0.242439667,0.982157924,-0.033422167999999995,0.14712049900000002,-0.112268138,0.56103422,398731007.5,327364820.7,453156.5221,18.90026805,18.5572193,-3.474974995,-3.4228805760000003,6.0975946389999995,0,0,0.0,39.8714138,32.7364372,191.399527,3.1823652119999997,-53.92850424,18.44216458,-3.23707207,-4.173998694,-0.291524783,1.154559057,-2.9880026269999997,-0.119832441,54.01166824,-0.040474225,0.09598041199999999,-0.028849839,0.5598811,33447422,0,1,0,0,0
448,33491305,-0.041904348,0.025487905,-0.030234615,0.55939843,0.0,1484.0,1500.0,1558.0,1520.0,1479.0,1508.0,18.79614425,19.21335844,18.53075959,18.54483407,18.95663595,18.59846846,19.01146151,211.21546949999998,211.21546949999998,12.05339529,-0.001991375,-0.00675653,0.0010765739999999998,-0.18613275,0.192981194,-0.09185283,2.0,-0.834966993,0.16503300699999998,11,0,0,1.0,0.0,0.0,0,0,0,0,0,-0.103903077,0.283991235,-0.243099158,-0.06559540900000001,12.64819172,208.6580956,53.63714972,-0.026059806,-0.022394557000000002,-0.035524368,0.0,2.501148659,2.146079103,-12.15622639,-1.05e+21,959.9234422000001,12.05239774,0.038015468,0.14269016199999998,0.050613541,2.393471255,2.203375375,-12.94978463,0.016990611,0.103138883,0.05857364,-1.05e+21,62.03526069,60.58724044,4.072365317,5.817539517999999,15.33767598,19.19409409,-0.077128367,0.144104562,-0.218831473,23.77510037,453.33970719999996,12.05488816,95996.99988999999,1.1406031,-0.009442043,0.339338407,-0.142819432,0.028747155,0.133217471,0.042605618,-0.10741672699999999,0.286042727,-0.242837186,0.982012711,-0.035504306,0.147716565,-0.112115616,0.562398562,398731088.8,327364801.5,453336.7447,18.88364673,18.55247012,-3.432234447,-3.598591718,6.099874087999999,0,0,0.0,39.8714138,32.7364372,192.2615679,3.030246452,-54.12566526,18.42821194,-3.1864047060000003,-4.309541205,-0.348682564,1.238365608,-2.784631229,-0.11796685300000001,54.20882926,-0.036111823,0.08506989599999999,-0.028758185,0.56075424,33491305,0,1,0,0,0
449,33543187,-0.04022124,0.020563948999999998,-0.030349537000000003,0.5585059,0.0,1484.0,1500.0,1558.0,1521.0,1478.0,1506.0,18.82369766,19.24149638,18.58420044,18.5972771,19.01037685,18.64972095,19.06398596,212.35790950000003,212.35790950000003,12.05240401,-0.001991963,-0.006751389,0.001075494,-0.186086902,0.193099257,-0.091772505,2.0,-0.832366473,0.167633527,11,0,0,1.0,0.0,0.0,0,0,0,0,0,-0.10391602800000001,0.284699317,-0.24044811800000002,-0.065121128,12.49521384,207.7456757,53.57305772,-0.026118312,-0.022497211,-0.035933002,0.0,2.527178222,2.132703395,-11.98045615,-1.05e+21,959.8913105,12.05077933,0.034720178,0.125648456,0.05194668,2.515347647,2.151158176,-12.66527975,0.019428673,0.093358842,0.06335193900000001,-1.05e+21,62.29364335,60.89078974,4.0701070569999995,5.828423142,15.3379047,19.18331191,-0.076908148,0.12579451,-0.21932822800000001,24.18763329,453.64497029999995,12.05356895,95993.50874,1.1405617000000001,-0.061523745,-0.30450162399999997,0.540813923,0.030818515,0.125690799,0.050239825999999994,-0.102678656,0.28666117,-0.236983588,0.9823772279999999,-0.033570825,0.147656054,-0.109569591,0.564154955,398731170.0,327364782.3,453516.9674,18.86702541,18.54772093,-3.3894938989999996,-3.7743028610000002,6.102153536,0,0,0.0,39.8714138,32.7364372,193.17576100000002,2.872757577,-54.34493811,18.41278439,-3.1308868789999997,-4.437905241,-0.348783823,1.23410309,-2.573510013,-0.115547306,54.42810211,-0.045053409,0.073191107,-0.028684482999999997,0.561982,33543187,0,1,0,0,0
450,33591069,-0.042949558,0.016052582,-0.030038073999999998,0.55840313,0.0,1484.0,1500.0,1559.0,1520.0,1479.0,1504.0,18.80847712,19.22618763,18.6376413,18.64972013,19.06411774,18.70097344,19.11651042,213.5003494,213.5003494,12.05141272,-0.001992551,-0.006746249,0.0010744139999999999,-0.186041053,0.19321732100000003,-0.09169218,2.0,-0.829765953,0.170234047,11,0,0,1.0,0.0,0.0,0,0,0,0,0,-0.103928979,0.28540739800000003,-0.237797078,-0.06464684799999999,12.34223595,206.83325580000002,53.50896572,-0.026172257999999997,-0.022591366,-0.03633411,0.0,2.534429363,2.12647428,-11.80549049,-1.05e+21,959.8571187000001,12.04905062,0.022913252000000002,0.11702570400000001,0.05122886,2.415742828,2.103620463,-12.37161756,0.02472793,0.08376969299999999,0.067830595,-1.05e+21,62.552026,61.19433904,4.067848797,5.839306766,15.33813342,19.17252972,-0.076687928,0.107484458,-0.219824983,24.600166199999997,453.7697778,12.05218812,95992.08813999999,1.140544855,-0.145800307,-0.447037084,-0.554559458,0.02396252,0.11960997,0.055780592000000004,-0.107243269,0.287203731,-0.23737389899999997,0.9822398840000001,-0.03575015,0.1481787,-0.109405129,0.565994335,398731251.2,327364763.0,453697.19,18.85040408,18.54297174,-3.3467533510000003,-3.950014003,6.104432984,0,0,0.0,39.8714138,32.7364372,194.1080346,2.7134069430000003,-54.57187689,18.396845499999998,-3.073687451,-4.5637805810000005,-0.329104217,1.199308002,-2.359702021,-0.11293570800000001,54.65504089,-0.041398607999999996,0.062805122,-0.028505196,0.5638027729999999,33591069,0,1,0,0,0
451,33638952,-0.04088645,0.011472823,-0.030174104,0.55884624,0.0,1484.785357,1500.0,1560.0,1522.0,1477.0,1501.785357,18.88408832,19.3037608,18.69108215,18.70216316,19.11785864,18.75222594,19.16903488,214.6427893,214.6427893,12.05042144,-0.001993139,-0.006741109,0.001073334,-0.185995205,0.19333538399999997,-0.091611855,2.0,-0.827165433,0.172834567,11,0,0,1.0,0.0,0.0,0,0,0,0,0,-0.10394193,0.28611548,-0.235146038,-0.064172568,12.18925806,205.92083590000001,53.44487372,-0.026232816000000003,-0.022696612999999997,-0.036777145,0.0,2.562432381,2.159628202,-11.62022139,-1.05e+21,959.8290903999999,12.04750212,0.023723636,0.10556454900000001,0.049640647,2.440503787,2.11235022,-12.12964887,0.021193416,0.078189324,0.070904643,-1.05e+21,62.81040865,61.49788833,4.065590536,5.85019039,15.33836215,19.16174754,-0.076467708,0.089174406,-0.22032173800000002,25.01269912,454.1411505,12.05077036,95987.80079,1.14049392,0.213121788,-0.137553611,0.160859806,0.028350617,0.108354748,0.057133910999999996,-0.10662742,0.287691667,-0.234177611,0.98238936,-0.035654124,0.148329581,-0.107863769,0.5677195820000001,398731331.8,327364744.3,453887.1826,18.832006399999997,18.5355582,-3.300460092,-4.107073388,6.106820879,0,0,0.0,39.8714138,32.7364372,194.9911421,2.565699576,-54.79393476,18.38316161,-3.018036145,-4.672905658,-0.31117699,1.224143617,-2.216731286,-0.11001587300000001,54.87709876,-0.053421940999999994,0.052836854,-0.028001046,0.566240138,33638952,0,1,0,0,0
452,33694834,-0.042866993,0.006546893000000001,-0.029825937,0.5598811,0.0,1484.0,1500.0,1561.0,1520.705141,1478.294859,1500.0,18.81815183,19.23665239,18.744523,18.7546062,19.17159953,18.80347843,19.22155933,215.7852293,215.7852293,12.04943015,-0.0019937270000000003,-0.0067359690000000005,0.001072253,-0.18594935699999998,0.193453448,-0.091531531,2.0,-0.824564913,0.175435087,11,0,0,1.0,0.0,0.0,0,0,0,0,0,-0.103954881,0.286823561,-0.232494998,-0.06369828799999999,12.03628018,205.00841609999998,53.38078172,-0.026288807,-0.022806505,-0.037251095,0.0,2.600342584,2.2115840380000003,-11.430033300000002,-1.05e+21,959.8040045,12.04603967,0.024615547,0.099434786,0.060674003,2.499714699,2.104529706,-11.98324908,0.013441558000000001,0.074522794,0.07330811599999999,-1.05e+21,63.05199075,61.78246664,4.063440699,5.855259631,15.33856398,19.15560323,-0.076340786,0.073027374,-0.22079254899999998,25.39227994,454.2741976,12.04932677,95986.26956,1.140475632,-0.10592726400000001,-0.192910225,-0.177806565,0.02128509,0.106889747,0.064357489,-0.107362178,0.288119213,-0.23184546399999997,0.982474197,-0.036162209,0.148534576,-0.10664906800000001,0.56950834,398731411.3,327364726.5,454093.5245,18.81063613,18.52368606,-3.2482216439999996,-4.232920486,6.109390251000001,0,0,0.0,39.8714138,32.7364372,195.850777,2.423550838,-55.01366244,18.37055427,-2.9631239289999995,-4.774033967,-0.294086368,1.277447615,-2.107579072,-0.10694888300000001,55.09682644,-0.054168032000000005,0.044355975,-0.027766622999999997,0.5677001979999999,33694834,0,1,0,0,0
453,33745433,-0.041028869,0.002721517,-0.030057538999999998,0.56075424,0.0,1484.0,1500.0,1562.195639,1521.6087220000002,1477.3912779999998,1498.0,18.87710711,19.29709712,18.79796385,18.80704923,19.22534043,18.85473092,19.27408379,216.92766919999997,216.92766919999997,12.04843887,-0.001994315,-0.006730829,0.0010711730000000001,-0.185903508,0.193571511,-0.091451206,2.0,-0.821964393,0.17803560699999998,11,0,0,1.0,0.0,0.0,0,0,0,0,0,-0.103967832,0.287531643,-0.22984395800000001,-0.063224008,11.88330229,204.09599619999997,53.31668972,-0.026348455,-0.022923992999999997,-0.037740059,0.0,2.645990569,2.185935659,-11.28261195,-1.05e+21,959.7788121,12.04454999,0.024573682000000003,0.095217724,0.06289461,2.480462009,2.09490382,-11.81208578,0.009577575999999999,0.070549115,0.07350214299999999,-1.05e+21,63.28166844,62.05360264,4.061367688,5.856208967000001,15.33874677,19.15274517,-0.076279972,0.058412997,-0.221244976,25.74851185,454.44918319999994,12.04784742,95984.28418999999,1.140452125,0.257228272,-0.47052189299999997,0.05814442,0.021424865,0.100490699,0.07290869400000001,-0.106611087,0.288492019,-0.22836874199999999,0.982644374,-0.036028662,0.148616951,-0.104983743,0.5713184960000001,398731490.8,327364708.7,454299.8664,18.78926585,18.51181393,-3.195983197,-4.358767584,6.111959623,0,0,0.0,39.8714138,32.7364372,196.7534861,2.277901406,-55.25084284,18.35829339,-2.903520748,-4.871822796,-0.288223407,1.2981667190000001,-1.9907169740000001,-0.10346983,55.33400744,-0.05927715,0.035054557,-0.027408673999999997,0.56988406,33745433,0,1,0,0,0
454,33798599,-0.043964035,-0.001023429,-0.030528832000000002,0.561982,0.0,1484.0,1500.0,1564.686137,1521.686137,1477.313863,1497.0,18.80887802,19.22748887,18.8514047,18.85949226,19.27908132,18.90598341,19.32660825,218.0701091,218.0701091,12.04744758,-0.0019949029999999997,-0.0067256880000000005,0.001070093,-0.18585766,0.193689575,-0.091370881,2.0,-0.819363873,0.18063612699999998,11,0,0,1.0,0.0,0.0,0,0,0,0,0,-0.10398078300000001,0.288239725,-0.227192918,-0.062749728,11.7303244,203.1835763,53.25259773,-0.026402521,-0.023043827000000003,-0.038230879,0.0,2.696561647,2.110912318,-11.16240055,-1.05e+21,959.7535518999999,12.043042999999999,0.013153946000000001,0.084723335,0.070133378,2.5770632680000003,2.079553382,-11.68863774,0.008187218000000001,0.066380015,0.072290429,-1.05e+21,63.51134614,62.32473864,4.0592946780000005,5.857158302,15.33892955,19.14988712,-0.076219157,0.043798619000000004,-0.22169740300000002,26.10474377,454.91010389999997,12.04631016,95978.96625,1.140388931,0.273253227,0.031769526,0.625475931,0.016740889,0.093074604,0.07212566200000001,-0.108060548,0.288818746,-0.226298305,0.982705522,-0.036875489,0.148813099,-0.10384762,0.572952755,398731570.4,327364690.9,454506.2082,18.76789558,18.49994179,-3.1437447489999997,-4.484614683,6.114528995,0,0,0.0,39.8714138,32.7364372,197.6836006,2.130024689,-55.49912739,18.34625293,-2.8409329839999997,-4.967486911,-0.28950394,1.298153987,-1.868949536,-0.099728606,55.58229295,-0.05567310599999999,0.026078284,-0.027070677999999997,0.5716701999999999,33798599,0,1,0,0,0
455,33856963,-0.043272450999999997,-0.004815348,-0.031110002999999997,0.5645775,0.0,1484.0,1500.0,1566.176635,1522.176635,1476.823365,1495.0,18.91130875,19.33250261,18.87628925,18.88364042,19.30396882,18.93111535,19.3525024,218.5833915,218.5833915,12.04604773,-0.0019949679999999997,-0.006720060999999999,0.0010686839999999999,-0.185789112,0.193810145,-0.091292551,2.0,-0.816763353,0.183236647,11,0,0,1.0,0.0,0.0,0,0,0,0,0,-0.10480969999999999,0.288643665,-0.224805977,-0.062338885999999996,11.5945381,202.2745374,53.19950923,-0.026464468999999997,-0.023169007000000002,-0.038722023,0.0,2.729840275,2.0763747169999998,-11.0438033,-7.73e+20,959.7218436,12.04150405,0.016375202,0.087624719,0.07757414,2.6432931490000002,2.160607739,-11.52062324,0.007922911999999999,0.062420500000000004,0.071186914,-7.73e+20,63.74102383,62.59587464,4.057221667,5.858107638,15.33911234,19.14702906,-0.076158343,0.029184241,-0.22214983,26.46097568,454.9060855,12.0447692,95979.03369,1.140389701,-0.216945434,-0.322038263,0.440619992,0.011523451,0.09309784800000001,0.07620453599999999,-0.113058614,0.28910609,-0.226612685,0.982574445,-0.039290538,0.149219233,-0.10361955,0.57417768,398731650.4,327364673.2,454717.7622,18.74613923,18.48806961,-3.09034807,-4.606214947,6.117185983,0,0,0.0,39.8714138,32.7364372,198.5744611,1.991384751,-55.74153966,18.33545062,-2.780644961,-5.052640193,-0.28709613,1.311772955,-1.749287654,-0.096114195,55.82470487,-0.06479214,0.019419299999999997,-0.026667535,0.5731874,33856963,0,1,0,0,0
456,33902364,-0.046267391,-0.007704829,-0.031151932,0.56636906,0.0,1484.0,1500.0,1568.0,1522.0,1477.0,1494.0,18.91778509,19.33933983,18.87737687,18.88420952,19.30481183,18.93448016,19.35620462,218.5723759,218.5723759,12.044307400000001,-0.0019945970000000003,-0.006714029,0.0010670010000000001,-0.185701648,0.193932805,-0.091215884,2.0,-0.8141628329999999,0.185837167,11,0,0,1.0,0.0,0.0,0,0,0,0,0,-0.106318589,0.288794153,-0.222639118,-0.061980908,11.47307811,201.3683159,53.15559032,-0.026524507000000003,-0.023295133,-0.039217659,0.0,2.74870853,2.0755752309999997,-10.92655117,-2.64e+20,959.6847617000001,12.03993848,0.007057101999999999,0.07861604900000001,0.07861421,2.55825292,2.145543024,-11.34401323,0.008596982,0.058635637000000004,0.070173563,-2.64e+20,63.97070376,62.86641785,4.055190801,5.856579485,15.33930628,19.14468482,-0.076107578,0.015737191,-0.222607284,26.81375176,455.2703239,12.04320007,95974.78395,1.1403391520000001,0.323935555,0.118037155,0.034589989,0.017349698,0.086727606,0.0747515,-0.108801963,0.28934484,-0.22064424100000002,0.982945297,-0.037629776000000004,0.149003842,-0.100995711,0.575572854,398731732.5,327364655.8,454956.1594,18.72239448,18.47619724,-3.030986197,-4.705942916000001,6.120294218,0,0,0.0,39.8714138,32.7364372,199.43260990000002,1.8604421290000002,-55.97905838,18.3256801,-2.7222733889999997,-5.1290344469999996,-0.281614702,1.336751673,-1.631380404,-0.092605461,56.06222213,-0.074358609,0.012316928999999999,-0.026251393999999997,0.57438576,33902364,0,1,0,0,0
457,33946246,-0.044364993,-0.010388537,-0.031517975,0.56771162,0.0,1483.0,1500.0,1569.0,1523.0,1476.0,1492.0,18.84178072,19.26183483,18.87846449,18.88477863,19.30565483,18.93784498,19.35990685,218.5613602,218.5613602,12.04256707,-0.001994226,-0.006707996,0.001065318,-0.185614184,0.19405546399999998,-0.091139217,2.0,-0.8115623120000001,0.18843768800000002,11,0,0,1.0,0.0,0.0,0,0,0,0,0,-0.107827478,0.288944641,-0.22047225899999998,-0.061622931,11.35161812,200.4620944,53.11167141,-0.026584589,-0.023424942999999997,-0.039683312000000005,0.0,2.775823182,2.09072462,-10.82884898,-2.44e+20,959.655574,12.03835852,0.015208524,0.062201582000000005,0.077373414,2.614362727,2.1554945969999997,-11.17721593,0.006160798,0.054494164000000005,0.06913904900000001,-2.44e+20,64.20038696,63.13609204,4.05322172,5.851419387999999,15.33951658,19.14309382,-0.076071545,0.004001418,-0.223072107,27.16146167,455.49783139999994,12.04159752,95972.22447999999,1.140308805,-0.637907078,-0.43789738200000006,0.529748278,0.006460389,0.079478863,0.075236476,-0.11388319300000001,0.28954501899999996,-0.220956723,0.982817077,-0.040091898,0.149364368,-0.100763208,0.577369318,398731814.7,327364638.5,455194.5567,18.69864973,18.46432486,-2.971624325,-4.805670886000001,6.123402453,0,0,0.0,39.8714138,32.7364372,200.32438100000002,1.727474619,-56.22991129,18.31612649,-2.660506654,-5.203382726,-0.262601009,1.3413874140000002,-1.509161916,-0.089106459,56.31307499,-0.069633448,0.006639094,-0.026228841,0.57588524,33946246,0,1,0,0,0
458,33990128,-0.045339313,-0.012944022,-0.03189041,0.5689683000000001,0.0,1483.0,1500.0,1571.0,1522.0,1477.0,1491.0,18.88295843,19.30408371,18.87955211,18.88534773,19.30649784,18.94120979,19.36360908,218.5503446,218.5503446,12.04082675,-0.001993855,-0.006701963000000001,0.001063636,-0.18552672,0.19417812399999998,-0.091062549,2.0,-0.8089617920000001,0.19103820800000001,11,0,0,1.0,0.0,0.0,0,0,0,0,0,-0.10933636599999999,0.289095129,-0.2183054,-0.061264954,11.23015813,199.5558729,53.067752500000005,-0.026647319,-0.023555563999999998,-0.040147107,0.0,2.8118803110000004,2.1231691269999997,-10.75234692,-7.52e+20,959.6349466,12.03676293,0.001779183,0.067696564,0.079299371,2.677609154,2.067675298,-11.06535013,0.000351821,0.04996598,0.068081583,-7.52e+20,64.43007016,63.40576624,4.051252638,5.84625929,15.33972688,19.14150282,-0.076035512,-0.007734354000000001,-0.22353693,27.50917157,455.45940470000005,12.03996514,95972.67801,1.140314159,0.344399485,-0.38709928,-0.12999259900000001,0.007501799,0.07304411,0.069418243,-0.112614207,0.28970296,-0.21683323699999998,0.9830356640000001,-0.039766695,0.14929800699999998,-0.098825521,0.5789950220000001,398731896.8,327364621.2,455432.95399999997,18.67490498,18.45245249,-2.912262452,-4.905398855,6.126510688,0,0,0.0,39.8714138,32.7364372,201.2526124,1.592311302,-56.49522394,18.30680811,-2.595058167,-5.275512329,-0.22891279399999998,1.323963027,-1.382268279,-0.08561800900000001,56.57838909,-0.07772043599999999,0.001262252,-0.025940302000000002,0.577436563,33990128,0,1,0,0,0
459,34038011,-0.047646742,-0.015610361000000001,-0.032289117,0.57077134,0.0,1483.0,1500.0,1573.0,1524.0,1475.0,1490.0,18.90680256,19.32896755,18.88063973,18.88591684,19.30734085,18.944574600000003,19.36731131,218.539329,218.539329,12.03908642,-0.001993484,-0.00669593,0.001061953,-0.185439255,0.194300783,-0.09098588199999999,2.0,-0.8063612720000001,0.193638728,11,0,0,1.0,0.0,0.0,0,0,0,0,0,-0.110845255,0.289245618,-0.21613854100000002,-0.060906975999999995,11.10869814,198.6496514,53.02383359,-0.026701192000000002,-0.023685675,-0.040576546,0.0,2.810713991,2.119228107,-10.67344118,-1.05e+21,959.6087570000001,12.03514891,0.004145314000000001,0.05750828,0.072849525,2.6462126169999998,2.1074496480000002,-11.02590184,-0.005188755,0.046215897,0.065920623,-1.05e+21,64.65975336,63.67544043,4.049283556000001,5.841099193,15.33993718,19.13991183,-0.07599947900000001,-0.019470126,-0.224001752,27.85688148,456.0686163,12.03833143,95965.6656,1.140230919,-0.20857256100000002,0.266583215,0.302300511,-0.006748245999999999,0.065330112,0.07225754,-0.114925408,0.28983178600000004,-0.21521822699999998,0.983061258,-0.041016197000000004,0.149440462,-0.097854741,0.580372834,398731979.0,327364603.8,455671.3513,18.65116023,18.44058012,-2.85290058,-5.0051268239999995,6.129618923,0,0,0.0,39.8714138,32.7364372,202.1513571,1.463744868,-56.75453381,18.29928848,-2.5321166859999997,-5.341084073999999,-0.20594417,1.286950251,-1.2597889340000001,-0.08234789599999999,56.83769941,-0.07406726200000001,-0.004656181,-0.025781947000000003,0.57922566,34038011,0,1,0,0,0
460,34085893,-0.045829407,-0.018355559,-0.032111432,0.5725571,0.0,1483.0,1500.0,1574.0,1524.0,1475.0,1489.0,18.84607584,19.26688023,18.88172735,18.88648594,19.30818385,18.94793941,19.37101353,218.5283134,218.5283134,12.03734609,-0.001993113,-0.0066898980000000005,0.00106027,-0.18535179100000002,0.194423443,-0.090909215,2.0,-0.8037607520000001,0.196239248,11,0,0,1.0,0.0,0.0,0,0,0,0,0,-0.112354144,0.28939610600000004,-0.213971682,-0.060548999000000006,10.98723815,197.74342990000002,52.97991468,-0.026759803,-0.023821716,-0.041005859,0.0,2.7568701769999997,2.06379539,-10.59113382,-1.05e+21,959.5746960000001,12.03350879,0.001501635,0.053260761,0.07139984099999999,2.6311494730000002,2.175621041,-10.91577718,-0.010349498,0.04356696,0.062198033,-1.05e+21,64.89591802,63.95249704,4.04726256,5.834307942000001,15.34014467,19.13917539,-0.075980595,-0.031053905,-0.224483243,28.21233416,456.161554,12.03663733,95964.58834,1.140218103,-0.34460215200000005,0.245828888,-0.016867091,-0.011071791000000001,0.060130422,0.059631738,-0.120032816,0.289939622,-0.21545761300000002,0.982934216,-0.043502402999999995,0.14974795400000002,-0.09758641900000001,0.581530798,398732058.0,327364588.5,455918.7824,18.63419084,18.42870774,-2.7957971589999997,-5.091304106,6.13256936,0,0,0.0,39.8714138,32.7364372,203.0083731,1.344514145,-57.00534873,18.29431438,-2.472723041,-5.3973753360000005,-0.198145588,1.222216582,-1.143556562,-0.079386768,57.08851336,-0.081629416,-0.009608474,-0.025838474,0.5805428,34085893,0,1,0,0,0
461,34133776,-0.049182674,-0.020619026999999998,-0.032458819,0.57379675,0.0,1483.0,1500.0,1575.0,1524.0,1475.0,1488.0,18.86796564,19.28958792,18.88281497,18.88705505,19.30902686,18.95130422,19.37471576,218.5172977,218.5172977,12.03560576,-0.001992742,-0.006683865,0.001058587,-0.185264327,0.194546102,-0.09083254699999999,2.0,-0.8011602320000001,0.198839768,11,0,0,1.0,0.0,0.0,0,0,0,0,0,-0.113863033,0.289546594,-0.211804823,-0.060191022000000004,10.86577816,196.8372084,52.93599577,-0.026818658999999998,-0.023955972000000002,-0.041426215,0.0,2.74703383,2.010550443,-10.48471446,-1.05e+21,959.5440784,12.03170931,-0.005258498,0.048192202,0.063937445,2.684171493,2.0848670780000003,-10.78256487,-0.015323793999999998,0.038851672000000004,0.059738560999999996,-1.05e+21,65.15431168,64.25487259,4.0450635130000006,5.821922439,15.34034252,19.14136977,-0.076020531,-0.042116403,-0.2250219,28.59434168,456.6187721,12.03494218,95959.35027000001,1.140155784,-0.098251176,-0.16279601800000001,0.0345964,-0.00847615,0.059067617999999995,0.062859031,-0.11593847300000001,0.290018838,-0.209398582,0.983307825,-0.041938522,0.14946035800000002,-0.09491140699999999,0.582089581,398732136.8,327364573.3,456166.6775,18.61756951,18.41683537,-2.738809762,-5.17678525,6.1355116910000005,0,0,0.0,39.8714138,32.7364372,203.8898544,1.224117809,-57.26543581,18.28995327,-2.411935351,-5.452003415,-0.165745654,1.19020246,-1.038377548,-0.07638852,57.34859981,-0.08965845900000001,-0.014816659,-0.025728326,0.5816717,34133776,0,1,0,0,0
462,34181658,-0.046892949,-0.022946366,-0.032736386,0.5749506999999999,0.0,1483.0,1500.0,1577.0,1525.0,1474.0,1487.0,18.84244218,19.26375024,18.88390259,18.88762415,19.30986986,18.95466903,19.37841799,218.5062821,218.5062821,12.03386543,-0.001992371,-0.006677832,0.001056904,-0.185176863,0.194668762,-0.09075588,2.0,-0.798559712,0.201440288,11,0,0,1.0,0.0,0.0,0,0,0,0,0,-0.115371921,0.289697082,-0.20963796399999998,-0.059833045,10.74431818,195.9309869,52.89207687,-0.026874627999999998,-0.024090663,-0.041840637,0.0,2.8195222460000005,1.9613981569999999,-10.33318877,-1.05e+21,959.5199026,12.02961172,-0.01127358,0.05386424099999999,0.061824172000000004,2.740513379,2.0594996759999997,-10.69559721,-0.019949303,0.030270861,0.05964200099999999,-1.05e+21,65.41270533,64.55724813,4.042864466,5.809536937000001,15.34054038,19.14356415,-0.076060466,-0.053178900999999994,-0.225560557,28.976349199999998,456.7136722,12.03324626,95958.25813,1.140142845,-0.311359924,-0.181567877,-0.128775976,-0.012387593,0.051657151,0.059992083,-0.120852775,0.290080104,-0.20960821,0.98318771,-0.044335412000000005,0.149727833,-0.094644644,0.5824075870000001,398732215.6,327364558.2,456414.5727,18.60094819,18.40496299,-2.681822364,-5.262266393,6.138454022,0,0,0.0,39.8714138,32.7364372,204.8171031,1.101540961,-57.54286831,18.28673887,-2.3485398230000003,-5.503520175,-0.087323971,1.21939679,-0.953876052,-0.073320832,57.62603231,-0.084040722,-0.01907551,-0.025792211000000002,0.58214027,34181658,0,1,0,0,0
463,34225540,-0.050164422,-0.024810774,-0.033185064,0.5767850999999999,0.0,1483.0,1500.0,1579.0,1523.0,1476.0,1486.0,18.86308699,19.28517477,18.88499021,18.88819325,19.31071287,18.95803385,19.38212021,218.4952665,218.4952665,12.03212511,-0.0019920000000000003,-0.006671799,0.001055222,-0.185089399,0.19479142100000002,-0.090679212,2.0,-0.795959192,0.20404080800000002,11,0,0,1.0,0.0,0.0,0,0,0,0,0,-0.11688081,0.289847571,-0.207471105,-0.059475067,10.62285819,195.0247654,52.84815796,-0.026935597999999998,-0.024223922999999998,-0.042240449000000006,0.0,2.8630499589999996,1.945352797,-10.20767218,-1.05e+21,959.4917561000001,12.02762263,-0.008343686999999999,0.042883887999999995,0.063668519,2.730516523,2.093768509,-10.54917165,-0.02287814,0.023799057000000002,0.060363575,-1.05e+21,65.67109899,64.85962368,4.04066542,5.797151435,15.34073824,19.14575853,-0.076100401,-0.064241399,-0.226099214,29.35835672,456.9123445,12.031518199999999,95955.96042,1.140115533,-0.292424792,-0.09901658099999999,-0.594500625,-0.014675095,0.04921358,0.058853950999999995,-0.125802185,0.290103897,-0.209791599,0.983064681,-0.046753284000000006,0.149977559,-0.094363054,0.582731455,398732294.5,327364543.0,456662.4679,18.58432687,18.39309062,-2.624834967,-5.347747537,6.141396352,0,0,0.0,39.8714138,32.7364372,205.72427109999998,0.98310824,-57.81563622,18.28384533,-2.28668222,-5.551541912999999,-0.036674629,1.244973993,-0.87497741,-0.07031211400000001,57.89879995,-0.09108601,-0.023565389,-0.02597059,0.5824339,34225540,0,1,0,0,0
464,34277423,-0.051478443,-0.026940986,-0.03330613,0.57844716,0.0,1483.0,1500.0,1580.0,1525.0,1474.0,1485.0,18.84555507,19.26739248,18.88607783,18.88876236,19.31155588,18.96139866,19.38582244,218.4842509,218.4842509,12.03038478,-0.001991629,-0.0066657669999999995,0.001053539,-0.185001935,0.19491408100000002,-0.090602545,2.0,-0.793358672,0.206641328,11,0,0,1.0,0.0,0.0,0,0,0,0,0,-0.118389699,0.289998059,-0.20530424600000002,-0.05911709,10.501398199999999,194.1185439,52.80423905,-0.026995227000000004,-0.024351737000000002,-0.042650038,0.0,2.833075071,2.013333207,-10.148166999999999,-1.05e+21,959.4535318,12.02590893,-0.013747786000000001,0.038201053,0.066412941,2.795434522,1.964632784,-10.41556743,-0.021500802000000003,0.02267994,0.06316158,-1.05e+21,65.92817233,65.16032334,4.038484148,5.784713005,15.34093643,19.14775404,-0.076136352,-0.075134048,-0.226635741,29.73806342,457.34904900000004,12.02976085,95950.95277999999,1.140056049,-0.544017209,0.003638326,0.06355986,-0.012076206,0.047449875,0.06143717,-0.12160652400000001,0.29011513899999997,-0.20368218899999999,0.9834445070000001,-0.045147595,0.14964757199999998,-0.091673354,0.582928583,398732374.5,327364528.6,456923.0088,18.56946189,18.38297459,-2.562578516,-5.408639675,6.144645306,0,0,0.0,39.8714138,32.7364372,206.58047380000002,0.875193362,-58.07656538,18.28176613,-2.2287278919999998,-5.590693243,-0.056511815,1.261370885,-0.810298875,-0.067453063,58.15972814,-0.09831167099999999,-0.027118259,-0.026052271000000002,0.5827595,34277423,0,1,0,0,0
465,34325305,-0.048873778,-0.028840882,-0.033305972,0.57992977,0.0,1483.0,1500.0,1581.0,1525.0,1474.0,1484.0,18.89918522,19.32253258,18.88716545,18.88933146,19.31239888,18.96476347,19.38952467,218.4732352,218.4732352,12.02864445,-0.001991258,-0.0066597340000000005,0.001051856,-0.18491447,0.19503674,-0.090525878,2.0,-0.790758152,0.209241848,11,0,0,1.0,0.0,0.0,0,0,0,0,0,-0.120023887,0.29009926199999997,-0.2032457,-0.058788227,10.38677581,193.21321799999998,52.76560467,-0.027050219,-0.024482196,-0.043063816,0.0,2.80609051,2.054322409,-10.07650637,-1.05e+21,959.4176558,12.02419523,-0.017304987,0.036633427,0.057038482,2.77812874,2.0107487180000003,-10.32491687,-0.022487154,0.020167176999999998,0.065133006,-1.05e+21,66.15785505,65.42625594,4.036671631,5.771176577,15.34114146,19.14562377,-0.076089651,-0.082503107,-0.22712807699999998,30.07003871,457.44924560000004,12.0280045,95949.77586000001,1.140042044,0.819755085,0.026184986,0.14132107800000002,-0.020291728000000002,0.033817641,0.055825871,-0.126551591,0.290098566,-0.203915769,0.983320348,-0.047562455,0.149871201,-0.091418548,0.583216775,398732455.0,327364514.6,457188.0002,18.55521504,18.373476699999998,-2.498467694,-5.460878052000001,6.148002172999999,0,0,0.0,39.8714138,32.7364372,207.4518247,0.7668201929999999,-58.34303187,18.27989446,-2.169762537,-5.6287761320000005,-0.071787658,1.267021387,-0.7439545670000001,-0.064512741,58.42619408,-0.091834825,-0.030286521,-0.026345419,0.5829408,34325305,0,1,0,0,0
466,34374375,-0.051905594000000006,-0.030570067000000003,-0.033729281,0.581288066,0.0,1483.0,1500.0,1582.0,1525.0,1474.0,1483.0,18.88303256,19.30630705,18.88825307,18.88990057,19.31324189,18.96812828,19.3932269,218.4622196,218.4622196,12.02690412,-0.001990887,-0.006653701,0.001050173,-0.18482700600000002,0.19515939899999998,-0.09044921,2.0,-0.788157632,0.211842368,11,0,0,1.0,0.0,0.0,0,0,0,0,0,-0.12211034400000001,0.29002257,-0.201578112,-0.058564452,10.29683391,192.3111249,52.74604493,-0.027109884,-0.024619076,-0.043484278,0.0,2.789899601,1.9978862080000002,-9.960970373,-1.05e+21,959.3902559,12.02248152,-0.019792255,0.024933907999999998,0.056392967,2.808479811,1.9991195640000001,-10.19702589,-0.032005298,0.01262402,0.064120872,-1.05e+21,66.38753777,65.69218854,4.034859113,5.757640148999999,15.3413465,19.14349351,-0.07604295,-0.089872165,-0.227620413,30.40201401,457.735028,12.02621715,95946.50351000001,1.140003217,0.275026406,0.068981415,-0.578508629,-0.022530694,0.040289976,0.057178911,-0.13154503,0.290062308,-0.20410437899999997,0.9831924329999999,-0.050005223,0.150085915,-0.091138237,0.583367655,398732535.5,327364500.6,457452.9916,18.54096819,18.3639788,-2.434356871,-5.513116427999999,6.151359039,0,0,0.0,39.8714138,32.7364372,208.3778535,0.656792809,-58.62948551,18.27877184,-2.1071478569999997,-5.663002455,-0.070599219,1.2338825390000001,-0.671597612,-0.061279074,58.71264869,-0.10176319699999999,-0.034481673,-0.026725969,0.58332384,34374375,0,1,0,0,0
467,34425070,-0.04974401,-0.032079122,-0.03363839,0.581985065,0.0,1482.0,1500.0,1582.0,1526.0,1473.0,1482.0,18.83508219,19.25745777,18.88934069,18.89046967,19.314084899999997,18.97149309,19.39692912,218.451204,218.451204,12.02516379,-0.001990515,-0.006647668000000001,0.00104849,-0.18473954199999998,0.19528205899999998,-0.09037254300000001,2.0,-0.7855571109999999,0.214442889,11,0,0,1.0,0.0,0.0,0,0,0,0,0,-0.124196802,0.289945877,-0.199910525,-0.058340678,10.20689202,191.40903169999999,52.72648519,-0.02716486,-0.024751419,-0.043910322,0.0,2.778144541,1.945276732,-9.85979074,-9.73e+20,959.3627462000002,12.02076335,-0.027164581,0.023776997999999997,0.059468515,2.758402032,1.997155216,-10.14531437,-0.039882591,0.006382303000000001,0.062488359,-9.73e+20,66.61722049,65.95812114,4.033046595,5.744103721,15.34155154,19.14136325,-0.075996249,-0.097241224,-0.22811274899999998,30.733989299999998,458.13815819999996,12.024429800000002,95941.83443999999,1.139947752,0.22489675899999997,0.011170407,-0.406843991,-0.022476198,0.041211712000000005,0.058193062999999996,-0.127143267,0.29001046399999997,-0.19795642100000002,0.9835802459999999,-0.048304499,0.149711745,-0.08844726300000001,0.583256359,398732616.0,327364486.6,457717.98299999995,18.52672134,18.3544809,-2.370246049,-5.565354805,6.154715906,0,0,0.0,39.8714138,32.7364372,209.2931,0.5488363820000001,-58.91303370000001,18.27779367,-2.04551445,-5.6958278589999995,-0.069581195,1.2166863559999999,-0.599639206,-0.058068022000000004,58.99619770000001,-0.09468064300000001,-0.037360328,-0.02712341,0.5833406,34425070,0,1,0,0,0
468,34476952,-0.052448281,-0.033579033,-0.033711009,0.5824339,0.0,1482.0,1500.0,1582.0,1525.0,1474.0,1482.0,18.88534944,19.309257199999998,18.89042831,18.89103878,19.314927899999997,18.9748579,19.40063135,218.4401884,218.4401884,12.02342347,-0.001990144,-0.006641635,0.001046807,-0.184652078,0.195404718,-0.090295875,2.0,-0.7829565909999999,0.217043409,11,0,0,1.0,0.0,0.0,0,0,0,0,0,-0.12628326,0.289869184,-0.19824293699999998,-0.058116903,10.11695012,190.50693859999998,52.70692545,-0.027219458,-0.024878881000000002,-0.044346228,0.0,2.791283558,1.9141429159999999,-9.83917935,-4.65e+20,959.3346201999999,12.01902012,-0.027980095,0.029079288,0.061191105999999995,2.874634056,2.054842096,-10.05215344,-0.038551387,0.0074443,0.05737426,-4.65e+20,66.84690321,66.22405373,4.031234077,5.730567292999999,15.34175657,19.13923298,-0.07594954799999999,-0.10461028300000001,-0.228605086,31.06596459,458.3541149,12.02264245,95939.37062999999,1.139918495,-0.24988648800000002,-0.5709662320000001,-0.145590574,-0.032672995,0.029706622999999998,0.059639272,-0.13188397300000002,0.289954036,-0.19811121199999998,0.983460005,-0.050627205999999994,0.1498972,-0.088170481,0.58300841,398732697.1,327364473.1,457991.12700000004,18.514982999999997,18.35125413,-2.307389478,-5.5987794939999995,6.158007062,0,0,0.0,39.8714138,32.7364372,210.1478358,0.45250221399999996,-59.18027645,18.27762617,-1.989387975,-5.72079128,-0.069519539,1.288960752,-0.529917462,-0.054983887,59.26344045,-0.099941683,-0.039385122,-0.027439231,0.583162485,34476952,0,1,0,0,0
469,34524835,-0.05459653,-0.034828569,-0.034177482,0.5827595,0.0,1482.0,1500.0,1583.0,1526.0,1473.0,1481.0,18.8556147,19.27917242,18.89151593,18.89160788,19.31577091,18.97822272,19.40433358,218.4291728,218.4291728,12.02168314,-0.001989773,-0.006635603,0.001045125,-0.184564614,0.195527378,-0.09021920800000001,2.0,-0.7803560709999999,0.219643929,11,0,0,1.0,0.0,0.0,0,0,0,0,0,-0.128369717,0.289792492,-0.19657534899999998,-0.057893127999999995,10.02700822,189.6048455,52.68736571,-0.027280482,-0.025021223999999998,-0.044807208,0.0,2.8038091689999995,1.886149199,-9.812751711,-4.35e+19,959.3054983,12.01727561,-0.032304686,0.017741056,0.06303748099999999,2.883962685,1.9579474959999998,-9.959711052000001,-0.037099977,0.008427243000000001,0.053122979,-4.35e+19,67.07658676,66.48768056,4.029536952,5.714586535,15.34198813,19.13079181,-0.07577609099999999,-0.11250110099999999,-0.22910401,31.39018594,458.6173305,12.02084908,95936.3729,1.139882815,0.246277943,-0.150210252,0.29501026399999997,-0.026365775,0.02577715,0.065497619,-0.13663517,0.289874931,-0.198265186,0.983335656,-0.052956075,0.150071495,-0.08789307800000001,0.582694469,398732778.8,327364460.0,458271.5525,18.5054851,18.35362836,-2.245653131,-5.615400889,6.16123953,0,0,0.0,39.8714138,32.7364372,211.0086409,0.35604518399999996,-59.44965611,18.27741441,-1.932940071,-5.745499444,-0.06712860799999999,1.351463755,-0.460176745,-0.051892574000000004,59.53282007,-0.10604902,-0.042313385,-0.027972642000000002,0.5828685,34524835,0,1,0,0,0
470,34576717,-0.05164324,-0.036006912,-0.034549189,0.5829408,0.0,1482.0,1500.0,1583.0,1527.0,1472.0,1480.0,18.87734375,19.30141014,18.89260355,18.89217698,19.31661391,18.98158753,19.40803581,218.4181571,218.4181571,12.01994281,-0.001989402,-0.00662957,0.001043442,-0.18447714899999998,0.195650037,-0.09014254099999999,2.0,-0.7777555509999999,0.22224444899999998,11,0,0,1.0,0.0,0.0,0,0,0,0,0,-0.130456175,0.289715799,-0.19490776199999998,-0.057669354000000006,9.937066326,188.7027524,52.66780598,-0.027331842000000002,-0.025138844,-0.045204508,0.0,2.8097769689999996,1.891725703,-9.724143597000001,-5.52e+20,959.2657298,12.01551737,-0.029659915,0.017387135,0.065397572,2.862892968,1.971553058,-9.899332366,-0.034363477,0.008565032,0.058095943,-5.52e+20,67.30627044,66.75095129,4.027857647,5.698228275,15.34222379,19.12137597,-0.07558305900000001,-0.12047249900000001,-0.229603952,31.71320978,458.9483526000001,12.01903033,95932.54413,1.1398372079999999,-0.41877356200000004,0.02508116,-0.458404814,-0.029592232000000003,0.030486241,0.061443067999999997,-0.132235169,0.28979156699999997,-0.192123657,0.983721704,-0.051256944000000006,0.149680165,-0.085205954,0.5822415329999999,398732860.5,327364447.0,458551.97799999994,18.495987200000002,18.3560026,-2.183916783,-5.632022285,6.164471997000001,0,0,0.0,39.8714138,32.7364372,211.9343309,0.258274657,-59.74188115,18.27672941,-1.8730558419999999,-5.767478698,-0.039835823,1.309502533,-0.39023318700000004,-0.048724527999999996,59.82504463,-0.098722966,-0.04402801,-0.028421927000000003,0.5824619000000001,34576717,0,1,0,0,0
471,34640599,-0.053714425999999996,-0.037721357999999997,-0.035119924,0.583251627,0.0,1482.0,1500.0,1583.0,1525.0,1474.0,1480.0,18.83558598,19.25907427,18.89369117,18.89274609,19.31745692,18.98495234,19.41173803,218.4071415,218.4071415,12.01820248,-0.001989031,-0.006623537,0.001041759,-0.184389685,0.195772697,-0.090065873,2.0,-0.7751550309999999,0.22484496899999998,11,0,0,1.0,0.0,0.0,0,0,0,0,0,-0.13254263300000002,0.289639107,-0.193240174,-0.057445579000000004,9.847124427999999,187.80065919999998,52.64824624,-0.027385051,-0.025279469,-0.045631169000000006,0.0,2.815071585,1.896895644,-9.636559548,-1.05e+21,959.2261264,12.01375884,-0.039078802,0.018382788,0.065647087,2.834470992,2.0654200680000003,-9.813556161000001,-0.031903682,0.00865642,0.062942515,-1.05e+21,67.53595412,67.01422201,4.026178342,5.681870013999999,15.34245945,19.11196013,-0.075390027,-0.128443898,-0.23010389399999998,32.03623361,459.16687790000003,12.01721216,95930.03325,1.1398075220000001,0.628863896,-0.408587239,0.329057024,-0.0312868,0.019825726999999998,0.058744283,-0.136854355,0.289680174,-0.192267275,0.983602282,-0.053523864000000004,0.149825723,-0.08493518,0.581537471,398732942.2,327364433.9,458832.4035,18.486489300000002,18.35837684,-2.122180436,-5.64864368,6.167704465,0,0,0.0,39.8714138,32.7364372,212.85864890000002,0.16075104099999998,-60.03369428,18.27608414,-1.81329422,-5.789338412,-0.012964308,1.267737097,-0.321576784,-0.04556222099999999,60.11685731,-0.10351020699999999,-0.046446055,-0.029026071,0.5819415,34640599,0,1,0,0,0
472,34688963,-0.053819547999999995,-0.038518062,-0.035445811,0.583370893,0.0,1481.515103,1500.0,1583.0,1526.0,1473.0,1480.0,18.90886247,19.33426981,18.89477879,18.89331519,19.31829993,18.98831715,19.41544026,218.39612590000002,218.39612590000002,12.01646215,-0.00198866,-0.006617504000000001,0.001040076,-0.18430222100000002,0.19589535600000002,-0.089989206,2.0,-0.7725545109999999,0.22744548899999997,11,0,0,1.0,0.0,0.0,0,0,0,0,0,-0.13462909,0.289562414,-0.19157258600000002,-0.057221804,9.757182531,186.89856609999998,52.6286865,-0.027438917,-0.025407245,-0.046045607999999995,0.0,2.7870996480000003,1.8819745209999998,-9.599581328,-1.05e+21,959.1946843000001,12.01198608,-0.038342741,0.011710962,0.065670566,2.789024392,1.9467972059999998,-9.818543334,-0.043117685,0.006454896999999999,0.061543179,-1.05e+21,67.76563780000001,67.27749274,4.024499038,5.665511753,15.34269511,19.10254429,-0.075196994,-0.136415297,-0.230603836,32.35925744,459.5144504,12.01537042,95926.03905,1.139760075,0.091963535,0.21358400800000002,-0.042095185,-0.034498987,0.028075687999999998,0.052221267,-0.141407212,0.289578981,-0.19239501399999998,0.9834793759999999,-0.055758547,0.14997259,-0.08466092900000001,0.580605978,398733023.0,327364421.6,459111.0238,18.47774347,18.35924692,-2.062700533,-5.668273655,6.170858182000001,0,0,0.0,39.8714138,32.7364372,213.71517110000002,0.075428968,-60.30515157,18.27740185,-1.759591375,-5.805290855,-0.006910515999999999,1.235646755,-0.316527262,-0.042683501,60.38831605,-0.11048388099999999,-0.048436167,-0.029603582000000003,0.580780699,34688963,0,1,0,0,0
473,34736364,-0.052025367999999995,-0.039331539,-0.035874557,0.583234861,0.0,1481.0,1500.0,1582.0,1527.0,1472.0,1479.0,18.82969518,19.25360868,18.89586641,18.8938843,19.31914293,18.99168196,19.41914249,218.3851103,218.3851103,12.01472182,-0.001988289,-0.006611471999999999,0.001038393,-0.18421475699999998,0.19601801600000002,-0.089912539,2.0,-0.769953991,0.230046009,11,0,0,1.0,0.0,0.0,0,0,0,0,0,-0.13671554800000002,0.289485722,-0.189904999,-0.05699803,9.667240634,185.996473,52.60912676,-0.027500319,-0.025541663,-0.046480323,0.0,2.75912771,1.867053399,-9.562603108,-1.05e+21,959.1632422,12.01021331,-0.036810515,0.009580675,0.061790798,2.832520826,1.959666067,-9.70023178,-0.054331689,0.004253374,0.060143844,-1.05e+21,68.01502974,67.56106593,4.022789991000001,5.64758047,15.34289989,19.10286976,-0.075199408,-0.13945096099999998,-0.23115456199999998,32.70447012,459.813233,12.01354425,95922.62801,1.139719509,0.076749249,-0.13457012,0.48445214600000003,-0.032710502999999995,0.024465299,0.061010472,-0.145812894,0.289455361,-0.19252128100000002,0.983357327,-0.057921898,0.15010172300000002,-0.084397734,0.579683477,398733101.8,327364410.9,459385.7506,18.47061981,18.35687269,-2.008087586,-5.694392879,6.173842042,0,0,0.0,39.8714138,32.7364372,214.5716932,-0.009893106,-60.57660886,18.27871956,-1.70588853,-5.8212432970000005,-0.0008567239999999999,1.203556412,-0.31147774,-0.03980478,60.65977479,-0.116277546,-0.050096377000000004,-0.030293482000000004,0.5796789000000001,34736364,0,1,0,0,0
474,34796246,-0.054006705,-0.040724017,-0.036377537,0.5828685,0.0,1481.0,1500.0,1582.0,1525.0,1474.0,1479.0,18.89327819,19.31878722,18.89695403,18.8944534,19.31998594,18.99504678,19.42284471,218.3740946,218.3740946,12.0129815,-0.001987918,-0.006605439,0.001036711,-0.184127293,0.196140675,-0.089835871,2.0,-0.767353471,0.232646529,11,0,0,1.0,0.0,0.0,0,0,0,0,0,-0.138802006,0.289409029,-0.18823741100000002,-0.056774255,9.577298737000001,185.0943799,52.58956702,-0.027550723,-0.025666163,-0.046876695999999995,0.0,2.795106159,1.903962282,-9.526853984,-1.05e+21,959.1279710000001,12.00801746,-0.035435163,0.004128268,0.060399365,2.8083878839999996,1.95371238,-9.575331139,-0.052340172000000004,0.00011909299999999999,0.057138995,-1.05e+21,68.27342364,67.85391248,4.021067358,5.628930694,15.34309057,19.10764467,-0.075291094,-0.14023218,-0.23172848399999998,33.05981777,460.18965810000003,12.01169529,95918.26754,1.1396676209999999,-0.319739961,0.871564509,0.040132787,-0.035204374,0.01697686,0.05431089099999999,-0.141138168,0.289323322,-0.18638433399999998,0.983754459,-0.056089716,0.149667832,-0.0817356,0.5787899329999999,398733180.6,327364400.2,459660.4773,18.46349615,18.35449845,-1.95347464,-5.720512102000001,6.176825902999999,0,0,0.0,39.8714138,32.7364372,215.4947372,-0.09588989,-60.87113629,18.2770613,-1.6503842119999999,-5.832682866,-0.031415087,1.149988813,-0.245103927,-0.036940663,60.95430089999999,-0.107099885,-0.051476224,-0.031167301,0.5787934,34796246,0,1,0,0,0
475,34844129,-0.051882646,-0.041235164,-0.036702585,0.5824619000000001,0.0,1481.0,1500.0,1581.0,1526.0,1473.0,1478.0,18.94073623,19.367690600000003,18.89804165,18.8950225,19.32082895,18.99841159,19.42654694,218.363079,218.363079,12.01124117,-0.001987547,-0.0065994059999999995,0.0010350280000000001,-0.18403982800000002,0.196263335,-0.08975920400000001,2.0,-0.764752951,0.23524704899999999,11,0,0,1.0,0.0,0.0,0,0,0,0,0,-0.14088846300000002,0.289332337,-0.186569823,-0.056550481,9.48735684,184.1922868,52.57000728,-0.027599422999999998,-0.025790643999999998,-0.047279442000000005,0.0,2.834158878,1.943362777,-9.491163946,-1.05e+21,959.0925158,12.00580126,-0.044839055,0.004593875999999999,0.060505047,2.824426003,1.8748073280000002,-9.645572911,-0.04971383,-0.004108102,0.054056965,-1.05e+21,68.53181754,68.14675902,4.019344726,5.610280917000001,15.34328125,19.11241958,-0.07538278,-0.141013398,-0.23230240600000002,33.41516543,460.38725310000007,12.00984633,95916.02875,1.139641022,-0.520098573,-0.322960411,0.096909082,-0.043364430999999995,0.017019837,0.054254457,-0.145421989,0.289190975,-0.18652590800000002,0.9836352359999999,-0.058192873,0.149781732,-0.081490085,0.578037686,398733259.5,327364389.6,459935.20399999997,18.45637249,18.35212421,-1.898861694,-5.746631326,6.179809763,0,0,0.0,39.8714138,32.7364372,216.42097900000002,-0.181919109,-61.16677277,18.27525997,-1.5947932930000002,-5.843905489,-0.063733497,1.095388743,-0.175782085,-0.034077248,61.24993593,-0.11109922900000001,-0.052203248,-0.031967533,0.57804686,34844129,0,1,0,0,0
476,34896011,-0.053203707,-0.042122890999999996,-0.036871133,0.5819415,0.0,1481.0,1500.0,1580.522905,1527.477095,1471.522905,1478.0,18.84773301,19.27277318,18.89121634,18.88845033,19.3143727,18.99523961,19.42356976,218.20391850000001,218.20391850000001,12.00939457,-0.001987505,-0.006593924,0.0010324169999999999,-0.183993944,0.19635763399999998,-0.089668181,2.0,-0.76215243,0.23784757,11,0,0,1.0,0.0,0.0,0,0,0,0,0,-0.142839614,0.289200095,-0.185412971,-0.056453555999999995,9.425230326,183.32952759999998,52.55692361,-0.027650885,-0.0259139,-0.047674756,0.0,2.761985806,1.962013213,-9.48223042,-1.05e+21,959.0625570000001,12.00397903,-0.041236289,-0.000342898,0.052700317,2.798948792,1.9471977219999999,-9.54921994,-0.049911015,-0.005391629,0.047538005999999994,-1.05e+21,68.79021144,68.43960557,4.017622094,5.591631141000001,15.34347194,19.11719448,-0.07547446599999999,-0.14179461599999998,-0.23287632800000002,33.77051308,460.70743,12.00799738,95912.34,1.1395973,0.694798255,-0.04289706099999999,-0.09947521699999999,-0.04888237,0.012794698,0.051735605,-0.149576805,0.28905205300000003,-0.186653211,0.9835165379999999,-0.060233750999999995,0.149886344,-0.081247402,0.577335359,398733338.6,327364378.9,460211.2811,18.44949892,18.35025003,-1.843998702,-5.77375075,6.182797991,0,0,0.0,39.8714138,32.7364372,217.2842347,-0.258239037,-61.44304204,18.27508265,-1.545145259,-5.850308482000001,-0.12310868300000001,1.082232106,-0.11230626099999999,-0.031559944,61.52620547,-0.114576493,-0.053028143,-0.03281,0.57735264,34896011,0,1,0,0,0
477,34947894,-0.055333226,-0.042691831,-0.037242965,0.5810630999999999,0.0,1481.0,1500.0,1579.0,1528.0,1471.0,1478.0,18.96608919,19.39399602,18.8833973,18.88098135,19.30699981,18.99124673,19.41975377,218.02615380000003,218.02615380000003,12.00753462,-0.0019875039999999997,-0.006588511,0.0010296889999999999,-0.18395328100000002,0.196448373,-0.089575355,2.0,-0.75955191,0.24044809,11,0,0,1.0,0.0,0.0,0,0,0,0,0,-0.144773772,0.289060877,-0.18432025800000001,-0.056372560999999995,9.366596906,182.471708,52.54465321,-0.027702596,-0.026033378,-0.048071445,0.0,2.675844843,1.978057827,-9.476657012999999,-1.05e+21,959.0332885,12.00220626,-0.04395199,-0.0046192640000000005,0.050778311,2.819413077,1.8513558719999998,-9.518694141000001,-0.050462784000000004,-0.006305486,0.040587432,-1.05e+21,69.0340577,68.71448425,4.016070436000001,5.573422583999999,15.34367243,19.11682852,-0.075463133,-0.143572414,-0.233422727,34.10259198,460.8663507,12.00614842,95910.50828,1.139575498,-0.240548734,0.395928238,0.025660574,-0.048478041,0.008701347,0.051281049,-0.153102228,0.288902803,-0.18641428,0.9834281570000001,-0.061992802,0.14994924099999998,-0.080872107,0.576313299,398733420.3,327364368.7,460498.83,18.44475021,18.35262426,-1.787011329,-5.809367873999999,6.185823332999999,0,0,0.0,39.8714138,32.7364372,218.13958050000002,-0.333339658,-61.71687915,18.27510928,-1.496243541,-5.856106219,-0.18588169699999998,1.074279993,-0.049564588,-0.029086106,61.80004306,-0.11790741099999999,-0.053557407,-0.033553391,0.5763543999999999,34947894,0,1,0,0,0
478,35003776,-0.056989332999999996,-0.043585079000000006,-0.037748607999999996,0.579701786,0.0,1480.0,1500.0,1578.0,1526.541908,1472.458092,1477.0,18.92350136,19.35076673,18.87557827,18.87351236,19.29962692,18.98725385,19.41593778,217.8483891,217.8483891,12.00567467,-0.001987502,-0.006583098000000001,0.001026962,-0.18391261899999997,0.19653911100000002,-0.089482529,2.0,-0.75695139,0.24304861,11,0,0,1.0,0.0,0.0,0,0,0,0,0,-0.14670793099999999,0.28892166,-0.183227545,-0.056291567,9.307963487,181.6138884,52.53238281,-0.027752073,-0.026153606,-0.048447567000000004,0.0,2.674851372,1.910646047,-9.417969031,-1.05e+21,959.0050395999999,12.00042115,-0.0497408,-0.004579631,0.053633397,2.86396342,1.892420049,-9.469613956,-0.053607895999999995,-0.003947948,0.041661016,-1.05e+21,69.26374042,68.97186948,4.014685238999999,5.555643598,15.34388249,19.1114574,-0.0753515,-0.14632048,-0.233942331,34.41201649,461.1546557,12.00429946,95907.20819,1.139536256,-0.022645129,-0.386006335,-0.055862840999999996,-0.046251657,0.0074202059999999995,0.044294454000000004,-0.148648884,0.288754236,-0.18067955600000002,0.9838031429999999,-0.06023957,0.149523195,-0.07839173599999999,0.575042803,398733502.0,327364358.5,460786.3789,18.4400015,18.354998499999997,-1.730023955,-5.844984997,6.188848676,0,0,0.0,39.8714138,32.7364372,219.0527247,-0.408743653,-62.01000534,18.27370489,-1.44623114,-5.858076489,-0.156354207,1.0484702540000002,-0.012466936999999999,-0.026619811,62.09316974,-0.10740185699999999,-0.054129129000000005,-0.034493901,0.57521243,35003776,0,1,0,0,0
479,35059658,-0.053595102,-0.044165352000000005,-0.03820162,0.5787934,0.0,1480.0,1500.0,1578.0,1527.0,1472.0,1477.0,18.89111723,19.3177396,18.86775923,18.86604338,19.29225403,18.98326097,19.41212179,217.6706244,217.6706244,12.00381472,-0.001987501,-0.006577685,0.001024234,-0.183871956,0.196629849,-0.089389703,2.0,-0.75435087,0.24564913,11,0,0,1.0,0.0,0.0,0,0,0,0,0,-0.148642089,0.288782442,-0.182134832,-0.056210572,9.249330067,180.7560689,52.520112399999995,-0.027799108,-0.026283815,-0.048866192999999995,0.0,2.692204597,1.825251949,-9.347836473,-1.05e+21,958.9770104,11.99863338,-0.04488074400000001,-0.007696774,0.043730137,2.8786365689999998,1.8685856180000002,-9.423381414,-0.057311794000000006,-0.000885524,0.044463561,-1.05e+21,69.49342314,69.22925471,4.013300041,5.537864612000001,15.34409255,19.10608629,-0.075239867,-0.149068545,-0.23446193399999998,34.721441,461.3752579,12.00245051,95904.67685,1.139506155,-0.28065477,-0.030190677000000003,0.059662651,-0.048567877,0.007782085,0.043225582,-0.15251448199999998,0.288604486,-0.180799757,0.983690381,-0.062139437,0.149604662,-0.078168296,0.574018341,398733583.6,327364348.3,461073.9278,18.43525279,18.35737274,-1.6730365809999999,-5.88060212,6.191874017999999,0,0,0.0,39.8714138,32.7364372,219.97832259999998,-0.484213016,-62.30728775,18.27199215,-1.395979422,-5.859222056,-0.106938763,1.0188127409999999,0.019105205,-0.024155142,62.39045263,-0.110349542,-0.05469291,-0.035673745,0.5740624,35059658,0,1,0,0,0
480,35103541,-0.055113325,-0.044430088,-0.038657822,0.57804686,0.0,1480.0,1500.0,1577.0,1527.0,1472.0,1477.0,18.85957314,19.28591686,18.8599402,18.85857439,19.28488114,18.97926809,19.4083058,217.4928597,217.4928597,12.00195477,-0.0019875,-0.006572272,0.001021507,-0.183831293,0.196720587,-0.089296877,2.0,-0.75175035,0.24824965,11,0,0,1.0,0.0,0.0,0,0,0,0,0,-0.150576248,0.288643225,-0.18104211899999997,-0.056129577,9.190696648,179.8982493,52.507842000000004,-0.027841977,-0.02639328,-0.049230395,0.0,2.7393630210000004,1.8399359169999998,-9.319751961,-6.65e+20,958.9392330000001,11.99684598,-0.052261837,-0.00613999,0.044557554000000006,2.709313182,1.876013029,-9.421171758,-0.059442913,-0.0032037,0.042670155,-6.65e+20,69.72310586,69.48663994,4.011914844,5.520085625,15.34430261,19.10071517,-0.075128234,-0.151816611,-0.234981537,35.030865500000004,461.74285360000005,12.00057075,95900.45166,1.139455985,-0.121749018,-0.273842314,-0.143308105,-0.04634991,0.010441785,0.043385617,-0.15620213,0.288445999,-0.180917562,0.983580272,-0.063952205,0.149674537,-0.077957369,0.573127697,398733665.3,327364338.1,461361.4767,18.43050408,18.35974697,-1.6160492069999999,-5.916219244,6.19489936,0,0,0.0,39.8714138,32.7364372,220.8518704,-0.552348658,-62.58687902,18.27122565,-1.350478553,-5.858487577999999,-0.11459085199999999,0.958910919,0.052174653,-0.021823912999999997,62.67004365,-0.11252103199999999,-0.055076244,-0.036714462,0.5731831999999999,35103541,0,1,0,0,0
481,35151423,-0.055350794,-0.044913837000000005,-0.039166543,0.57735264,0.0,1480.0,1500.0,1576.0,1528.0,1471.0,1477.0,18.89348924,19.32079561,18.85212116,18.85110541,19.27750825,18.97527521,19.40448981,217.315095,217.315095,12.00009482,-0.001987498,-0.006566859,0.001018779,-0.183790631,0.196811325,-0.08920405099999999,2.0,-0.74914983,0.25085017,11,0,0,1.0,0.0,0.0,0,0,0,0,0,-0.152510406,0.288504007,-0.179949406,-0.056048583,9.132063228,179.04042980000003,52.4955716,-0.027889594,-0.026510218,-0.049628096,0.0,2.796087744,1.8867410119999999,-9.305163218999999,-1.57e+20,958.8983268,11.9950587,-0.058688717,-0.006027556999999999,0.047998102,2.767490801,1.845181245,-9.372405929,-0.061069232,-0.007248836999999999,0.039401629,-1.57e+20,69.95278858,69.74289769,4.010586041,5.502488099,15.34449672,19.09829146,-0.075075873,-0.154540733,-0.23550448699999998,35.33897044,462.0300915,11.99872159,95897.15122,1.13941684,0.299395474,-0.13820727,0.17100954100000001,-0.049483640999999995,0.009219163,0.049492528,-0.159921236,0.288298615,-0.18103824899999998,0.9834649959999999,-0.065779495,0.149750899,-0.077745017,0.57204896,398733744.5,327364329.6,461643.9318,18.42575515,18.35787679,-1.565429086,-5.9093878779999995,6.1976654270000004,0,0,0.0,39.8714138,32.7364372,221.70871209999999,-0.6181304639999999,-62.86079213,18.27076285,-1.30650252,-5.857149679,-0.14055937599999999,0.889301862,0.085724676,-0.019535513,62.94395628,-0.115033684,-0.055118564,-0.037503676,0.572182892,35151423,0,1,0,0,0
482,35199305,-0.05638056599999999,-0.045025728,-0.0389848,0.5763543999999999,0.0,1480.0,1500.0,1575.0,1526.0,1473.0,1477.0,18.87705872,19.30433548,18.84430213,18.84363642,19.27013536,18.97128233,19.40067382,217.13733030000003,217.13733030000003,11.99823488,-0.001987497,-0.006561445999999999,0.001016051,-0.183749968,0.19690206300000002,-0.089111226,2.0,-0.74654931,0.25345069,11,0,0,1.0,0.0,0.0,0,0,0,0,0,-0.154444565,0.28836479,-0.178856693,-0.055967588,9.073429809,178.1826102,52.4833012,-0.027936547000000003,-0.026619808999999998,-0.050020987999999995,0.0,2.75620423,1.848374108,-9.315194585,-3.51e+20,958.8638462000001,11.99328145,-0.052581863,-0.0026351559999999996,0.049564918,2.7852400339999996,1.8467987609999998,-9.336561691,-0.05854246900000001,-0.009826339,0.03922947,-3.51e+20,70.1824713,69.99683416,4.009373341,5.485264168,15.34465797,19.10193592,-0.075145546,-0.157215559,-0.23603432800000002,35.64435859,462.4435124,11.99687263,95892.40517,1.139360419,0.615265878,0.6604222439999999,-0.017834945,-0.04866733400000001,0.000321085,0.039847939,-0.154565827,0.288155622,-0.174855195,0.983884135,-0.063614793,0.149276041,-0.075110743,0.570781309,398733823.3,327364321.3,461925.782,18.4210062,18.35550255,-1.515565113,-5.897515502999999,6.200400703,0,0,0.0,39.8714138,32.7364372,222.6133978,-0.683828256,-63.14970067,18.27005575,-1.26125656,-5.8526254170000005,-0.15196256800000002,0.8736443620000001,0.090601747,-0.017183832,63.23286467,-0.10385051599999999,-0.054987145,-0.038731117,0.57088095,35199305,0,1,0,0,0
483,35247188,-0.052538851,-0.045425077,-0.039381207,0.57509667,0.0,1479.0,1500.0,1574.0,1527.0,1472.0,1477.0,18.93298847,19.36190745,18.83648309,18.83616744,19.26276246,18.96728945,19.39685783,216.9595656,216.9595656,11.99637493,-0.001987496,-0.006556033,0.001013324,-0.183709305,0.19699280100000002,-0.0890184,2.0,-0.74394879,0.25605121,11,0,0,1.0,0.0,0.0,0,0,0,0,0,-0.156378723,0.288225572,-0.17776398,-0.055886594000000005,9.014796388999999,177.3247906,52.471030799999994,-0.027977441000000002,-0.026730377000000003,-0.050410166,0.0,2.67318482,1.7719776269999998,-9.33621891,-8.6e+20,958.8322347000001,11.99150869,-0.047880037,-0.010676662,0.038832593,2.797243215,1.820359795,-9.236165204,-0.054161343,-0.011748537,0.040439848,-8.6e+20,70.41215402,70.25077064,4.008160642,5.468040237,15.34481922,19.10558038,-0.075215218,-0.159890386,-0.236564169,35.94974675,462.7180577,11.99499315,95889.25538999999,1.1393229759999999,0.03388974,0.27166840800000003,0.328988555,-0.05193221,0.003048598,0.041271962,-0.15808827,0.28801511,-0.1749836,0.98377534,-0.065344792,0.149343308,-0.074917223,0.5695600789999999,398733902.1,327364313.0,462207.6321,18.41625725,18.35312831,-1.46570114,-5.885643129,6.20313598,0,0,0.0,39.8714138,32.7364372,223.53944590000003,-0.749488534,-63.44530471,18.26923956,-1.215443573,-5.846678432999999,-0.156862291,0.8820764090000001,0.08267624900000001,-0.014803895,63.52846871,-0.106140895,-0.054946925,-0.03978292,0.56962824,35247188,0,1,0,0,0
484,35299070,-0.053951106,-0.045739333,-0.040369228,0.5740624,0.0,1479.0,1500.0,1573.0,1527.0,1472.0,1476.40108,18.829622399999998,19.25646498,18.82866406,18.82869846,19.25538957,18.96329658,19.39304184,216.7818009,216.7818009,11.99451498,-0.001987494,-0.00655062,0.001010596,-0.18366864300000002,0.19708354,-0.08892557400000001,2.0,-0.74134827,0.25865173,11,0,0,1.0,0.0,0.0,0,0,0,0,0,-0.158312882,0.288086355,-0.176671267,-0.055805599000000004,8.95616297,176.4669711,52.45876039,-0.028021866,-0.026840207,-0.050805712999999995,0.0,2.6541996759999997,1.766666581,-9.262499665,-1.05e+21,958.8080433,11.98973592,-0.05819507,-0.007464119,0.045455627,2.817307089,1.86543983,-9.257921339,-0.052331391,-0.011980566000000002,0.042103239,-1.05e+21,70.64183674,70.50470711,4.006947942,5.450816306,15.34498048,19.10922485,-0.07528489,-0.16256521300000001,-0.237094009,36.25513491,462.94202530000007,11.99314421,95886.64746000001,1.139291979,-0.337648624,-0.241440606,-0.375754065,-0.045998912999999995,0.004844149,0.041879986,-0.161422034,0.287871914,-0.175108806,0.9836701590000001,-0.066982177,0.149401889,-0.074736357,0.568764142,398733981.0,327364304.6,462489.4823,18.4115083,18.35075408,-1.4158371669999998,-5.873770754,6.205871256,0,0,0.0,39.8714138,32.7364372,224.42133399999997,-0.809807733,-63.72645231,18.26828134,-1.17361178,-5.839780285,-0.136293757,0.8750103840000001,0.106308284,-0.012624285,63.80961631,-0.10805705,-0.054748477999999996,-0.040721103,0.5688478,35299070,0,1,0,0,0
