,timestamp,control[0],control[1],control[2],control[3],control[4],output[2],output[3],output[4],output[5],output[6],output[7],indicated_airspeed_m_s,true_airspeed_m_s,indicated_airspeed_m_s.1,equivalent_airspeed_m_s,true_airspeed_m_s.1,equivalent_ground_minus_wind_m_s,true_ground_minus_wind_m_s,differential_pressure_raw_pa,differential_pressure_filtered_pa,temperature,gyro_bias[0],gyro_bias[1],gyro_bias[2],accel_bias[0],accel_bias[1],accel_bias[2],instance_count,seq_reached,seq_current,seq_total,item_changed_index,item_do_jump_remaining,valid,warning,finished,failure,stay_in_failsafe,flight_termination,item_do_jump_changed,execution_mode,nav_roll,nav_pitch,nav_bearing,target_bearing,xtrack_error,wp_dist,acceptance_radius,rollspeed_integ,pitchspeed_integ,yawspeed_integ,additional_integ1,x,y,z,temperature.1,pressure,temperature.2,gyro_rad[0],gyro_rad[1],gyro_rad[2],accelerometer_m_s2[0],accelerometer_m_s2[1],accelerometer_m_s2[2],x.1,y.1,z.1,temperature.3,altitude_sp,altitude_filtered,height_rate_setpoint,height_rate,airspeed_sp,airspeed_filtered,airspeed_derivative_sp,airspeed_derivative,throttle_integ,pitch_integ,baro_alt_meter,baro_temp_celcius,baro_pressure_pa,rho,xyz[0],xyz[1],xyz[2],xyz[0].1,xyz[1].1,xyz[2].1,roll_body,pitch_body,yaw_body,q_d[0],q_d[1],q_d[2],q_d[3],thrust_body[0],lat,lon,alt,vel_m_s,vel_n_m_s,vel_e_m_s,vel_d_m_s,cog_rad,ground_contact,maybe_landed,landed,ref_lat,ref_lon,x.2,y.2,z.2,vx,vy,vz,ax,ay,az,yaw,dist_bottom,roll,pitch,yaw.1,thrust_body[0].1,timestamp.1,isTakeoff,isClimbing,isDescending,isCruise,isLand
306,21711366,-0.022647518,-0.006481776999999999,0.017982158999999998,0.5925675,0.0,1509.0,1500.0,1652.0,1503.0,1496.0,1494.0,19.57335993,20.00257123,19.64840771,19.55334765,19.98204119,19.76798929,20.20139076,241.76479369999998,241.76479369999998,12.06286992,-0.0030666590000000002,-0.006452917,0.001831931,-0.164668735,0.196350153,-0.114258813,2.0,-1.0,0.0,11,0,0,1,0,0.0,0,0,0,0,0,0.6576436210000001,0.25831493899999997,2.889209042,-2.7798667710000005,41.80316807,293.8218149,56.41570581,-0.024178956,-0.026354827999999997,0.017450755,0.0,2.413362863,-0.97733285,-9.165493864,2330470000000000.0,960.5331031,12.08658385,0.132326469,-0.02215036,-0.022169005,2.19848764,-1.003613096,-9.114485143,0.130100487,-0.02208865,-0.005225317,2330470000000000.0,50.33116775,50.91945769,3.9705497430000003,4.461798991,15.33062106,20.06888776,-0.09476534199999999,0.288025829,-0.09053438,1.4788652780000002,448.06028530000003,12.08867043,96057.7438,1.141324906,0.959081018,-0.376786965,0.470594575,0.12172197800000001,-0.008162237,-0.019086485,0.63472234,0.259304872,2.860667,0.171842437,-0.078301085,0.323590606,0.927161263,0.640097601,398702365.4,327383262.6,447952.1388,19.42,-13.85222845,13.59221244,-4.733338668,2.3655811669999998,0,0,0.0,39.8714138,32.7364372,-132.1317328,162.38560680000003,-48.43327469,-13.79599253,13.54296927,-4.75336325,0.287382501,0.228910395,0.44711651700000005,2.3071175619999997,48.55941133,0.374673249,0.105568965,0.140171124,0.6400438,21711366,0,1,0,0,0
307,21745717,-0.002473602,-0.014250178,0.018875478,0.652295033,0.0,1509.0,1500.0,1652.0,1498.0,1501.0,1491.0,19.61307406,20.04347391,19.65195143,19.55873739,19.98771136,19.7742935,20.20799708,242.06193050000002,242.06193050000002,12.06181191,-0.0030614590000000003,-0.006451339,0.001820284,-0.164936152,0.196189378,-0.114375505,2.0,-1.0,0.0,11,0,0,1,0,0.0,0,0,0,0,0,0.6633041479999999,0.258804514,2.900059026,-2.777537108,41.08516952,293.4957476,56.48327418,-0.024284351000000003,-0.026264637999999996,0.01753971,0.0,2.749541999,-0.941610532,-9.247469419,1059190000000000.0,960.5031531,12.08548201,0.128932969,-0.023107312999999997,-0.026101646000000003,2.225487428,-1.059747012,-9.090987453,0.15279622,-0.028852528,-0.003455597,1059190000000000.0,50.53446253,51.09931612,3.9717215410000004,4.430126802,15.33079311,20.10144666,-0.095413085,0.30431682600000004,-0.09119659,1.794915413,448.24270250000006,12.08750846,96055.63985,1.141299974,1.313461145,0.24928899699999998,0.463646134,0.13711463699999998,-0.012129734,-0.010702795,0.6444196520000001,0.259790319,2.874918692,0.165693004,-0.08003598599999999,0.32754104,0.926739656,0.639924669,398702318.9,327383322.5,448127.2046,19.42,-13.83916383,13.61274255,-4.722140428,2.3643433330000003,0,0,0.0,39.8714138,32.7364372,-132.6379943,162.88463169999997,-48.60542338,-13.78829726,13.55454146,-4.738227502,0.243090433,0.22589950600000003,0.42841972,2.306501211,48.73155964,0.35178312,0.113769236,0.148178228,0.6399194,21745717,0,1,0,0,0
308,21788068,0.013690893,-0.020067218,0.019766181,0.65189165,0.0,1509.341268,1500.0,1651.0,1487.0,1512.0,1490.0,19.53476554,19.9634733,19.65549514,19.56412714,19.99338152,19.78059771,20.21460341,242.3590673,242.3590673,12.06075391,-0.0030562590000000004,-0.006449761,0.001808637,-0.165203569,0.196028604,-0.11449219699999999,2.0,-1.0,0.0,11,0,0,1,0,0.0,0,0,0,0,0,0.668964675,0.259294089,2.9109090089999996,-2.775207444,40.36717096,293.16968019999996,56.55084255,-0.024382295,-0.02618201,0.017607565,0.0,3.0112669660000004,-0.913146835,-9.292389646,212105000000000.0,960.476122,12.08438017,0.123342319,-0.017598318999999998,-0.022078666,2.186314988,-0.9830560970000001,-9.163893989,0.182673859,-0.036259062,-0.002032861,212105000000000.0,50.7377573,51.27917456,3.9728933389999996,4.398454613,15.33096516,20.13400556,-0.09606082699999999,0.320607823,-0.0918588,2.1109655480000002,448.4764888,12.08634736,96052.94734,1.141267935,1.575008068,-0.364469669,0.053332374,0.17477976899999997,-0.021260293,-0.009143090999999999,0.65847456,0.260270739,2.894910672,0.15707463,-0.08242576,0.333259268,0.925995995,0.640011252,398702272.4,327383382.5,448302.2705,19.42,-13.82609922,13.63327265,-4.710942188,2.363105498,0,0,0.0,39.8714138,32.7364372,-133.1582936,163.39814819999998,-48.78173615,-13.78269854,13.56660248,-4.7234449,0.138504973,0.270302185,0.383062677,2.3059346069999997,48.90787215,0.34957482799999995,0.121447424,0.154498839,0.6400177,21788068,0,1,0,0,0
309,21826419,0.033029626,-0.018062641,0.020477474,0.65062714,0.0,1510.0,1500.0,1649.0,1478.34887,1520.65113,1491.0,19.60258082,20.03297827,19.65903886,19.56951688,19.99905169,19.78690191,20.22120974,242.65620409999997,242.65620409999997,12.0596959,-0.003051059,-0.0064481830000000006,0.00179699,-0.16547098699999999,0.19586783,-0.114608889,2.0,-1.0,0.0,11,0,0,1,0,0.0,0,0,0,0,0,0.6746252009999999,0.25978366399999997,2.921758993,-2.772877781,39.64917241,292.8436128,56.61841092,-0.024485531,-0.026089672999999997,0.017675771,0.0,2.9011908330000002,-0.9209304490000001,-9.152267022,1483390000000000.0,960.4636669,12.08327833,0.119148245,-0.026528759,-0.015892925,2.139366537,-0.94146362,-9.162904332,0.24841571399999998,-0.046874817,-0.0023428520000000003,1483390000000000.0,50.92120044,51.43733314,3.974157598,4.377519743,15.33107897,20.15959096,-0.096570258,0.318175891,-0.09246707300000001,2.410360269,448.8352079,12.08521621,96048.821,1.141218834,1.766942176,-0.599153676,0.184736502,0.23782511,-0.033350716,-0.004164045999999999,0.667136133,0.260752905,2.909540045,0.150738375,-0.084438498,0.33667431200000003,0.925628618,0.640283422,398702225.9,327383442.4,448477.3363,19.42,-13.81303461,13.65380276,-4.699743949,2.361867663,0,0,0.0,39.8714138,32.7364372,-133.70725249999998,163.9412509,-48.96655032,-13.78138012,13.57966154,-4.709383281,-0.089175478,0.41150440299999996,0.283276077,2.305469567,49.09268632,0.325312993,0.129595886,0.161424114,0.64017445,21826419,0,1,0,0,0
310,21868770,0.050332132,-0.015637953,0.021177941000000002,0.64909667,0.0,1510.0,1500.0,1649.0,1477.0,1522.0,1492.0,19.48561316,19.91382808,19.66258257,19.57490662,20.00472185,19.79320612,20.22781607,242.9533409,242.9533409,12.05863789,-0.003045859,-0.006446604,0.0017853429999999998,-0.165738404,0.195707055,-0.11472558,2.0,-1.0,0.0,11,0,0,1,0,0.0,0,0,0,0,0,0.680285728,0.260273239,2.9326089769999997,-2.7705481169999997,38.93117385,292.5175455,56.68597929,-0.024577353,-0.025998184,0.01774099,0.0,2.7911147,-0.928714064,-9.012144397,2754680000000000.0,960.4512117999999,12.08217649,0.113932239,-0.022442397000000003,-0.016447299,2.1705044140000003,-0.960561235,-9.150584008,0.31415756899999997,-0.057490572000000004,-0.002652844,2754680000000000.0,51.10190708,51.59250044,3.975434602,4.358064987,15.33118476,20.18421508,-0.09706062300000001,0.31316304699999997,-0.09306791,2.70745908,448.94909450000006,12.08405428,96047.5345,1.141203588,2.4953777219999997,-0.517717715,-0.046637511,0.308310369,-0.04693935,0.003699595,0.679006918,0.26125151,2.92865077,0.14248228599999999,-0.087037109,0.34136363799999997,0.92498187,0.640383636,398702179.5,327383502.3,448652.4021,19.42,-13.79996999,13.67433287,-4.688545709,2.360629828,0,0,0.0,39.8714138,32.7364372,-134.2562114,164.4843535,-49.15136448,-13.7800617,13.5927206,-4.695321661,-0.316855928,0.552706622,0.183489476,2.305004528,49.27750048,0.312513331,0.139488578,0.16818706100000003,0.64037853,21868770,0,1,0,0,0
311,21906241,0.050294201,-0.013556318999999999,0.022302463999999998,0.64837086,0.0,1511.0,1500.0,1647.0,1470.364073,1528.635927,1493.0,19.55364642,19.98343378,19.66612629,19.58029637,20.01039201,19.79951033,20.2344224,243.25047769999998,243.25047769999998,12.05757988,-0.0030406590000000002,-0.0064450259999999995,0.001773696,-0.166005821,0.19554628100000002,-0.114842272,2.0,-1.0,0.0,11,0,0,1,0,0.0,0,0,0,0,0,0.685946255,0.260762814,2.943458961,-2.768218454,38.213175299999996,292.19147810000004,56.75354766,-0.02466215,-0.025904022999999998,0.017785662,0.0,2.720723787,-0.934660035,-8.854781141,3344830000000000.0,960.4382557,12.08108075,0.111650296,-0.021456938,-0.013978013000000001,2.133672816,-0.965044177,-9.160705916,0.380272117,-0.057286385999999995,0.006631661,3344830000000000.0,51.28261371,51.74766775,3.9767116060000003,4.3386102310000005,15.33129055,20.2088392,-0.097550988,0.308150203,-0.09366874800000001,3.004557891,449.1422546,12.08290072,96045.30668,1.1411770959999998,1.383812702,-0.046823002999999995,0.015669031,0.37810091700000004,-0.03934022,0.011254783999999999,0.6898492629999999,0.261763824,2.9473559110000003,0.134395421,-0.089740358,0.345562229,0.9243719020000001,0.640525143,398702132.8,327383562.5,448828.6615,19.42530502,-13.79132627,13.69442088,-4.676905381,2.359561742,0,0,0.0,39.8714138,32.7364372,-134.77532030000003,164.9986882,-49.32534247,-13.79239764,13.61583264,-4.685249726,-0.42534735700000004,0.621027135,0.196326182,2.304696581,49.45147847,0.30407849,0.147315211,0.173534322,0.640528345,21906241,0,1,0,0,0
312,21949471,0.063163237,-0.011094966000000001,0.023498062000000004,0.6470128,0.0,1511.371674,1500.0,1646.628326,1467.39828,1531.60172,1494.0,19.59140915,20.02230739,19.66967,19.58568611,20.01606218,19.80581453,20.24102873,243.5476145,243.5476145,12.05652188,-0.0030354590000000003,-0.006443448,0.001762049,-0.16627323900000002,0.19538550600000001,-0.114958964,2.0,-1.0,0.0,11,0,0,1,0,0.0,0,0,0,0,0,0.691606782,0.261252388,2.954308945,-2.76588879,37.49517674,291.8654107,56.82111603,-0.024742295,-0.02580712,0.017829799,0.0,2.684716335,-0.939013863,-8.682480521,3344830000000000.0,960.4248656999999,12.07999032,0.116782466,-0.020526048999999998,-0.019756575,2.187151805,-0.881753438,-9.215641567,0.44670956799999995,-0.047707754000000005,0.024228882,3344830000000000.0,51.46332035,51.90283505,3.9779886110000002,4.319155475,15.33139634,20.23346332,-0.098041352,0.303137359,-0.094269585,3.301656701,449.22045549999996,12.081761199999999,96044.41463,1.14116651,1.435999859,0.42209776600000004,0.247339315,0.432812266,-0.036991302000000004,0.021717697999999997,0.699104308,0.262275145,2.9646645019999998,0.12690129,-0.092376932,0.34906235399999996,0.92385923,0.640833122,398702085.4,327383623.9,449008.7666,19.44770131,-13.79692539,13.71308462,-4.663840768,2.359040539,0,0,0.0,39.8714138,32.7364372,-135.28158180000003,165.5006412,-49.49465658,-13.81061039,13.64327145,-4.676894947,-0.482539974,0.6579794489999999,0.25763582399999996,2.304456246,49.62079258,0.291910806,0.15488268,0.17877072100000002,0.64076674,21949471,0,1,0,0,0
313,21983822,0.064275,-0.009145739,0.024668352,0.6463865,0.0,1512.0,1500.0,1645.0,1463.379276,1535.620724,1495.0,19.65994302,20.09243966,19.67321371,19.59107586,20.02173234,19.81211874,20.24763506,243.8447513,243.8447513,12.05546387,-0.0030302590000000004,-0.00644187,0.001750402,-0.166540656,0.19522473199999998,-0.115075656,2.0,-1.0,0.0,11,0,0,1,0,0.0,0,0,0,0,0,0.6972673090000001,0.261741963,2.965158928,-2.7635591269999997,36.77717819,291.5393434,56.88868439,-0.024820198999999998,-0.025712542999999997,0.017877731,0.0,2.648708884,-0.943367691,-8.510179901,3344830000000000.0,960.4114756000001,12.07889988,0.129188484,-0.021424684,-0.004598692,2.814494532,-0.929275675,-9.21947154,0.513147019,-0.038129121,0.041826102999999996,3344830000000000.0,51.64402698,52.05800236,3.979265615,4.299700718,15.33150213,20.25808744,-0.09853171699999999,0.298124515,-0.09487042300000001,3.598755512,449.48375219999997,12.08061381,96041.33642,1.1411299320000001,1.941928018,0.259060143,0.453121748,0.494842651,-0.031379165,0.030690147999999997,0.7057795579999999,0.26278365600000003,2.979354996,0.12051282099999999,-0.094774944,0.351466244,0.923558937,0.6413078879999999,398702038.0,327383685.4,449188.8716,19.470097600000003,-13.802524499999999,13.73174835,-4.650776155,2.358519336,0,0,0.0,39.8714138,32.7364372,-135.7909291,166.0057755,-49.66477903,-13.82947535,13.67059636,-4.667387221,-0.5434268760000001,0.687623333,0.327219879,2.304261136,49.79091506,0.271780676,0.16237821,0.18386918,0.64103675,21983822,0,1,0,0,0
314,22018173,0.078313896,-0.007144744000000001,0.02552095,0.6450691,0.0,1513.0,1500.0,1644.613123,1464.0,1535.0,1496.0,19.68982554,20.12292983,19.67675743,19.596465600000002,20.02740251,19.81842295,20.25424139,244.14188810000002,244.14188810000002,12.05440586,-0.003025059,-0.006440291999999999,0.001738755,-0.166808073,0.19506395699999998,-0.11519234800000001,2.0,-1.0,0.0,11,0,0,1,0,0.0,0,0,0,0,0,0.702927836,0.262231538,2.9760089119999997,-2.7612294630000003,36.05917963,291.21327599999995,56.95625276,-0.024895228999999998,-0.025614473,0.017914107,0.0,2.633302542,-0.9350128329999999,-8.568722171000001,3344830000000000.0,960.3783233999999,12.07758936,0.167561513,-0.037058052,-0.003987223,2.980494699,-0.957496089,-9.252695217000001,0.5612738389999999,-0.028611145,0.056465000999999994,3344830000000000.0,51.82473362,52.21145946,3.9806280760000003,4.282063984,15.33161901,20.28072169,-0.09898206,0.290861054,-0.09547507,3.903767577,449.7755261,12.07949909,96037.99855,1.141090234,1.792097274,0.716966296,0.18764329300000002,0.5550787939999999,-0.022469762999999997,0.043266535,0.714333308,0.26329347,2.9971622769999997,0.11278894699999999,-0.097657202,0.354564547,0.923048407,0.641945009,398701990.6,327383746.8,449368.9766,19.49249389,-13.80812362,13.75041208,-4.637711542,2.357998132,0,0,0.0,39.8714138,32.7364372,-136.34162959999998,166.55354409999998,-49.84573453,-13.85708092,13.69639467,-4.642428259,-0.6538227870000001,0.619323187,0.5076936089999999,2.304672101,49.97187094,0.262051432,0.17113879899999998,0.189145557,0.64176035,22018173,0,1,0,0,0
315,22056524,0.060785150999999996,-0.0052580809999999995,0.027048212000000002,0.6443092579999999,0.0,1513.0,1500.0,1643.0,1472.0,1527.0,1497.0,19.74031516,20.1748257,19.68030114,19.60185534,20.03307267,19.82472716,20.26084772,244.4390249,244.4390249,12.05334786,-0.003019859,-0.006438713,0.001727108,-0.167075491,0.194903183,-0.11530904,2.0,-1.0,0.0,11,0,0,1,0,0.0,0,0,0,0,0,0.7085883629999999,0.262721113,2.986858896,-2.7588998,35.34118108,290.8872086,57.02382113,-0.024975032,-0.02551045,0.01794894,0.0,2.620065368,-0.9253198309999999,-8.651570761,3344830000000000.0,960.3430902999999,12.07625568,0.224102245,-0.047636932,-0.000444306,2.9749407910000003,-0.973298487,-9.097225803999999,0.607472664,-0.019099556,0.070792405,3344830000000000.0,52.00544025,52.36360743,3.982055953,4.265818905,15.33174438,20.30183273,-0.099401768,0.281874794,-0.09608263199999999,4.214837066,449.65110139999996,12.07835621,96039.4088,1.141107053,0.493489584,-8.669999999999999e-05,0.03676088,0.6123724079999999,-0.004986315,0.057722588,0.722214545,0.26380362,3.014713275,0.10516705900000001,-0.100585784,0.35733692,0.922568395,0.642722873,398701943.1,327383808.2,449549.0816,19.51489019,-13.81372274,13.76907582,-4.624646929,2.357476929,0,0,0.0,39.8714138,32.7364372,-136.8923302,167.10131280000002,-50.02669004,-13.88468649,13.72219298,-4.617469296,-0.764218698,0.551023041,0.688167339,2.305083065,50.15282682,0.24479270399999997,0.179218262,0.194482268,0.6422518629999999,22056524,0,1,0,0,0
316,22098875,0.04410264,-0.002836387,0.028328963999999998,0.6433538000000001,0.0,1514.0,1500.0,1642.0,1479.40208,1519.59792,1499.0,19.73319187,20.16764882,19.68681287,19.61007493,20.04163793,19.83292378,20.26939103,244.73616180000002,244.73616180000002,12.05228985,-0.0030143220000000003,-0.006437298,0.001717915,-0.167350102,0.19475300399999998,-0.115419599,2.0,-1.0,0.0,11,0,0,1,0,0.0,0,0,0,0,0,0.714248889,0.263210688,2.99770888,-2.756570136,34.62318252,290.5611412,57.091389500000005,-0.025045091000000002,-0.025419518999999998,0.01797465,0.0,2.610402318,-0.914145854,-8.742449341,3344830000000000.0,960.313075,12.07500125,0.286842105,-0.052741745,0.007578149,2.853386182,-0.9073031029999999,-8.941303881,0.637744506,-0.009264941,0.084452254,3344830000000000.0,52.18614689,52.5157554,3.983483829,4.249573827,15.33186974,20.32294377,-0.09982147599999999,0.27288853399999996,-0.096690195,4.525906555,449.89778499999994,12.07724344,96036.60181000001,1.1410737229999999,-0.31233883,0.306272207,0.287333645,0.643489572,0.004100253,0.06941016,0.729293471,0.264341599,3.031944883,0.09767471800000001,-0.10356752300000001,0.35972292299999997,0.9221312540000001,0.643108836,398701895.7,327383869.6,449729.1866,19.53728648,-13.81932186,13.78773955,-4.611582316000001,2.356955725,0,0,0.0,39.8714138,32.7364372,-137.4253024,167.6308429,-50.20048711,-13.91552945,13.74206972,-4.5899229980000005,-0.8701872340000001,0.431669087,0.7999680809999999,2.3059771330000003,50.32662411,0.23226168,0.187793247,0.19832966800000001,0.6429478,22098875,0,1,0,0,0
317,22133226,0.034887795,-0.000624215,0.029905725,0.6419648,0.0,1515.0,1500.0,1641.0,1484.0,1515.0,1500.0,19.80986373,20.2463384,19.70120126,19.62580449,20.05788633,19.8461426,20.28307479,245.0332986,245.0332986,12.05123184,-0.003007891,-0.006436313000000001,0.001715234,-0.167643804,0.194630942,-0.115513884,2.0,-1.0,0.0,11,0,0,1,0,0.0,0,0,0,0,0,0.718889532,0.263721224,2.800406375,-2.754240416,33.91052773,290.2129025,57.14652724,-0.025119713,-0.02532817,0.017988651,0.0,2.6102244430000003,-0.899041599,-8.854638279,3344830000000000.0,960.2969065,12.07395719,0.349123791,-0.061043436,0.004114456,2.823351969,-0.9614900679999999,-8.855756153,0.625748585,0.001426937,0.096340513,3344830000000000.0,52.36685353,52.66790338,3.984911706,4.233328749,15.33199511,20.34405481,-0.100241184,0.263902274,-0.097297757,4.836976044,450.17926669999997,12.07612999,96033.36752999999,1.141035306,-0.532812497,0.624703466,0.23068234399999998,0.640065853,0.016226151,0.081184546,0.7326966979999999,0.264879783,3.0446140969999997,0.092104854,-0.105935925,0.36062937899999997,0.9220831429999999,0.643627965,398701847.2,327383932.6,449905.3549,19.571165399999998,-13.85280648,13.80640312,-4.588675735,2.357522437,0,0,0.0,39.8714138,32.7364372,-137.9356899,168.13713869999998,-50.36516489,-13.95049659,13.75440283,-4.559080632,-0.970515633,0.24727649,0.824284693,2.307486639,50.49130189,0.212351371,0.19797657300000002,0.203609713,0.64356893,22133226,0,1,0,0,0
318,22171577,0.025878243,0.001582576,0.031468231,0.6414258,0.0,1515.0,1500.0,1641.0,1488.417283,1510.582717,1501.0,19.85020521,20.28774499,19.71558965,19.64153405,20.07413473,19.85936141,20.29675856,245.37141430000003,245.37141430000003,12.0501773,-0.003001461,-0.006435329,0.001712553,-0.16793750600000001,0.19450888,-0.11560816900000001,2.0,-1.0,0.0,11,0,0,1,0,0.0,0,0,0,0,0,0.72223547,0.264258369,2.338862389,-2.7519106239999997,33.20465665,289.8365182,57.18588479,-0.025200052999999997,-0.025229019,0.017967125,0.0,2.610046567,-0.883937344,-8.966827216,3344830000000000.0,960.2807381000001,12.07291312,0.410294308,-0.049148144000000005,0.023851797999999997,2.9087047139999997,-0.975156182,-8.630018817,0.613752663,0.012118815,0.10822877199999999,3344830000000000.0,52.54756016,52.82005135,3.986339583,4.21708367,15.33212047,20.36516585,-0.10066089199999999,0.25491601399999997,-0.097905319,5.148045533,450.36365989999996,12.07501654,96031.25685,1.141010182,-0.039528529,-0.180027175,0.527729555,0.62274178,0.028419411000000002,0.096873865,0.738779196,0.265407811,3.0614525510000004,0.08476269300000001,-0.10895611599999999,0.362526371,0.92169046,0.644407074,398701798.5,327383995.9,450080.9806,19.60662668,-13.89013385,13.82506666,-4.564412883,2.358239068,0,0,0.0,39.8714138,32.7364372,-138.4460774,168.64343440000002,-50.52984268,-13.98546374,13.76673594,-4.528238267,-1.0708440320000001,0.06288389400000001,0.8486013040000001,2.308996145,50.65597968,0.19458641100000001,0.20950189800000002,0.20950544699999998,0.6445708,22171577,0,1,0,0,0
319,22205928,0.017386475,0.004058817,0.032755778,0.64058787,0.0,1516.0,1500.0,1640.0,1492.424885,1506.575115,1502.0,19.79161093,20.22805141,19.72997803,19.65726361,20.09038314,19.87258023,20.31044232,245.7364897,245.7364897,12.04912504,-0.00299503,-0.006434344,0.001709872,-0.16823120800000002,0.19438681800000002,-0.11570245400000001,2.0,-1.0,0.0,11,0,0,1,0,0.0,0,0,0,0,0,0.725581409,0.264795514,1.877318403,-2.7495808310000003,32.49878556,289.4601338,57.22524234,-0.025276932999999998,-0.025135777999999998,0.017937931,0.0,2.5649974909999997,-0.83514841,-9.09042746,3344830000000000.0,960.2596944000001,12.07187662,0.46516499,-0.043744334,0.023491962,2.832011577,-0.910587722,-8.588935844,0.585275946,0.021472535,0.12059375900000001,3344830000000000.0,52.73400385,52.97636688,3.987845948,4.201597153,15.332239000000001,20.38588155,-0.101072831,0.245461651,-0.09853328,5.473018186,450.475657,12.07393319,96029.96002,1.140994683,-0.82379662,0.48621351700000004,0.28788292,0.602116174,0.033319,0.10677281599999999,0.744219376,0.265929601,3.078006714,0.07752814200000001,-0.11198383,0.364114738,0.921338122,0.6454407,398701749.8,327384059.1,450256.6063,19.64208795,-13.92746122,13.84373021,-4.54015003,2.358955699,0,0,0.0,39.8714138,32.7364372,-138.9949356,169.1854129,-50.70310522,-14.03471785,13.76333727,-4.496498487,-1.2041085790000001,-0.146539051,0.8155097040000001,2.311929265,50.82924222,0.17955406699999998,0.21710258600000001,0.21337828600000003,0.64522433,22205928,0,1,0,0,0
320,22244278,0.011378252,0.006638262,0.034067756,0.6402683000000001,0.0,1517.0,1500.0,1640.0,1495.432486,1503.567514,1503.432486,19.90314986,20.3421963,19.74436642,19.67299317,20.10663154,19.88579904,20.32412608,246.10156519999998,246.10156519999998,12.04807278,-0.0029886,-0.00643336,0.001707191,-0.16852491100000003,0.194264756,-0.11579673900000001,2.0,-1.0,0.0,11,0,0,1,0,0.0,0,0,0,0,0,0.7289273470000001,0.26533265899999997,1.415774417,-2.7472510389999996,31.79291447,289.0837494,57.26459988,-0.025354234,-0.025041915,0.017883594,0.0,2.4949954709999997,-0.767627374,-9.22037355,3344830000000000.0,960.2359397,12.07084433,0.526793089,-0.041463564,0.044679391,2.662952096,-0.8460841579999999,-8.476759627,0.547634232,0.030082102000000003,0.133223856,3344830000000000.0,52.93729863,53.14492353,3.989582855,4.188338709,15.33233745,20.40543606,-0.10146195400000001,0.234632358,-0.099221153,5.838827748,450.6799589,12.07283735,96027.58628999999,1.140966573,-0.889783254,0.33646713899999997,-0.029225046,0.5702634910000001,0.039739762000000005,0.12220156,0.749246195,0.26645113800000003,3.0944294119999998,0.070342427,-0.11503374300000001,0.36549271899999997,0.920995063,0.646560025,398701701.1,327384122.4,450432.232,19.67754923,-13.9647886,13.86239375,-4.515887177,2.359672331,0,0,0.0,39.8714138,32.7364372,-139.55281200000002,169.735756,-50.87838016,-14.08732106,13.75625083,-4.464548338999999,-1.3450938730000002,-0.361829499,0.768960724,2.315196102,51.00451716,0.168254598,0.22511478399999998,0.216854933,0.646497402,22244278,0,1,0,0,0
321,22278629,0.008189416,0.009197565,0.035405936,0.6399194,0.0,1518.0,1500.0,1639.0,1495.559912,1503.440088,1505.0,19.88717366,20.325977899999998,19.758754800000002,19.68872273,20.12287994,19.89901786,20.33780984,246.46664069999997,246.46664069999997,12.04702052,-0.0029821690000000002,-0.006432376,0.00170451,-0.168818613,0.194142695,-0.11589102400000001,2.0,-1.0,0.0,11,0,0,1,0,0.0,0,0,0,0,0,0.732273286,0.265869804,0.9542304309999999,-2.7449212469999997,31.08704339,288.707365,57.30395743,-0.025422063999999998,-0.024958922,0.017823059,0.0,2.425065355,-0.700743,-9.349761634,3344830000000000.0,960.2123527999998,12.06981218,0.5823508470000001,-0.024335652000000003,0.051841328,2.741513448,-0.944673827,-8.539650632999999,0.5101683570000001,0.038643166,0.145775493,3330110000000000.0,53.1405934,53.31348018,3.991319761,4.175080266,15.3324359,20.42499056,-0.101851077,0.223803065,-0.099909026,6.20463731,450.78823969999996,12.07176817,96026.35106,1.140951881,-1.100463266,0.455151649,-0.045321947,0.535534788,0.045514818,0.12784709800000002,0.751794758,0.266991452,3.1079044689999997,0.06438261,-0.117660103,0.365874484,0.920948035,0.6474077739999999,398701652.3,327384185.7,450607.8578,19.71301051,-14.00211597,13.8810573,-4.491624325,2.360388962,0,0,0.0,39.8714138,32.7364372,-140.1037831,170.2778607,-51.05067644,-14.14170829,13.74512722,-4.433993129,-1.48767867,-0.57890255,0.72646802,2.318674442,51.17681344,0.152266903,0.232737494,0.21995566100000002,0.64715254,22278629,0,1,0,0,0
322,22312980,0.007982860999999999,0.01154737,0.036790626,0.63993484,0.0,1518.0,1500.0,1640.0,1495.0,1504.0,1506.0,19.86259043,20.30095121,19.77314319,19.70445229,20.13912834,19.91223668,20.35149361,246.8317162,246.8317162,12.04596826,-0.0029757390000000002,-0.006431391,0.0017018279999999998,-0.169112315,0.194020633,-0.11598530900000001,2.0,-1.0,0.0,11,0,0,1,0,0.0,0,0,0,0,0,0.735619224,0.26640695,0.492686444,-2.742591454,30.3811723,288.33098060000003,57.34331498,-0.025504902000000003,-0.024867967999999997,0.017728976,0.0,2.361273283,-0.6882064509999999,-9.431516365,3344830000000000.0,960.2030940999999,12.06879168,0.623155261,-0.017045302,0.063020353,2.647727789,-0.887004496,-8.682036567,0.48771266,0.043063783,0.151629458,2058820000000000.0,53.34388818,53.48203683,3.993056668,4.161821822,15.33253435,20.44454506,-0.10224019999999999,0.212973772,-0.100596899,6.570446871000001,450.95805379999996,12.07067734,96024.40753,1.1409288290000001,-0.57708643,-0.078155806,-0.7870720999999999,0.491491978,0.060623353,0.148452391,0.750758003,0.267533152,3.11677471,0.060333858,-0.11956338300000001,0.364861399,0.9213790009999999,0.648298559,398701603.6,327384248.2,450779.3031,19.74263843,-14.05013758,13.87444399,-4.465417083,2.362361222,0,0,0.0,39.8714138,32.7364372,-140.6233885,170.7825441,-51.20944283,-14.20419906,13.71566571,-4.409774108,-1.637528845,-0.804072672,0.7024000290000001,2.32311348,51.33557983,0.13171492,0.240302531,0.223244229,0.647977473,22312980,0,1,0,0,0
323,22351331,0.007875465,0.014464985,0.037830007,0.64017445,0.0,1519.0,1500.0,1640.0,1496.544709,1502.455291,1507.0,19.89615326,20.33552695,19.78753157,19.72018185,20.15537674,19.92545549,20.36517737,247.19679169999998,247.19679169999998,12.044916,-0.002969308,-0.006430407,0.001699147,-0.169406017,0.19389857100000002,-0.11607959300000001,2.0,-1.0,0.0,11,0,0,1,0,0.0,0,0,0,0,0,0.7389651620000001,0.266944095,0.031142457999999998,-2.740261662,29.67530122,287.9545963,57.38267252,-0.025573935,-0.024797205,0.017635896,0.0,2.29748121,-0.675669902,-9.513271096,3344830000000000.0,960.1938355000001,12.06777118,0.635604574,-0.003167202,0.080703805,2.560920531,-0.807001216,-8.692302294,0.46525696299999997,0.047484399000000004,0.157483423,787530000000000.0,53.54718296,53.65059348,3.9947935739999996,4.148563379,15.3326328,20.46409957,-0.10262932300000001,0.202144479,-0.101284772,6.936256433,451.2135997,12.06961206,96021.45973,1.140893795,-0.961228161,0.231942444,0.569399101,0.47019776399999996,0.062677766,0.151327354,0.7543342190000001,0.268071781,3.1326925360000004,0.053316173,-0.122617264,0.365532904,0.9211420309999999,0.649273224,398701554.9,327384310.0,450946.9034,19.766901100000002,-14.10799524,13.844582199999998,-4.437421484,2.365488349,0,0,0.0,39.8714138,32.7364372,-141.1429939,171.2872274,-51.36820922,-14.26668982,13.68620421,-4.385555086,-1.78737902,-1.029242795,0.678332038,2.327552519,51.49434622,0.11700162300000001,0.247804828,0.226356893,0.64886576,22351331,0,1,0,0,0
324,22389682,0.005307396,0.01691062,0.038766494,0.64039105,0.0,1519.0,1500.0,1640.0,1497.462893,1501.537107,1509.0,19.87160426,20.31054406,19.80191996,19.73591141,20.17162514,19.93867431,20.37886113,247.56186719999997,247.56186719999997,12.04386374,-0.002962877,-0.006429422,0.001696466,-0.169699719,0.19377650899999999,-0.11617387800000001,2.0,-1.0,0.0,11,0,0,1,0,0.0,0,0,0,0,0,0.742311101,0.26748124,-0.430401528,-2.7379318689999996,28.96943013,287.5782119,57.42203007,-0.025652174,-0.024720763,0.017528329,0.0,2.25532308,-0.655501282,-9.599430356000001,3344830000000000.0,960.1789884,12.06675501,0.627590193,0.009051966,0.097516379,2.560812605,-0.793079836,-8.908710158,0.44493657799999997,0.053283209000000005,0.16381115599999999,483759000000000.0,53.75047773,53.81915012,3.99653048,4.135304936,15.33273125,20.48365407,-0.103018446,0.191315185,-0.101972645,7.302065995,451.44710639999994,12.06854687,96018.7715,1.140861858,-0.339728042,-0.060316897,0.055233523,0.451047639,0.075653658,0.155088038,0.757520697,0.268611324,-3.1347293819999997,-0.046353117,0.125668922,-0.366009057,-0.920919223,0.650306449,398701506.2,327384371.7,451114.5037,19.79116376,-14.16585291,13.81472041,-4.409425885,2.368615476,0,0,0.0,39.8714138,32.7364372,-141.69118600000002,171.813875,-51.53316044,-14.34157284,13.64260328,-4.362611357,-1.945102556,-1.238003899,0.631778362,2.332886104,51.65929744,0.103053672,0.254603488,0.22975695,0.6495065,22389682,0,1,0,0,0
325,22428033,0.0043427859999999995,0.019493765,0.039621233,0.6404393,0.0,1519.470494,1500.0,1640.0,1497.0,1502.0,1510.0,19.90223129,20.34214801,19.81630835,19.75164097,20.18787355,19.95189312,20.39254489,247.92694269999996,247.92694269999996,12.04281148,-0.002956447,-0.006428438000000001,0.001693785,-0.169993422,0.19365444699999998,-0.11626816300000001,2.0,-1.0,0.0,11,0,0,1,0,0.0,0,0,0,0,0,0.745657039,0.268018385,-0.8919455140000001,-2.735602077,28.26355904,287.2018275,57.46138762,-0.025731554,-0.024646797,0.017408444,0.0,2.24838369,-0.622908114,-9.692759922,3344830000000000.0,960.1550436000001,12.06574591,0.608306911,0.020028366000000002,0.108886657,2.55541613,-0.8347170279999999,-8.940390231,0.42809235,0.061325633,0.170910155,1755050000000000.0,53.93250426,53.96818588,3.998180028,4.131561005,15.33286815,20.49506017,-0.10324383,0.18436751899999998,-0.102587345,7.641009144,451.44415,12.06748249,96018.82536,1.140862505,-0.843199274,0.5782354270000001,0.023994727,0.426784754,0.080781468,0.165832062,0.7602091870000001,0.269151632,-3.119144828,-0.039448095,0.128712695,-0.36624057,-0.9207285709999999,0.651378501,398701457.5,327384433.5,451282.104,19.81542643,-14.22371057,13.78485863,-4.3814302860000005,2.371742603,0,0,0.0,39.8714138,32.7364372,-142.26269530000002,172.35843789999998,-51.70315638,-14.42656378,13.58746933,-4.340707836,-2.109248107,-1.4333807619999999,0.566883926,2.33894934,51.82929338,0.088166174,0.263246935,0.233383882,0.6508331999999999,22428033,0,1,0,0,0
326,22462384,0.00232048,0.021884402,0.040442335,0.6405684,0.0,1520.0,1500.0,1640.0,1499.0,1500.0,1511.0,19.98188579,20.42350746,19.83069673,19.76737053,20.20412195,19.96511194,20.40622866,248.29201809999998,248.29201809999998,12.04175922,-0.0029500159999999997,-0.006427454,0.001691104,-0.17028712399999998,0.19353238600000003,-0.11636244800000001,2.0,-1.0,0.0,11,0,0,1,0,0.0,0,0,0,0,0,0.7490029779999999,0.26855553,-1.3534895,-2.733272285,27.55768796,286.82544310000003,57.50074516,-0.02581257,-0.024576422999999997,0.017285758000000002,0.0,2.2414443,-0.590314946,-9.786089488,3344830000000000.0,960.1310988,12.06473681,0.569146809,0.033419706,0.12258798900000001,2.3909281890000003,-0.7784365259999999,-9.066226539,0.41124812200000005,0.069368056,0.17800915399999998,3026340000000000.0,54.11321052,54.11600985,3.999824152,4.128407704,15.33300745,20.50596045,-0.10345905,0.177660811,-0.103197502,7.978284513999999,451.70727810000005,12.066417199999998,96015.75119,1.140825962,-0.046555317,0.155576235,0.070274734,0.414200725,0.08867500099999999,0.173410738,0.7610064529999999,0.269684421,-3.105836734,-0.033471151,0.131377396,-0.36572596,-0.9207945,0.652518193,398701408.8,327384495.3,451449.7043,19.83968909,-14.28156824,13.75499684,-4.353434687,2.37486973,0,0,0.0,39.8714138,32.7364372,-142.8342046,172.9030008,-51.87315233,-14.51155472,13.53233539,-4.3188043160000005,-2.2733936580000003,-1.628757625,0.50198949,2.345012575,51.99928933,0.074507367,0.269771395,0.236625268,0.65151674,22462384,0,1,0,0,0
327,22496735,0.000726955,0.024564318999999998,0.041281625,0.64103675,0.0,1520.485697,1500.0,1641.0,1499.485697,1499.514303,1513.0,19.91635302,20.35698765,19.84508512,19.78310009,20.22037035,19.97833075,20.41991242,248.65709359999997,248.65709359999997,12.04070696,-0.0029435859999999998,-0.006426469000000001,0.0016884229999999999,-0.17058082600000002,0.193410324,-0.116456733,2.0,-1.0,0.0,11,0,0,1,0,0.0,0,0,0,0,0,0.752348916,0.269092675,-1.815033486,-2.730942492,26.85181687,286.4490588,57.54010271,-0.025887298,-0.024515118,0.017165725,0.0,2.231504625,-0.5686175689999999,-9.899874347999999,3344830000000000.0,960.1135803999999,12.0637277,0.548576187,0.033759756,0.12592167199999998,2.383351276,-0.804262672,-9.094060154,0.39717988600000004,0.083225797,0.186232592,3344830000000000.0,54.29391678,54.26383381,4.001468276000001,4.125254404,15.33314675,20.51686073,-0.10367427,0.170954103,-0.10380765900000001,8.315559882999999,451.89522410000006,12.06535259,96013.62397,1.1408006990000001,-0.35466096,-0.032019621,0.601323052,0.39508921799999996,0.10106340300000001,0.183990922,0.760582028,0.270219097,-3.0939585,-0.028072936,0.133799355,-0.364724768,-0.921023698,0.653642882,398701360.0,327384556.7,451616.0276,19.86303964,-14.343986800000001,13.71935787,-4.328479687,2.378363031,0,0,0.0,39.8714138,32.7364372,-143.37210890000003,173.4017764,-52.02954203,-14.60138394,13.46202389,-4.301510803999999,-2.395946636,-1.835857571,0.477645125,2.351534489,52.15567868,0.056012452000000004,0.277133333,0.23963033,0.65296185,22496735,0,1,0,0,0
328,22535085,-0.002050578,0.027052396,0.042126892,0.6413647,0.0,1521.0,1500.0,1641.493299,1501.0,1498.0,1514.0,19.98599236,20.42826589,19.8594735,19.79882965,20.23661875,19.99154957,20.43359618,249.0221691,249.0221691,12.0396547,-0.002937155,-0.006425485,0.001685742,-0.170874528,0.193288262,-0.116551018,2.0,-1.0,0.0,11,0,0,1,0,0.0,0,0,0,0,0,0.755694855,0.26962982,-2.276577473,-2.7286127000000002,26.14594579,286.0726744,57.57946026,-0.025965861,-0.024454346000000002,0.017038308000000002,0.0,2.220562047,-0.5505623239999999,-10.02049679,3344830000000000.0,960.0982101,12.0627186,0.515665238,0.03814164,0.14023575900000002,2.376669597,-0.745206722,-9.344532168999999,0.384039578,0.09902742099999999,0.194831895,3344830000000000.0,54.47462303,54.41165778,4.0031124,4.122101103,15.33328604,20.52776101,-0.103889489,0.164247395,-0.104417816,8.652835253,451.99810319999995,12.06431839,96012.464,1.1407868840000002,-0.679478624,-0.01925158,0.311747223,0.37258797200000005,0.11968687900000001,0.198395922,0.7620441509999999,0.270754799,-3.07879423,-0.021288539,0.136791316,-0.36435095799999995,-0.920911403,0.6546962829999999,398701310.9,327384616.2,451775.7892,19.88170356,-14.42983997,13.65403481,-4.319147763999999,2.383737794,0,0,0.0,39.8714138,32.7364372,-143.90713449999998,173.89662969999998,-52.18476616,-14.69162763,13.39041221,-4.284612211000001,-2.514936573,-2.043961779,0.456774495,2.358095696,52.31090242,0.042150920999999994,0.28410264399999996,0.242636787,0.6540959239999999,22535085,0,1,0,0,0
329,22569436,-0.0030542670000000003,0.029455624,0.043037402999999995,0.6422133000000001,0.0,1521.0,1500.0,1642.0,1502.0,1497.0,1515.0,19.95114362,20.39265335,19.87386189,19.81455921,20.25286715,20.00476839,20.44727995,249.3872446,249.3872446,12.03860244,-0.0029307240000000004,-0.0064245000000000005,0.00168306,-0.171168231,0.1931662,-0.116645303,2.0,-1.0,0.0,11,0,0,1,0,0.0,0,0,0,0,0,0.7590407929999999,0.270166965,-2.738121459,-2.726282907,25.4400747,285.69629,57.618817799999995,-0.0260428,-0.024399721,0.016912362,0.0,2.2047371080000002,-0.530551853,-10.14516213,3344830000000000.0,960.0819207999999,12.061682000000001,0.48292434700000003,0.04682516900000001,0.154855419,2.363369219,-0.633664585,-9.379823425,0.37029722200000004,0.113852665,0.20382412800000002,3344830000000000.0,54.65532929,54.55948175,4.004756523999999,4.118947803,15.33342534,20.53866128,-0.104104709,0.15754068699999998,-0.10502797400000001,8.990110623,452.08262189999994,12.06325335,96011.45994,1.140774926,0.170411428,0.41227220600000003,0.204641935,0.36772404200000003,0.12065074699999999,0.20458739899999998,0.763239001,0.271298078,-3.063725362,-0.014534166999999999,0.13977292800000002,-0.363837499,-0.920799812,0.655538388,398701261.8,327384675.8,451935.5507,19.90036748,-14.51569314,13.58871174,-4.309815842,2.389112557,0,0,0.0,39.8714138,32.7364372,-144.45857619999998,174.40160649999999,-52.34329477,-14.78798377,13.31151762,-4.267387291,-2.646488324,-2.2595014890000003,0.44305764,2.365128385,52.46943122,0.025627855,0.291232984,0.24544990600000002,0.65494144,22569436,0,1,0,0,0
330,22603787,-0.005461572,0.03138706,0.043043185,0.64272875,0.0,1521.0,1500.0,1643.0,1503.0,1496.0,1517.0,19.97506919,20.41733191,19.88825027,19.83028877,20.26911555,20.0179872,20.46096371,249.7523201,249.7523201,12.03755018,-0.002924294,-0.006423516,0.0016803789999999999,-0.171461933,0.19304413899999998,-0.116739588,2.0,-1.0,0.0,11,0,0,1,0,0.0,0,0,0,0,0,0.761021594,0.270699473,-3.080899835,-2.72398767,24.74807589,285.2960169,57.65648601,-0.026120051000000002,-0.024345703,0.01677111,0.0,2.152565708,-0.495985813,-10.29992452,3344830000000000.0,960.0587893,12.06044067,0.461475931,0.049192482,0.156705887,2.294563614,-0.6914864829999999,-9.572706672,0.35207295,0.121409302,0.215741498,3344830000000000.0,54.83603591,54.7073545,4.006398208,4.120322242,15.33354959,20.54753273,-0.10427965300000001,0.152942046,-0.10563476599999999,9.333376691,452.40018560000004,12.06221906,96007.83637,1.140731959,-0.69323362,0.677394075,0.048334362,0.345958751,0.133881416,0.209562897,0.7614491609999999,0.271836087,-3.0525931269999997,-0.009381875,0.142050211,-0.36220528700000004,-0.92116197,0.656367216,398701212.7,327384735.3,452095.3123,19.919031399999998,-14.60154631,13.52338868,-4.30048392,2.3944873209999997,0,0,0.0,39.8714138,32.7364372,-145.0499321,174.9311979,-52.50985797,-14.89920178,13.21491534,-4.249368937,-2.80858297,-2.493119938,0.446734529,2.373307439,52.63599593,0.014379626000000001,0.297095335,0.247680082,0.65599704,22603787,0,1,0,0,0
331,22646138,-0.008267148,0.034643267,0.043823577999999995,0.64323056,0.0,1522.0,1500.0,1643.0,1505.0,1494.0,1518.0,20.04499507,20.48892821,19.90263866,19.84601833,20.28536396,20.03120602,20.47464747,250.11739559999998,250.11739559999998,12.03649792,-0.0029178629999999997,-0.006422532,0.0016776979999999998,-0.171755635,0.192922077,-0.116833873,2.0,-1.0,0.0,11,0,0,1,0,0.0,0,0,0,0,0,0.758921352,0.271218116,-3.068631547,-2.721795732,24.09754791,284.8243291,57.68910396,-0.026198172999999998,-0.024295166,0.016623661,0.0,2.1003943069999997,-0.461419774,-10.45468691,3344830000000000.0,960.0356579,12.05919934,0.438235105,0.061170703,0.158035951,2.2620008869999997,-0.655997026,-9.775271711,0.333848678,0.128965939,0.22765886899999999,3344830000000000.0,55.01674273,54.85525602,4.008038455,4.124365907,15.33366498,20.55520812,-0.104430853,0.149586166,-0.106239576,9.680174439,452.32315430000006,12.06118477,96008.72215,1.140742359,-1.009480268,0.305119083,0.712474307,0.33090274399999997,0.14082696,0.224977762,0.76083942,0.27236645,-3.0393542410000003,-0.0033395820000000002,0.144689059,-0.36094977899999997,-0.921284302,0.6572319670000001,398701163.7,327384794.8,452255.0738,19.93769532,-14.68739948,13.45806561,-4.291151997,2.399862084,0,0,0.0,39.8714138,32.7364372,-145.641288,175.4607894,-52.67642116,-15.01041978,13.11831305,-4.231350583,-2.970677616,-2.7267383880000002,0.45041141799999995,2.381486492,52.80256065,-0.0058180919999999995,0.304090284,0.251178264,0.6568455879999999,22646138,0,1,0,0,0
332,22692489,-0.01143004,0.038090242,0.044676152999999996,0.64396137,0.0,1522.0,1500.0,1644.0,1506.0,1493.0,1519.0,20.09054211,20.53555113,19.91702704,19.86174789,20.30161236,20.04442483,20.48833123,250.48247110000003,250.48247110000003,12.03544566,-0.0029114329999999997,-0.006421547,0.0016750170000000002,-0.172049337,0.192800015,-0.11692815699999999,2.0,-1.0,0.0,11,0,0,1,0,0.0,0,0,0,0,0,0.75682111,0.271736759,-3.056363259,-2.7196037939999997,23.44701992,284.3526412,57.72172192,-0.02627245,-0.024252904,0.016482993999999997,0.0,2.095076192,-0.42153696399999996,-10.59848142,3344830000000000.0,960.0176131000001,12.0580825,0.424561287,0.07315434,0.171395605,2.2791073219999998,-0.642596369,-9.731103705,0.315955891,0.138127214,0.23755696699999998,3344830000000000.0,55.19744956,55.00315754,4.009678701,4.128409571000001,15.33378037,20.56288351,-0.10458205300000001,0.146230285,-0.106844385,10.02697219,452.6332852,12.06013752,96005.12198,1.1406996090000001,-0.698522518,0.683551912,0.36974715799999996,0.316424612,0.149620599,0.229348615,0.761000646,0.27288109899999996,-3.024624335,0.003337417,0.147579389,-0.35992223100000004,-0.921228869,0.658242185,398701114.6,327384854.4,452414.8354,19.95635924,-14.77325265,13.39274255,-4.281820075,2.405236847,0,0,0.0,39.8714138,32.7364372,-146.20898119999998,175.9553964,-52.8336894,-15.12370585,13.01232446,-4.2155103380000005,-3.085569731,-2.9326104760000002,0.441408311,2.390109532,52.95982889,-0.018766736000000003,0.309841855,0.254158436,0.65770066,22692489,0,1,0,0,0
333,22730840,-0.013555467,0.041035909,0.045181389,0.6450347679999999,0.0,1522.0,1500.0,1645.0,1507.0,1492.0,1520.0,20.00368983,20.44708403,19.93141543,19.87747745,20.31786076,20.05764365,20.502015,250.8475465,250.8475465,12.0343934,-0.0029050020000000003,-0.006420563000000001,0.001672336,-0.17234303899999998,0.192677953,-0.11702244199999999,2.0,-1.0,0.0,11,0,0,1,0,0.0,0,0,0,0,0,0.7547208670000001,0.272255402,-3.04409497,-2.717411857,22.79649193,283.8809534,57.75433988,-0.026351887,-0.02421202,0.016342012,0.0,2.13904004,-0.376061784,-10.73073951,3344830000000000.0,960.0049185,12.05709658,0.40676973899999996,0.075476106,0.17411400100000002,2.2240544030000002,-0.55647859,-9.796557924,0.298411772,0.148976306,0.24533112199999998,3344830000000000.0,55.37815638,55.15105906,4.011318948,4.132453236,15.33389576,20.570558899999998,-0.10473325300000001,0.142874405,-0.107449195,10.37376993,452.8173665,12.05911603,96003.00545,1.140674507,-0.8242231529999999,0.085665491,0.8494859020000001,0.304579816,0.166801637,0.237035622,0.7572796959999999,0.27339347399999997,-3.01526304,0.007831372,0.14948224599999999,-0.35748469,-0.9218422470000001,0.659168236,398701063.2,327384913.2,452574.2965,19.97051595,-14.88764953,13.2883596,-4.255962938,2.412918963,0,0,0.0,39.8714138,32.7364372,-146.76457969999998,176.4321219,-52.98620672,-15.23804897,12.90153825,-4.2007833869999995,-3.176335275,-3.1243006,0.425924094,2.398959507,53.11234545,-0.031407498,0.314537893,0.256387684,0.658510389,22730840,0,1,0,0,0
334,22765191,-0.015913793,0.043312222000000004,0.045638547,0.64591724,0.0,1522.538908,1500.0,1646.0,1508.0,1491.0,1522.0,20.03839285,20.482686899999997,19.94580382,19.89320701,20.33410916,20.07086246,20.51569876,251.212622,251.212622,12.03334114,-0.0028985720000000003,-0.0064195780000000004,0.001669655,-0.17263674199999998,0.192555891,-0.11711672699999999,2.0,-1.0,0.0,11,0,0,1,0,0.0,0,0,0,0,0,0.752620625,0.272774046,-3.0318266819999997,-2.715219919,22.14596394,283.4092656,57.78695784,-0.026429491,-0.024172147,0.016206578,0.0,2.183003889,-0.330586605,-10.8629976,3344830000000000.0,959.9922240000001,12.05611066,0.39040995700000003,0.088812691,0.187193157,2.20526705,-0.508581984,-9.934239038,0.280867653,0.15982539699999998,0.253105277,3344830000000000.0,55.5588632,55.29896058,4.012959194,4.136496901,15.33401115,20.57823429,-0.104884453,0.139518525,-0.10805400400000001,10.72056768,452.8356223999999,12.05807382,96002.79973,1.14067206,-0.8513981079999999,-0.202333674,0.264344201,0.28698864399999996,0.179729182,0.24674150399999997,0.756900348,0.273903711,-3.000796535,0.01443249,0.152295038,-0.356191008,-0.92180559,0.659923329,398701011.4,327384971.8,452733.6847,19.98358038,-15.00896379,13.17451073,-4.226101021,2.421160252,0,0,0.0,39.8714138,32.7364372,-147.32205459999997,176.90976030000002,-53.13909449999999,-15.35303989,12.78977926,-4.186088622,-3.2685063739999998,-3.3159863489999997,0.409202009,2.407876021,53.26523252,-0.047470785999999994,0.319414336,0.258415315,0.65947473,22765191,0,1,0,0,0
335,22803542,-0.017484128,0.045782224,0.045983511,0.647093436,0.0,1523.0,1500.0,1647.0,1509.546509,1489.453491,1523.0,19.99415163,20.43745073,19.960192199999998,19.90893657,20.35035756,20.08408128,20.52938252,251.5776975,251.5776975,12.03228888,-0.002892141,-0.0064185940000000006,0.0016669739999999999,-0.172930444,0.19243383,-0.11721101199999999,2.0,-1.0,0.0,11,0,0,1,0,0.0,0,0,0,0,0,0.750520383,0.273292689,-3.019558393,-2.713027981,21.49543595,282.9375778,57.81957579,-0.02651053,-0.024130448,0.016053749,0.0,2.191700243,-0.271984862,-11.0287952,3344830000000000.0,959.9726458999999,12.05513483,0.376078178,0.10225567599999999,0.198954582,2.210301897,-0.447035946,-10.09782004,0.26506388399999997,0.17235984399999998,0.25941975,3344830000000000.0,55.74672328,55.45357232,4.014621616,4.14245204,15.33412821,20.58526068,-0.10502264,0.13806942,-0.108679989,11.08407215,453.0120017,12.05705779,96000.78391,1.1406481929999999,-1.00871149,0.266523529,0.478493591,0.265478275,0.186542343,0.25531269,0.752773219,0.274413161,-2.991410152,0.018981281000000003,0.154158552,-0.35353818600000003,-0.922431865,0.660572102,398700959.5,327385030.4,452893.073,19.99664481,-15.13027806,13.06066187,-4.196239105,2.42940154,0,0,0.0,39.8714138,32.7364372,-147.93612819999998,177.4149381,-53.30315699999999,-15.48757129,12.64867707,-4.1723647260000005,-3.403074548,-3.5075401060000004,0.35514096100000003,2.418799641,53.42929578,-0.06380693400000001,0.324023589,0.260306839,0.66032517,22803542,0,1,0,0,0
336,22837892,-0.021996391,0.048021157,0.046582858,0.6476909000000001,0.0,1523.0,1500.0,1648.0,1511.0,1488.0,1524.0,19.99432558,20.4378143,19.97458059,19.92466613,20.36660596,20.097300100000002,20.54306628,251.942773,251.942773,12.03123662,-0.00288571,-0.00641761,0.0016642929999999998,-0.17322414600000002,0.192311768,-0.11730529699999999,2.0,-1.0,0.0,11,0,0,1,0,0.0,0,0,0,0,0,0.74842014,0.273811332,-3.007290105,-2.7108360439999997,20.84490797,282.4658899,57.85219375,-0.026580974,-0.024101354,0.015924422,0.0,2.19447894,-0.21118056699999999,-11.2002205,3344830000000000.0,959.9519127,12.054160699999999,0.362071023,0.10948757,0.20495313899999998,2.199463444,-0.544590765,-10.28463048,0.24955213399999998,0.18517708300000002,0.265489298,3344830000000000.0,55.95001806,55.62266281,4.016331887,4.152531601000001,15.33424887,20.59088673,-0.10513274800000001,0.140734595,-0.109351664,11.483625,453.1561685,12.05601242,95999.11463,1.140628285,-0.822493598,-0.683217948,0.537080251,0.24531546699999998,0.201425302,0.261294835,0.751280631,0.274918647,-2.9779508889999997,0.025211296,0.15674640199999998,-0.35177344299999996,-0.9225230409999999,0.661130666,398700907.6,327385089.0,453052.4613,20.00970923,-15.25159232,12.94681301,-4.166377188,2.437642829,0,0,0.0,39.8714138,32.7364372,-148.55020180000002,177.92011580000002,-53.46721949999999,-15.622102700000001,12.50757488,-4.158640828999999,-3.537642721,-3.6990938630000003,0.30107991300000003,2.429723261,53.59335904,-0.074166621,0.32824836399999996,0.262311764,0.66073203,22837892,0,1,0,0,0
337,22872243,-0.025931127,0.050147488,0.047071255,0.648302041,0.0,1523.0,1500.0,1648.0,1512.0,1487.0,1525.0,20.11475942,20.56110576,19.98896897,19.94039569,20.38285437,20.11051891,20.55675005,252.30784849999998,252.30784849999998,12.03018436,-0.00287928,-0.006416625,0.0016616110000000001,-0.173517848,0.19218970600000002,-0.11739958199999999,2.0,-1.0,0.0,11,0,0,1,0,0.0,0,0,0,0,0,0.746319898,0.274329975,-2.995021817,-2.7086441060000004,20.19437998,281.9942021,57.88481171,-0.026658627,-0.024072319,0.015769787,0.0,2.191620829,-0.16549150599999998,-11.37144024,3058460000000000.0,959.9322241,12.05318391,0.34338317,0.122989904,0.213187147,2.1876505880000003,-0.457021333,-10.31252146,0.233547571,0.196466974,0.270402395,3058460000000000.0,56.15331283,55.791753299999996,4.018042158,4.162611162,15.33436953,20.59651277,-0.105242857,0.143399771,-0.110023339,11.88317786,453.40560939999995,12.05499398,95996.25828,1.140594353,-0.18637896399999998,-0.031742055,0.29846553,0.233643612,0.211143708,0.26322549300000003,0.7472219059999999,0.275433567,-2.967820282,0.030109649,0.15870077800000001,-0.34906845,-0.923068219,0.661266711,398700855.7,327385147.6,453211.8496,20.02277366,-15.37290658,12.83296414,-4.136515272,2.445884117,0,0,0.0,39.8714138,32.7364372,-149.150218,178.4031775,-53.62576065,-15.75658329,12.36173226,-4.147086187,-3.645281563,-3.928421558,0.241116075,2.440824626,53.75190004,-0.087861559,0.331243445,0.262669475,0.661178581,22872243,0,1,0,0,0
338,22906594,-0.026140897000000003,0.052543029000000005,0.04744457,0.6495065,0.0,1523.0,1500.0,1650.0,1513.569314,1485.430686,1527.0,20.06750041,20.51307187,20.00335736,19.95612525,20.39910277,20.12373773,20.57043381,252.67292400000002,252.67292400000002,12.0291321,-0.0028728490000000002,-0.006415641,0.00165893,-0.173811551,0.19206764399999998,-0.11749386699999999,2.0,-1.0,0.0,11,0,0,1,0,0.0,0,0,0,0,0,0.744219656,0.274848618,-2.982753528,-2.706452168,19.54385199,281.5225143,57.91742967,-0.026736237000000003,-0.024037329,0.015608549,0.0,2.1693763109999997,-0.171787545,-11.54195298,1787170000000000.0,959.9161278999999,12.05219799,0.321618775,0.127455277,0.23339144899999997,2.1250317069999998,-0.422217293,-10.50650297,0.21584810000000001,0.20250393,0.27133816899999996,1787170000000000.0,56.35660761,55.96084379,4.019752428,4.172690724,15.33449019,20.60213882,-0.10535296599999999,0.146064947,-0.110695015,12.28273071,453.49008439999994,12.05397801,95995.27973,1.140582779,-0.89714116,-0.080834582,0.646456341,0.22109138,0.222623221,0.270048628,0.7445787779999999,0.275945434,-2.9553520580000003,0.035981611000000004,0.161059714,-0.346818019,-0.9232982390000001,0.661374902,398700802.3,327385205.2,453371.6549,20.03416992,-15.50172835,12.69742703,-4.119165833,2.4552027990000003,0,0,0.0,39.8714138,32.7364372,-149.7293594,178.8533978,-53.77610279,-15.89098844,12.20885026,-4.138752818,-3.712931228,-4.213842314,0.17238678699999999,2.452189936,53.90224066,-0.101523566,0.335899891,0.26484916,0.661287253,22906594,0,1,0,0,0
339,22948945,-0.029055785,0.055197014,0.048037337,0.6508331999999999,0.0,1524.0,1500.0,1650.0,1514.576915,1484.423085,1527.576915,20.00170183,20.4458838,20.01774574,19.97185481,20.41535117,20.13695654,20.58411757,253.0379994,253.0379994,12.02807984,-0.0028664190000000003,-0.0064146559999999995,0.001656249,-0.17410525300000002,0.191945582,-0.11758815199999999,2.0,-1.0,0.0,11,0,0,1,0,0.0,0,0,0,0,0,0.742119414,0.275367262,-2.97048524,-2.704260231,18.893324,281.0508265,57.95004762,-0.026818538,-0.024002055,0.015442075,0.0,2.1471317919999997,-0.178083584,-11.71246572,515876000000000.0,959.9000317,12.05121207,0.30783052899999996,0.13826451,0.22908843899999998,2.10652017,-0.328325197,-10.58755119,0.198148629,0.20854088699999998,0.272273943,515876000000000.0,56.55990239,56.12993428,4.021462699,4.182770285,15.33461085,20.60776487,-0.105463074,0.14873012300000002,-0.11136669,12.68228356,453.68884060000005,12.05296131,95993.01297000001,1.140555832,-0.630456046,0.288302561,0.049837392,0.193879033,0.237255573,0.27345969600000003,0.740758418,0.276447249,-2.9444772639999996,0.041219537,0.163094677,-0.34413812899999996,-0.923725481,0.661466573,398700747.1,327385261.6,453531.9764,20.04350197,-15.63983997,12.53505265,-4.11729946,2.465854658,0,0,0.0,39.8714138,32.7364372,-150.30850080000002,179.303618,-53.92644493,-16.02539359,12.05596825,-4.1304194480000005,-3.780580894,-4.499263071000001,0.103657499,2.463555247,54.05258127,-0.115844374,0.335140874,0.260913637,0.6614095,22948945,0,1,0,0,0
340,22983296,-0.031252995,0.057200112000000004,0.048435560999999995,0.65151674,0.0,1524.0,1500.0,1652.0,1515.584517,1483.415483,1529.0,20.041048999999997,20.48629595,20.03213413,19.98758437,20.43159957,20.15017536,20.59780134,253.40307489999998,253.40307489999998,12.02702758,-0.002859988,-0.006413672,0.0016535679999999998,-0.174398955,0.19182352100000002,-0.11768243699999999,2.0,-1.0,0.0,11,0,0,1,0,0.0,0,0,0,0,0,0.7400191709999999,0.275885905,-2.958216952,-2.702068293,18.24279601,280.5791386,57.98266558,-0.026887274,-0.023973006,0.015295063999999999,0.0,2.1409227090000003,-0.143945945,-11.85920668,755414000000000.0,959.8819051,12.05023293,0.296780979,0.157019091,0.241914359,2.192758349,-0.397890329,-10.735548399999999,0.18480078600000002,0.217208987,0.275053788,755414000000000.0,56.76310115,56.29895684,4.023171565,4.192850005,15.33473143,20.6134064,-0.105573494,0.151405876,-0.11203803,13.08168702,453.9689409,12.05191425,95989.79372999999,1.140517562,-0.23294271600000002,0.51439006,0.255055968,0.17830348199999999,0.248873283,0.280705549,0.737265307,0.276944812,-2.9329345339999997,0.04674697,0.16522282,-0.341541362,-0.924046878,0.661488603,398700691.8,327385317.9,453692.2979,20.05283402,-15.77795159,12.37267826,-4.1154330869999995,2.476506516,0,0,0.0,39.8714138,32.7364372,-150.9372397,179.77087609999998,-54.08560871,-16.17510349,11.87458753,-4.1254864069999995,-3.855514877,-4.754683315,0.063322232,2.476557439,54.21174441,-0.12454966099999999,0.335079387,0.25841950199999997,0.6614898,22983296,0,1,0,0,0
341,23017647,-0.03354568,0.05917738,0.048868797,0.652541762,0.0,1524.0,1500.0,1652.0,1517.0,1482.0,1530.0,20.01734803,20.46233402,20.04652252,20.00331393,20.44784797,20.16339418,20.611485100000003,253.76815040000002,253.76815040000002,12.02597532,-0.002853557,-0.006412688000000001,0.0016508870000000002,-0.174692657,0.191701459,-0.117776721,2.0,-1.0,0.0,11,0,0,1,0,0.0,0,0,0,0,0,0.7379189290000001,0.276404548,-2.9459486630000002,-2.699876355,17.59226802,280.1074508,58.01528354,-0.026962672000000003,-0.023941526,0.015121598,0.0,2.1456643090000003,-0.082195936,-11.98971376,2026700000000000.0,959.862392,12.04925842,0.28107519,0.167668558,0.251094828,2.186623481,-0.30510798699999997,-10.88249115,0.17442469100000002,0.227673908,0.279092958,2026700000000000.0,56.94380759,56.45206708,4.024551328,4.202966931000001,15.33483308,20.62267579,-0.105756846,0.156559336,-0.11263091900000001,13.44609412,454.01014969999994,12.05089791,95989.32453,1.140511905,-0.281351644,0.7184403109999999,-0.150818861,0.165808393,0.255505806,0.282358199,0.733384085,0.277439206,-2.921806583,0.052120842,0.167246217,-0.33878647700000003,-0.924410469,0.66146536,398700636.6,327385374.3,453852.6193,20.06216608,-15.91606321,12.21030388,-4.113566713,2.487158375,0,0,0.0,39.8714138,32.7364372,-151.58056409999998,180.2431448,-54.24736673,-16.32931418,11.68482598,-4.121553326,-3.932591015,-5.001281081,0.031337011,2.490041001,54.37350206,-0.135267367,0.332716787,0.25464627100000004,0.66148746,23017647,0,1,0,0,0
342,23059998,-0.037050598,0.061637029,0.049259545999999994,0.65367156,0.0,1524.0,1500.0,1654.0,1518.0,1481.0,1531.0,20.12010502,20.56740622,20.0609109,20.01904349,20.46409637,20.17661299,20.62516886,254.1332259,254.1332259,12.02492306,-0.002847127,-0.006411703,0.0016482060000000002,-0.17498635899999998,0.19157939699999998,-0.117871006,2.0,-1.0,0.0,11,0,0,1,0,0.0,0,0,0,0,0,0.7358186870000001,0.276923191,-2.933680375,-2.697684418,16.94174004,279.635763,58.0479015,-0.027034326,-0.023913852000000003,0.014948863,0.0,2.150405909,-0.020445927,-12.12022084,3297990000000000.0,959.8428788999998,12.048283900000001,0.262742985,0.172057588,0.256736723,2.0947283530000003,-0.278962441,-11.10971627,0.164048597,0.23813883,0.283132128,3297990000000000.0,57.12451404,56.60517733,4.025931091,4.213083858,15.33493473,20.63194518,-0.10594019800000001,0.161712795,-0.113223807,13.81050121,454.2444635,12.04988121,95986.63937,1.140480077,-0.575309144,0.38849122,-0.191349477,0.150147426,0.268064213,0.283603258,0.728069683,0.277932998,-2.912391569,0.056830133,0.16891366,-0.335499636,-0.925026393,0.6612618570000001,398700581.3,327385430.6,454012.9408,20.07149813,-16.05417483,12.0479295,-4.11170034,2.497810234,0,0,0.0,39.8714138,32.7364372,-152.2187837,180.7072507,-54.40728513,-16.4826008,11.49366231,-4.11824795,-4.003210105,-5.249615092,0.00196637,2.503511499,54.53342013,-0.147214076,0.329940273,0.24914456899999998,0.6613536999999999,23059998,0,1,0,0,0
343,23104697,-0.038928597999999995,0.063697015,0.049651822000000005,0.65494144,0.0,1524.0,1500.0,1655.0,1519.0,1480.0,1532.0,20.06007368,20.50635369,20.07343067,20.0325974,20.47811118,20.18436582,20.63325368,254.4983014,254.4983014,12.023870800000001,-0.002840011,-0.006412076,0.001646589,-0.17530911,0.19137247100000002,-0.117905123,2.0,-1.0,0.0,11,0,0,1,0,0.0,0,0,0,0,0,0.7335385590000001,0.277441161,-2.921578841,-2.695514428,16.29850441,279.15735930000005,58.08183407,-0.027104938999999998,-0.023889445,0.014759158999999999,0.0,2.1871060669999998,-0.005447156999999999,-12.30076904,3344830000000000.0,959.825079,12.04729841,0.25144598,0.17525759800000001,0.26371475699999997,2.1410931730000002,-0.27803042,-11.2517265,0.14799172,0.247071435,0.28807646600000003,3344830000000000.0,57.30522049,56.75828757,4.0273108539999996,4.223200783999999,15.33503638,20.64121456,-0.10612355,0.166866254,-0.113816695,14.17490831,454.35431680000005,12.04886451,95985.32606,1.14046438,-1.084817517,0.038897346,0.536495602,0.138609345,0.277033906,0.286194055,0.72230087,0.278425607,-2.9034600289999997,0.061362408,0.17045897,-0.332034241,-0.925703807,0.6610338720000001,398700525.9,327385486.5,454173.2124,20.08083017,-16.19311662,11.88140428,-4.111162232,2.508641753,0,0,0.0,39.8714138,32.7364372,-152.82643059999998,181.12247030000003,-54.55618602,-16.63035326,11.29410142,-4.118701886,-4.035158123,-5.508347429,-0.011745628999999999,2.5169037569999997,54.68232102,-0.15821727300000002,0.328128813,0.244740128,0.6611055220000001,23104697,0,1,0,0,0
