timestamp,control[0],control[1],control[2],control[3],control[4],output[2],output[3],output[4],output[5],output[6],output[7],indicated_airspeed_m_s,true_airspeed_m_s,indicated_airspeed_m_s.1,equivalent_airspeed_m_s,true_airspeed_m_s.1,equivalent_ground_minus_wind_m_s,true_ground_minus_wind_m_s,Unnamed: 6,Unnamed: 7,differential_pressure_raw_pa,differential_pressure_filtered_pa,temperature,gyro_bias[0],gyro_bias[1],gyro_bias[2],accel_bias[0],accel_bias[1],accel_bias[2],instance_count,seq_reached,seq_current,seq_total,item_changed_index,item_do_jump_remaining,valid,warning,finished,failure,stay_in_failsafe,flight_termination,item_do_jump_changed,execution_mode,nav_roll,nav_pitch,nav_bearing,target_bearing,xtrack_error,wp_dist,acceptance_radius,rollspeed_integ,pitchspeed_integ,yawspeed_integ,additional_integ1,x,y,z,temperature.1,pressure,temperature.2,gyro_rad[0],gyro_rad[1],gyro_rad[2],accelerometer_m_s2[0],accelerometer_m_s2[1],accelerometer_m_s2[2],x.1,y.1,z.1,temperature.3,altitude_sp,altitude_filtered,height_rate_setpoint,height_rate,airspeed_sp,airspeed_filtered,airspeed_derivative_sp,airspeed_derivative,throttle_integ,pitch_integ,timestamp_sample,baro_device_id,baro_alt_meter,baro_temp_celcius,baro_pressure_pa,rho,xyz[0],xyz[1],xyz[2],xyz[0].1,xyz[1].1,xyz[2].1,roll_body,pitch_body,yaw_body,q_d[0],q_d[1],q_d[2],q_d[3],thrust_body[0],lat,lon,alt,vel_m_s,vel_n_m_s,vel_e_m_s,vel_d_m_s,cog_rad,ground_contact,maybe_landed,landed,ref_lat,ref_lon,x.2,y.2,z.2,vx,vy,vz,ax,ay,az,yaw,dist_bottom,roll,pitch,yaw.1,thrust_body[0].1,timestamp.1,isTakeoff,isClimbing,isDescending,isCruise,isLand
21003401.0,-0.031600743,-0.094172844,-0.022228286,0.336645018,0.0,1489.0,1500.0,1309.0,1508.0,1491.0,1448.0,16.74681869,17.120309,16.82901466,16.85491746,17.230730899999998,16.78820745,17.16253152,,,174.3516554,174.3516554,12.0414049,-0.001709951,-0.006522981999999999,0.002729462,-0.104396285,0.016964962,-0.098929354,2.0,-1.0,0.0,11.0,0.0,0.0,1.0,0.0,0.0,0.0,0.0,0.0,0.0,0.0,-0.845621286,0.212581191,0.563182948,0.15066868,-29.88948659,181.377878,55.22687699,-0.022046477,-0.038358901,-0.007377646,0.0,-0.014791241,0.245898546,-6.747195822,-7.209999999999999e-21,959.7075053,12.04044572,-0.018849122,-0.172957275,-0.030845678,-1.038230607,0.262031962,-6.768242472000001,-0.051946588,-0.163827787,-0.025429979,-7.209999999999999e-21,53.76091008,56.84739042,3.78173525,1.629950384,15.33517161,19.4010317,-0.081317207,1.897604014,-0.163495656,-25.64768478,15187851.17,6620172.0,430.3245151,12.20608992,96261.94712,1.143751103,0.118822337,-0.14567621,-0.235381083,-0.02244929,-0.159615757,-0.03956404,-0.862706027,0.219496324,0.522421052,0.8604788409999999,-0.427180834,-0.011204481,0.277423248,0.54280056,398713732.6,327393297.9,455783.9638,17.35490698,0.634024783,17.33940333,-1.824782957,1.5338024609999998,0.0,0.0,0.0,39.8714138,32.7364368,-4.370630685,250.4515717,-56.10555791,0.641861599,17.03962092,-1.109582868,0.235159748,-0.390249754,3.125252628,1.505202316,56.22668128,-0.342940389,0.359921549,-0.16843846399999998,0.542877,21003401.0,0.0,1.0,0.0,0.0,0.0
21025205.0,-0.04509078006613228,-0.08527475329058117,-0.021990981791583167,0.3593600670420842,0.0,1488.3266533066133,1500.0,1330.5470941883768,1514.060120240481,1484.939879759519,1452.0400801603207,16.74417562242485,17.1176336252505,16.779013496713425,16.804940826733464,17.17970055995992,16.736626803907814,17.109861331623247,,,173.28118532384772,173.28118532384772,12.040965440280562,-0.0017092776533066132,-0.006522320773547094,0.0027255734228456914,-0.10441673117234469,0.016927140116232465,-0.09898156732264529,2.0,-1.0,0.0,11.0,0.0,0.0,1.0,0.0,0.0,0.0,0.0,0.0,0.0,0.0,-0.8486342363807614,0.2142817253807615,0.5518231394869739,0.14830099371543087,-29.44230291064128,181.23703851623245,55.32397783200401,-0.02203401671943888,-0.0382861930240481,-0.007191688517034067,0.0,0.6758175412685371,0.21700018726653306,-6.773994250088176,-7.209999999999999e-21,959.7035877016034,12.04031505034068,-0.019424124388777556,-0.17144769096793588,-0.027967289895791583,-1.0028843665190381,0.21194215329458918,-6.74463156480962,-0.06881175987975952,-0.15538641523246494,-0.023667904098196392,-7.209999999999999e-21,53.87157180120241,56.880703163567134,3.793372133270541,1.6800455963126253,15.335188032925851,19.483443005811623,-0.08296510519639279,1.8834526804529057,-0.16390457406012024,-25.564831004609218,15213936.45256513,6620172.0,430.29092479619237,12.205274039278557,96262.31540024048,1.14375546897996,0.12874941188577155,-0.43784418380360723,-0.1273919441783567,-0.017064389703406815,-0.16155927930861724,-0.03575907365130261,-0.8645597484268538,0.22066182989178357,0.5107614621322646,0.8615614356933867,-0.4281409119158317,-0.008448194891783568,0.2726136302044088,0.5427089249218437,398713734.0140281,327393346.5829659,455826.8720773547,17.31983206793587,0.6433780877214429,17.30315913793587,-1.7429414984348697,1.5332107003587174,0.0,0.0,0.0,39.8714138,32.7364368,-4.355739361617235,250.8417911244489,-56.12903124034068,0.648848207256513,17.03422337290581,-1.0375787096993987,0.2782525304288577,0.21908161337474957,3.0759071003687377,1.5048250728416834,56.25015485274549,-0.32914497439478957,0.36422304726052107,-0.17154997011623246,0.543426226004008,21025204.639278557,0.0,1.0,0.0,0.0,0.0
21048395.0,-0.0569385395731463,-0.07666500608416833,-0.021785865983967936,0.37984235624248497,0.0,1488.3466933867735,1500.0,1360.0681362725452,1522.8937875751503,1476.1062124248497,1457.4669338677354,16.716228690781563,17.089131378657314,16.775895555310623,16.80186984294589,17.176606460561125,16.732205319899798,17.105386509458917,,,173.2499856016032,173.2499856016032,12.040654648877755,-0.0017086043066132264,-0.0065216595470941885,0.002721684498997996,-0.10443717769138276,0.01688931823246493,-0.09903378099198397,2.0,-1.0,0.0,11.0,0.0,0.0,1.0,0.0,0.0,0.0,0.0,0.0,0.0,0.0,-0.851647186761523,0.21598225976152305,0.5404633309739479,0.14593330743086172,-28.995119231282565,181.0961990324649,55.421078670541085,-0.022021866382765536,-0.038214661725450905,-0.007000060517034066,0.0,1.330465350218437,0.19736806285370742,-6.82333413267535,0.3223038544008016,959.7000427292587,12.040188454328657,-0.023754445751503005,-0.1691377631723447,-0.026870949136272547,-0.3398464633246493,0.20570538930661322,-6.746562657054108,-0.08750968994589178,-0.14529267262124249,-0.022275528116232464,0.3223038544008016,53.98281944116232,56.918210848577154,3.8026507280380764,1.7263949963306613,15.335209725591183,19.553472899238475,-0.08436526981963928,1.858725148957916,-0.16432428641883767,-25.463205158697395,15238576.425871743,6620172.0,430.3971970531062,12.204458158557113,96261.08113883768,1.1437408299218437,-0.0156346095971944,-0.4447816481503006,0.020317590398797616,-0.015098530703406814,-0.16054604162925853,-0.033555478855711425,-0.8653208448436874,0.221787051745491,0.501459173731463,0.8625487278416833,-0.4286068338797595,-0.0060633349298597206,0.2688138876012024,0.5427941121382766,398713735.4280561,327393395.2312625,455869.7803893788,17.284757159338678,0.6527313924428858,17.266914945871743,-1.6611000398697393,1.5326189397174348,0.0,0.0,0.0,39.8714138,32.7364368,-4.340557116719438,251.2360268531062,-56.151888191442886,0.6563307968056112,17.035307071462924,-0.9660419363807615,0.32079205955110224,0.799364195735471,3.0150249890380763,1.5044539945851705,56.27301204278557,-0.31454483971543085,0.3681946390280561,-0.17494232491783568,0.543979913258517,21048394.705410823,0.0,1.0,0.0,0.0,0.0
21072811.0,-0.06750066631062124,-0.0682053995751503,-0.021603623226452907,0.39855808333667336,0.0,1489.0,1500.0,1396.4809619238476,1534.1060693186373,1464.8939306813627,1464.120240480962,16.668248416312625,17.040184338777554,16.817460087294588,16.843502707234467,17.219198423246496,16.772729296172344,17.146844711222442,,,174.20927177034068,174.20927177034068,12.040466486112223,-0.0017079309599198397,-0.006520998340681363,0.002717795268537074,-0.10445762451703407,0.016851496348697394,-0.09908599498797595,2.0,-1.0,0.0,11.0,0.0,0.0,1.0,0.0,0.0,0.0,0.0,0.0,0.0,0.0,-0.8546601371422845,0.21768279414228459,0.5291035224609218,0.14356562114629257,-28.54793555192385,180.9553595486974,55.51817950581163,-0.022009980258517036,-0.03814421584168337,-0.0068031724008016025,0.0,1.9437939588356716,0.18838285260120244,-6.898574172767535,1.0149352139438887,959.6969259080159,12.04006653777555,-0.03190038821242486,-0.16592930167334669,-0.02740703123246493,0.8894391315010021,0.2401886358476954,-6.772348339995992,-0.10831346130460923,-0.13330035409619237,-0.02130793664529058,1.0149352139438887,54.094619131743485,56.95967099286573,3.809707351557114,1.7692151050160319,15.335236383587175,19.611837068857714,-0.08553202070941884,1.8240327604569138,-0.16475416910821644,-25.343892333046092,15261896.405751504,6620172.0,430.63023586472946,12.203642615511022,96258.39542276553,1.1437089769679358,-0.29792672590581165,-0.18714302067535066,0.19796426846693385,-0.016253078911823645,-0.1568589251242485,-0.03290832942084168,-0.8650998826032064,0.2228725916252505,0.4942594539318637,0.8634512387274549,-0.42862717201603207,-0.004009939711422845,0.2659139436773547,0.5430526986032065,398713736.84208417,327393443.8268537,455912.4846519038,17.249939138777552,0.6620561544589179,17.230970456012024,-1.5792871240901802,1.532029420539078,0.0,0.0,0.0,39.8714138,32.7364368,-4.3250406027114225,251.63487732284568,-56.17403692162325,0.6643832695310621,17.043837730300602,-0.8950421889859719,0.3626958999959921,1.346269690176353,2.940887329599198,1.5040899998677355,56.29516100863727,-0.2993315888496994,0.3718106455450902,-0.1785403916713427,0.5445395567134268,21072810.91783567,0.0,1.0,0.0,0.0,0.0
21094615.0,-0.086594716747495,-0.055783734100200405,-0.02117835563527054,0.4282644594488978,0.0,1489.0,1500.0,1412.6412825651303,1537.6699984248496,1461.3300015751504,1468.1603206412826,16.744404708416834,17.118025081703408,16.875626636392788,16.901745526312624,17.27876528432866,16.829952991563125,17.205369568296593,,,175.53657829378758,175.53657829378758,12.040323891482965,-0.001707257613226453,-0.00652033778757515,0.0027139066913827656,-0.10447807068937875,0.01681367446492986,-0.09913820898396793,2.0,-1.0,0.0,11.0,0.0,0.0,1.0,0.0,0.0,0.0,0.0,0.0,0.0,0.0,-0.857673087523046,0.2193833285230461,0.5177437139478959,0.14119793486172344,-28.10075187256513,180.81452006492987,55.61528034108217,-0.02199718734468938,-0.03807301212224449,-0.0066089778677354705,0.0,2.314679758114228,0.24186903280160318,-7.125784891356713,3.8804847352585177,959.6963213773547,12.039972047034068,-0.049088676949899795,-0.1580116858977956,-0.026423432643286573,1.2984690843346693,0.2551713411302605,-6.791255664661323,-0.14147337873947896,-0.1101680341282565,-0.02283279352705411,3.8804847352585177,54.20641882232464,57.00113113715431,3.816763975076152,1.8120352143547094,15.335263048116232,19.670201238476956,-0.08669877094589178,1.7893403726092183,-0.16518405114428858,-25.22457950739479,15286578.151002005,6620172.0,430.6999009196393,12.202838080681362,96257.61532368738,1.143699702290581,-0.3362637515410822,-0.06535201456713427,0.1315257609559118,-0.014114973549098197,-0.156822036498998,-0.03381419956112225,-0.8664244484709419,0.22390184783366732,0.483197525242485,0.8645171559699399,-0.4292997773547094,-0.0013537156152304609,0.261328507236473,0.5435328964709418,398713738.2561122,327393491.7691383,455948.5358358718,17.223495561703405,0.6704504242785572,17.20479625801603,-1.4984047031202405,1.5315129730521042,0.0,0.0,0.0,39.8714138,32.7364368,-4.30756274661523,252.06080513046092,-56.19203011216433,0.6757795673747494,17.096063900400804,-0.8271934733146292,0.4008698006613227,1.6973331809018037,2.7889719721322646,1.5037675698236472,56.3131544348497,-0.28884821579959924,0.3739678510601202,-0.18021823022845693,0.5451563422845691,21094614.55711423,0.0,1.0,0.0,0.0,0.0
21119352.0,-0.09917368773346694,-0.04576028875951904,-0.02111044817034068,0.45023164673947896,0.0,1489.0,1500.0,1434.6693386773547,1544.3197263406812,1454.6802736593188,1473.3006012024048,16.805123435911824,17.180106422064128,16.933793185490984,16.95998834539078,17.33833214907816,16.887176690621242,17.26389442537074,,,176.86388481723446,176.86388481723446,12.040181296853707,-0.001706002627254509,-0.006519231286573146,0.002709004096192385,-0.10447653119038076,0.016734421234468937,-0.09918137419839679,2.0,-1.0,0.0,11.0,0.0,0.0,1.0,0.0,0.0,0.0,0.0,0.0,0.0,0.0,-0.8606860379038076,0.2210838629038076,0.5063839054348698,0.1388302485771543,-27.653568193206414,180.67368054448897,55.71238118002004,-0.021984931695390782,-0.03800189128456914,-0.0064096424649298595,0.0,2.6855655573927852,0.29535521300200396,-7.352995609579159,6.746034256939879,959.69571681002,12.039877556292586,-0.07050935338076152,-0.14657458918436875,-0.024552580008016033,1.757904213539078,0.270978602238477,-6.9086874685310615,-0.17463329580761522,-0.08703571379358718,-0.024357650408817638,6.746034256939879,54.31821850923848,57.04259128144289,3.8238205985951903,1.8548553233266534,15.335289712645292,19.728565408096195,-0.0878655215490982,1.7546479843947895,-0.1656139335470942,-25.105266681743487,15311259.896252505,6620172.0,430.7871533014028,12.202032225611221,96256.6052570541,1.1436877046172345,-0.8406377235090179,0.027008631186372725,0.10316582303206412,-0.01289861828256513,-0.1548510755170341,-0.03428612865931864,-0.8671480603086172,0.22489420772144286,0.47333941749499,0.8655425011222445,-0.42969694165531064,0.001109005967935871,0.257253665733467,0.5441616239599198,398713739.74348694,327393539.1246493,455979.2158048097,17.203812969138276,0.6780934746973948,17.18650994679359,-1.4182735026513027,1.5310555190440882,0.0,0.0,0.0,39.8714138,32.7364368,-4.290084890885771,252.48673293807616,-56.21002330270541,0.6871758655851703,17.148290066833667,-0.759344757276553,0.43904370095991985,2.048396671260521,2.637056614665331,1.5034451401462927,56.33114786472946,-0.2757017137955912,0.3773417256573146,-0.182395693991984,0.546005541523046,21119352.064128257,0.0,1.0,0.0,0.0,0.0
21146382.0,-0.10672683602204411,-0.03759434986573146,-0.021331712795591182,0.46594084035871747,0.0,1489.0,1500.0,1460.681362725451,1553.1356263326654,1445.8643736673346,1479.200400801603,16.849876849699395,17.225880883306612,16.991959734589177,17.018231164468936,17.397899016492985,16.944400392745493,17.322419282845694,,,178.19119134068137,178.19119134068137,12.040038702224448,-0.001704240751503006,-0.00651773623246493,0.0027032179238476953,-0.10445583339478959,0.016619064713426855,-0.09921665431863728,2.0,-1.0,0.0,11.0,0.0,0.0,1.0,0.0,0.0,0.0,0.0,0.0,0.0,0.0,-0.8635611308897795,0.22274433239478958,0.49514133676152305,0.13646497459719437,-27.206979915851704,180.5308893981964,55.80593791701403,-0.021973028120240483,-0.03793106234669339,-0.006206140380761523,0.0,3.0513031445270546,0.34774095328256516,-7.582294054388778,9.478758566022044,959.6950840276553,12.039783572965932,-0.09627788369739482,-0.13160871886773545,-0.022015897715430863,2.2474369164889785,0.28507081386172345,-7.106648967537074,-0.20796967781963932,-0.06392595728056111,-0.02589541025651303,9.478758566022044,54.43001819348697,57.08405142533066,3.830877222114229,1.897675431991984,15.335316376773546,19.78692957771543,-0.08903227241883768,1.7199555958737476,-0.16604381621643288,-24.985953856492987,15335941.641903808,6620172.0,430.8894192244489,12.201224731663327,96255.40220783566,1.1436734187975952,-1.6745910980420842,0.1279721145611227,0.07803263008617199,-0.013090371669338685,-0.15142308943286573,-0.03428465671543086,-0.8673733326452906,0.22585427998597193,0.4644558218717435,0.8665360365290582,-0.4298644601482966,0.0034157003486973963,0.25359127455911823,0.5449165204488978,398713741.28817636,327393585.98957914,456005.4050817636,17.189783003366735,0.6851084564769538,17.174818426152306,-1.338770371741483,1.5306473874529056,0.0,0.0,0.0,39.8714138,32.7364368,-4.272605168809617,252.91204244108215,-56.227860954969934,0.6987095078697395,17.201063684709418,-0.692130274238477,0.47890346684368745,2.396192849689379,2.481951517278557,1.5031180970280562,56.34898575338677,-0.26058002303807615,0.3816725657695391,-0.18502516268136274,0.5470265135470942,21146382.156312626,0.0,1.0,0.0,0.0,0.0
21170879.0,-0.12093511719238478,-0.027096918010020038,-0.021401227761523048,0.4850071495851703,0.0,1489.0,1500.0,1472.1282565130261,1555.4141487214429,1443.5858512785571,1482.567134268537,16.8463060046493,17.222185778857714,17.050126283687376,17.076473983547093,17.45746587757515,17.00162409486974,17.380944146653306,,,179.51849786412825,179.51849786412825,12.03989610759519,-0.001702153376753507,-0.006515992937875751,0.0026968662444889777,-0.1044228616272545,0.016480577498997995,-0.09924688287174349,2.0,-1.0,0.0,11.0,0.0,0.0,1.0,0.0,0.0,0.0,0.0,0.0,0.0,0.0,-0.8642580770380762,0.2237717766272545,0.4857511575551102,0.13413781503006011,-26.76979899016032,180.3572630478958,55.843497794849696,-0.021959590140280563,-0.03786375057114229,-0.00600471477755511,0.0,3.3356989797815633,0.38273974282965934,-7.8445785841202404,10.112844511192385,959.6940059322645,12.039697606793588,-0.13483335781362726,-0.10737999184569137,-0.02067958733466934,2.546667167903808,0.26117299633867735,-7.27548743095992,-0.24409421078957916,-0.04117271399398797,-0.027637036965931866,10.112844511192385,54.54181788406813,57.12551156288577,3.8379338456332666,1.9404955406573146,15.335343034569139,19.84529374733467,-0.09019902265531062,1.6852632073527052,-0.16647369825250502,-24.866641037575153,15360623.393887775,6620172.0,430.9965733951904,12.200408783607214,96254.18786747495,1.1436589505971944,-1.559627371549098,0.7536306679879762,-0.39912965406613243,-0.023354074114228462,-0.15052288550501003,-0.032535738334669335,-0.8676633450861724,0.22679160215030061,0.45506724051703407,0.8675629286172345,-0.4300421058396794,0.005813301406813628,0.2497007231523046,0.5457028351903808,398713742.76953906,327393632.854509,456031.59429539077,17.175753043927855,0.6921234388897796,17.16312690551102,-1.2592672401983966,1.5302392558617233,0.0,0.0,0.0,39.8714138,32.7364368,-4.255095953611222,253.3275827312625,-56.24324110246493,0.7124131816813627,17.262487083827654,-0.6349366774448897,0.5453999138176353,2.692365504470942,2.2764485291583165,1.5027181566993988,56.36436604228457,-0.24942984687775552,0.3850514618977956,-0.18819634212825653,0.5476913491382766,21170879.18236473,0.0,1.0,0.0,0.0,0.0
21193829.0,-0.1280295657234469,-0.019614134551102204,-0.021382146058116232,0.498149666492986,0.0,1489.0,1500.0,1488.2164328657316,1560.4626009218437,1438.5373990781563,1487.0941883767534,16.90905764478958,17.28636896006012,17.108292832785573,17.134716798757516,17.51703274252505,17.05884779312625,17.439469006593185,,,180.8458043488978,180.8458043488978,12.03975351296593,-0.0017000663887775551,-0.006514249256513026,0.0026905141783567133,-0.10438988985971943,0.01634208989779559,-0.09927711103807615,2.0,-1.0,0.0,11.0,0.0,0.0,1.0,0.0,0.0,0.0,0.0,0.0,0.0,0.0,-0.8643948865190381,0.2246364305811623,0.4768373417995992,0.13182045746492987,-26.335037278857715,180.17570698897796,55.86665742054108,-0.02194674082965932,-0.037795944885771544,-0.0058046842665330665,0.0,3.542180589721443,0.40108422201603205,-8.138459250601203,8.736723178709418,959.6925012643287,12.039619325811623,-0.17156497148697394,-0.08830655164128257,-0.01966426573547094,2.8650592270641284,0.2643844430561122,-7.452165346298598,-0.2828894093006012,-0.018760960807615232,-0.0295739402244489,8.736723178709418,54.653617574649296,57.166971704308615,3.8449904691523047,1.9833156493226454,15.335369696232465,19.903657916953907,-0.09136577327855712,1.6505708192184367,-0.16690358067535072,-24.74732821478958,15385305.142004007,6620172.0,431.11890568156315,12.199592874228458,96252.78498274549,1.1436422971262525,-1.587883297002004,1.3201372636773545,-0.5150128088937875,-0.03880299655511022,-0.1458591479278557,-0.031552744901803605,-0.8675437651142285,0.22770389851903808,0.4464700210460922,0.8685665504749499,-0.43003116887174353,0.008081761871743488,0.2461437794008016,0.5465239583907815,398713744.28957915,327393679.71943885,456057.7835476954,17.161723080621243,0.6991384209158317,17.15143538486974,-1.179764109042084,1.5298311242705411,0.0,0.0,0.0,39.8714138,32.7364368,-4.237558487699399,253.73376546092183,-56.25626729587174,0.7281954488617235,17.332195779559118,-0.5873417136432866,0.6374106417034068,2.939089914304609,2.0226712841482968,1.5022483921422844,56.37739229587174,-0.23799572865330665,0.3888747206072144,-0.1907390025711423,0.5488888260521043,21193829.114228457,0.0,1.0,0.0,0.0,0.0
21216354.0,-0.13083565251703405,-0.013963600571142286,-0.02133249397795591,0.5074169559118237,0.0,1489.0,1500.0,1506.6613226452905,1567.0508531743487,1431.9491468256513,1492.2404809619238,17.021707623026053,17.401610751563126,17.16645938188377,17.192959611703408,17.57659960973948,17.116071489118234,17.497993863667336,,,182.17311081102204,182.17311081102204,12.039610918336672,-0.001697979627254509,-0.006512505348697395,0.0026841618857715434,-0.10435691803206412,0.01620360207014028,-0.0993073389779559,2.0,-1.0,0.0,11.0,0.0,0.0,1.0,0.0,0.0,0.0,0.0,0.0,0.0,0.0,-0.864116672519038,0.2253804679038076,0.46827647927454913,0.1295103625230461,-25.902068041863725,179.98827555611223,55.87914742875751,-0.021934377763527056,-0.03772789426853707,-0.005605154278557114,0.0,3.6909330068717434,0.40708897907815633,-8.455750526176352,5.871173656108217,959.6906805288578,12.039546738436874,-0.20765129575951902,-0.072224182002004,-0.019268963418837673,3.186179185232465,0.2828498861783567,-7.644289943933868,-0.3236633910881763,0.0033977712164328603,-0.03165553031262525,5.871173656108217,54.76589742094188,57.20891228266533,3.8519847360781565,2.0260334044208417,15.335397121282565,19.961191486973945,-0.09251589691382767,1.615605214697395,-0.16733546316432865,-24.626423206172344,15409986.88725451,6620172.0,431.2465084162324,12.198776974268537,96251.30931917836,1.143624814977956,-1.7177976228376755,1.725278657981964,-0.3529376981042085,-0.05912743823046091,-0.13757716333466935,-0.0306168753747495,-0.8671743674188377,0.22859411281963926,0.4383248280480962,0.8695563801182364,-0.42990151495591195,0.010275162885771542,0.24277466460721445,0.5473890562825651,398713745.83827657,327393726.5903807,456083.9728286573,17.1476931144489,0.7061534027154308,17.139743864228457,-1.1002609781723447,1.529422992679359,0.0,0.0,0.0,39.8714138,32.7364368,-4.2200000899118235,254.1330148745491,-56.26754936785571,0.7455178137194389,17.408043321402808,-0.5468586902885771,0.7483257332264528,3.1491765053426852,1.733126066476954,1.5017268924749498,56.38867436785571,-0.22624985367535075,0.39295291680761524,-0.19288458024248498,0.5504182488977957,21216354.196392786,0.0,1.0,0.0,0.0,0.0
21246238.0,-0.14366333190781563,-0.004218766967935876,-0.021640594531062124,0.5219260621242485,0.0,1489.0,1500.0,1514.0681362725452,1568.4112855270541,1430.5887144729459,1494.933867735471,17.142087608917837,17.52465934507014,17.224625930981965,17.251202430781564,17.636166470821642,17.173295191242484,17.556518720741483,,,183.50041733446895,183.50041733446895,12.039468323707414,-0.00169589225250501,-0.006510762054108217,0.0026778102064128257,-0.10432394559118237,0.016065114855711424,-0.09933756753106213,2.0,-1.0,0.0,11.0,0.0,0.0,1.0,0.0,0.0,0.0,0.0,0.0,0.0,0.0,-0.8638384591322645,0.22612450522645292,0.459715616749499,0.12720026758116232,-25.469098798737477,179.80084418456914,55.89163743084168,-0.021922525515030062,-0.03766107807615231,-0.005400186198396794,0.0,3.8396854246352707,0.413093736753507,-8.773041801751503,3.0056241341202425,959.6888597320641,12.03947414492986,-0.25093951706613227,-0.04768958522444891,-0.02277198090981964,3.390308103036072,0.2520274769759519,-7.934723941593186,-0.3644373728757515,0.02555650324048095,-0.03373712101402805,3.0056241341202425,54.88307485549098,57.255753288517035,3.858342965753507,2.067707153134269,15.335432303647295,20.010252941082168,-0.0934964223486974,1.5778528001082166,-0.1677877434048096,-24.489277931302606,15434668.63250501,6620172.0,431.31316091803603,12.197960878076152,96250.51623797594,1.1436153955310622,-1.8022432578196392,0.9315366849799602,-0.08605997767134282,-0.08999480881162324,-0.12083201348296595,-0.02437318197194389,-0.8673523289098197,0.2294482227995992,0.42880957738677355,0.870581394242485,-0.42998616406212425,0.012678939206412825,0.23880016100801604,0.5484396306472946,398713747.3869739,327393773.5226453,456110.16210961924,17.133663148276554,0.7131683851282565,17.128052343587175,-1.020757847302605,1.5290148610881764,0.0,0.0,0.0,39.8714138,32.7364368,-4.202441692124249,254.532264349499,-56.27883143983968,0.7628401785771542,17.48389085711423,-0.5063756663206413,0.8592408253627254,3.359263096380761,1.4435808494188378,1.5012053921943886,56.39995643983968,-0.21346995563927856,0.3962731994529058,-0.19572995415831665,0.5513080765531062,21246237.995991983,0.0,1.0,0.0,0.0,0.0
21273863.0,-0.15544957573547094,0.004941566172344693,-0.021715667356713427,0.5343656463927856,0.0,1489.0,1500.0,1524.7294589178357,1572.6398393827656,1426.3601606172344,1498.8476953907816,17.204548655911825,17.588548470340683,17.28279248008016,17.30944524985972,17.695733335971944,17.230518889298597,17.615043581883768,,,184.82772385791583,184.82772385791583,12.039325729078156,-0.0016938052845691385,-0.006509018352705411,0.002671458120240481,-0.10429097355711422,0.015926627641282564,-0.09936779608416833,2.0,-1.0,0.0,11.0,0.0,0.0,1.0,0.0,0.0,0.0,0.0,0.0,0.0,0.0,-0.863560245745491,0.22686854295591183,0.45115475463126253,0.12489017223246493,-25.03612955967936,179.61341277234467,55.90412743699399,-0.021911511709418838,-0.03759443030460922,-0.005188866130260521,0.0,3.944985341725451,0.403666809511022,-9.125906928320642,1.1100558277354704,959.6876432162325,12.039406465731464,-0.29244440778156316,-0.020590908871743474,-0.02687586497595191,3.5988263022985976,0.27899198751302606,-8.273340627136273,-0.4044349329559119,0.04648780044288578,-0.03848811127054108,1.1100558277354704,55.00582933873748,57.3081745690982,3.8639769199058116,2.108192058993988,15.335476317935873,20.04966692392786,-0.09428382074348697,1.53692695852505,-0.16826325148296592,-24.333639368637275,15460632.259699399,6620172.0,431.4580281807615,12.19714731226453,96248.84678258517,1.1435955433486975,-1.7959307228256514,0.9774471181262527,0.006361016240480952,-0.12337340370741486,-0.10205447644889779,-0.023440277747494992,-0.8678301071623248,0.2302765086573146,0.4184945107935872,0.8716189711783567,-0.43018036970541085,0.015210032733466935,0.2344705005691383,0.5495901184388777,398713748.89498997,327393820.41422844,456136.35139058117,17.11963318210421,0.7201833675410821,17.116360822945893,-0.941254716026052,1.528606729496994,0.0,0.0,0.0,39.8714138,32.7364368,-4.183449209583166,254.94597202144288,-56.28955317893787,0.7848911766172345,17.565609665410825,-0.4772600854248497,0.9806344780841684,3.502148649188377,1.1176236659659318,1.5003979096633266,56.41067809757515,-0.2018143175731463,0.40007054348897797,-0.19802773415030062,0.5528758997995992,21273862.759519037,0.0,1.0,0.0,0.0,0.0
21299615.0,-0.16519732103406815,0.013087761955911829,-0.021659725681362724,0.5446112327655311,0.0,1489.0,1500.0,1536.8500618036073,1578.2169804328657,1420.7830195671343,1503.2995067735471,17.23365914777555,17.61836455482966,17.340959029178357,17.367688068136275,17.75530020298597,17.28774258549098,17.673568444889778,,,186.1550303813627,186.1550303813627,12.039183134448898,-0.001691718503006012,-0.006507274464929859,0.002665105847695391,-0.10425800170941885,0.015788140426853704,-0.09939802463727454,2.0,-1.0,0.0,11.0,0.0,0.0,1.0,0.0,0.0,0.0,0.0,0.0,0.0,0.0,-0.8632820323587174,0.2276125808717435,0.44259389269939875,0.12258007669739479,-24.60316032248497,179.42598134148295,55.916617445811625,-0.0219011256252505,-0.037527634200400804,-0.004973637961923847,0.0,4.015096452170341,0.38174295883366727,-9.507580554661322,-7.209999999999999e-21,959.686916051503,12.039342766172345,-0.3325732088076153,0.0075677182384769875,-0.03128309102805612,3.793100454202405,0.3353716603947895,-8.637005873549098,-0.44380372952505015,0.06642509352505012,-0.045400841162324665,-7.209999999999999e-21,55.13223775044088,57.36425189094189,3.869136348715431,2.1478980677314627,15.335526118657315,20.082760148937876,-0.09494468770941884,1.4939219751182364,-0.1687539777995992,-24.165884514769537,15486930.565430861,6620172.0,431.6496046633266,12.196336868016031,96246.65531292585,1.1435694803747496,-1.698075631603206,1.4626898217094184,-0.04285892338276589,-0.15944093303807622,-0.08144950277354705,-0.025665313803607214,-0.8682620191302606,0.2310831096513026,0.40818708001202403,0.8726532222885771,-0.4303428870761523,0.017735895290581165,0.23013628816032064,0.5508238175330662,398713750.39238477,327393867.41543084,456161.59843507013,17.112126355811625,0.7276513466673347,17.11046764779559,-0.8638353680501001,1.5281827874048095,0.0,0.0,0.0,39.8714138,32.7364368,-4.16329537311022,255.3713882731463,-56.29982114847695,0.8107715275591183,17.652083161523052,-0.45735011399398795,1.1105139036553109,3.5906132986152306,0.7621792579819634,1.4993588323567133,56.42094592042084,-0.190826542503006,0.40389979448697394,-0.1998796341262525,0.5547476753507015,21299615.16032064,0.0,1.0,0.0,0.0,0.0
21322465.0,-0.16490934412024047,0.01656316078557114,-0.02176405940480962,0.548654847995992,0.0,1489.0,1500.0,1543.9905809539077,1579.8682224689378,1419.1317775310622,1505.8153636713428,17.29678252509018,17.6828615593988,17.399125578276553,17.425930880480962,17.81486706406814,17.34496628761523,17.73209330196393,,,187.4823369048096,187.4823369048096,12.03904053981964,-0.001689631128256513,-0.006505531170340682,0.0026587541683366733,-0.10422502926853706,0.015649653212424848,-0.09942825319038076,2.0,-1.0,0.0,11.0,0.0,0.0,1.0,0.0,0.0,0.0,0.0,0.0,0.0,0.0,-0.8630038189719438,0.2283566181943888,0.4340330301743487,0.12026998175551103,-24.170191079358716,179.23854996993987,55.92910745462926,-0.02189131967735471,-0.037458923883767536,-0.0047602860420841685,0.0,4.035480103601202,0.3421589402364729,-9.929965236216432,-7.209999999999999e-21,959.6868803641282,12.03928469002004,-0.37116502479158314,0.03113861584168336,-0.035021880863727456,3.860688208302605,0.329256606511022,-8.952427507761524,-0.4822839827354709,0.08495769873547093,-0.05536845892585171,-7.209999999999999e-21,55.25864616214429,57.42032920685371,3.87429577752505,2.1876040758757513,15.335575919378758,20.115853368016033,-0.09560555526853708,1.4509169917114229,-0.16924470411623246,-23.998129666833666,15509490.5750501,6620172.0,431.80762263527055,12.1955372553507,96244.849841503,1.1435480383226453,-1.3628262690701405,1.128124833268537,-0.29440743499799593,-0.20323146895791583,-0.057175071671342684,-0.025510936953907815,-0.866900926224449,0.23185444512224448,0.401813882513026,0.8736019543126252,-0.42973975091583166,0.019605779731462925,0.22749028950701403,0.5521888724108216,398713752.00841683,327393915.4250501,456179.8729296593,17.15289076462926,0.7384715014729458,17.147482229278555,-0.8018360184709419,1.5276418476052103,0.0,0.0,0.0,39.8714138,32.7364368,-4.1415003560360715,255.81335068757517,-56.30944787168336,0.8420633718557115,17.745275798316634,-0.45044915274348696,1.2523850959599199,3.6021724345831663,0.36506464623046103,1.4979924745531061,56.430572407955914,-0.1793302311282565,0.4056522317775551,-0.20108690838677354,0.5555815882965932,21322464.50701403,0.0,1.0,0.0,0.0,0.0
21347728.0,-0.17161439539078155,0.023071149462925856,-0.02194874407014028,0.5541658795591182,0.0,1488.620707186373,1500.0,1550.1881623366733,1582.8796065250503,1416.1203934749497,1508.603863983968,17.391994156052103,17.78021739953908,17.45729212737475,17.48417369709419,17.87443392941884,17.40218998973948,17.790618159038075,,,188.80964338557115,188.80964338557115,12.03889794519038,-0.0016875441803607214,-0.006503787448897796,0.0026524020621242488,-0.10419205725450902,0.015511165997995992,-0.09945848174348697,2.0,-1.0,0.0,11.0,0.0,0.0,1.0,0.0,0.0,0.0,0.0,0.0,0.0,0.0,-0.8627256055851703,0.22910065551703407,0.42547216764929857,0.11795988681362725,-23.737221836232465,179.0511185557114,55.941597459178354,-0.02188185009018036,-0.037389471268537075,-0.004544764851703406,0.0,4.055863755032064,0.3025749216392785,-10.352349919478959,-7.209999999999999e-21,959.6868446767535,12.039226613867735,-0.41469320968336676,0.0537045452965932,-0.043950099400801614,3.9562053539138278,0.3401266558256513,-9.36167476948497,-0.5207642355190382,0.1034903039458918,-0.06533607626252506,-7.209999999999999e-21,55.38505456957916,57.476406527034065,3.879455206761523,2.2273100844468936,15.3356257201002,20.148946591362726,-0.09626642282765531,1.407912008304609,-0.16973543043286574,-23.83037481462926,15533395.613507014,6620172.0,431.9219490995992,12.194727129278556,96243.53465424849,1.1435323997735471,-1.465408367168337,0.8292431389398794,-0.4228893094468938,-0.2442999314669339,-0.032770284569138254,-0.02823980109619239,-0.8666467627314629,0.23260717489378757,0.39272706629458914,0.8746071586553106,-0.42958085208016034,0.021923963863727455,0.22366197822244488,0.5536180902304609,398713753.6244489,327393963.81883764,456195.45670921844,17.212283350961926,0.7505852829659319,17.20105518745491,-0.7457873459338676,1.527055757781563,0.0,0.0,0.0,39.8714138,32.7364368,-4.119705338961924,256.25531310200404,-56.31907459488978,0.8733552161523046,17.83846843511022,-0.4435481919198397,1.3942562878376754,3.613731570977956,-0.03204996552104242,1.4966261163226453,56.440198891222444,-0.168736062258517,0.4085964412044088,-0.20261947035671343,0.5570659323847695,21347728.138276555,0.0,1.0,0.0,0.0,0.0
21374103.0,-0.18008817540681363,0.03034569778757515,-0.022046335088176352,0.5599443124248497,0.0,1488.1346331222448,1500.0,1555.801603206413,1586.7643582725455,1412.2356417274545,1511.7329090741487,17.50355324286573,17.894296335771543,17.515458676472946,17.542416516172345,17.934000796232468,17.459413690861723,17.849143016112222,,,190.1369498517034,190.1369498517034,12.038755350561122,-0.001685457378757515,-0.006502043581162325,0.0026460498096192385,-0.10415908548697395,0.015372678683366734,-0.09948871029659319,2.0,-1.0,0.0,11.0,0.0,0.0,1.0,0.0,0.0,0.0,0.0,0.0,0.0,0.0,-0.8624473921983967,0.22984469293987977,0.4169113052244489,0.11564979187174348,-23.304252594108217,178.86368711683363,55.95408746226453,-0.021872687865731464,-0.037319999120240484,-0.004328243088176353,0.0,4.069001969789579,0.27301693961523044,-10.758170595711423,-7.209999999999999e-21,959.687020041483,12.039165379398797,-0.4604763146853707,0.07573906107214426,-0.055326463352705406,4.050077896507014,0.3563701473567134,-9.81613987887976,-0.5587169529859719,0.12118793049899798,-0.07526422291182364,-7.209999999999999e-21,55.511462975551105,57.53248384867735,3.884614636144289,2.2670160931643286,15.335675520821644,20.182039817174346,-0.09692729028657314,1.364907024997996,-0.17022615674949898,-23.66261995995992,15558395.659358718,6620172.0,432.01543401422845,12.193910952124249,96242.45050867736,1.1435194929038075,-1.7334171409278558,0.5959234078416833,-0.5141300461883764,-0.2844016802044088,-0.008066172268537095,-0.03236663368537074,-0.8669109926593186,0.233348196501002,0.38232548512424847,0.8756385456172344,-0.42962534778356715,0.024459746424849698,0.21925863334468937,0.555054444759519,398713755.24048096,327394012.44448894,456209.4866855711,17.282433053887775,0.7634460883206413,17.26419002513026,-0.6931749798577154,1.5264435954088176,0.0,0.0,0.0,39.8714138,32.7364368,-4.097701069182365,256.69443073687376,-56.32875391428858,0.9062437744769538,17.930431483727453,-0.44036585729458916,1.542578990490982,3.616937559222445,-0.4183085345871741,1.4951365634569138,56.449877969218434,-0.15842794541282565,0.4121548292204409,-0.2044557499759519,0.5587981480961924,21374102.56713427,0.0,1.0,0.0,0.0,0.0
21398856.0,-0.1755804223006012,0.03198802404008016,-0.021380343360721442,0.5624052599198397,0.0,1488.2906118637275,1500.0,1561.188376753507,1591.1520900240482,1407.8479099759518,1515.909302212425,17.60262911172345,17.995495408156312,17.573625225571142,17.6006593352505,17.993567657314628,17.516637386252505,17.907667873186373,,,191.4642563751503,191.4642563751503,12.038612755931863,-0.001683370004008016,-0.006500300286573147,0.002639698130260521,-0.10412611371943888,0.015234190795591181,-0.09951893884969941,2.0,-1.0,0.0,11.0,0.0,0.0,1.0,0.0,0.0,0.0,0.0,0.0,0.0,0.0,-0.8621691788116232,0.23058873093587176,0.4083504433727455,0.11333969692985972,-22.87128335771543,178.6762556779559,55.96657747108217,-0.021864172723446894,-0.03725286712825651,-0.004113163360721443,0.0,4.040696286775551,0.30080788678957915,-11.069245146092184,-7.209999999999999e-21,959.6884026242485,12.039086079358718,-0.5028522495310621,0.0980533994769539,-0.06356502444288577,4.042289776074148,0.3472462579138276,-10.219335778871743,-0.5936521698517034,0.13410947913226454,-0.08496659863927856,-7.209999999999999e-21,55.63787138725451,57.58856116458918,3.889774064953908,2.306722101308617,15.335725321543086,20.215133042985972,-0.09758815717234469,1.3219020422645291,-0.17071688306613225,-23.494865105290582,15585216.384649297,6620172.0,432.1340226218437,12.193094889599198,96241.06846458917,1.1435030416973948,-1.501466018523046,0.6197526678977956,-0.7988527111342685,-0.32796510301803605,0.01791950144689379,-0.034966216531062126,-0.8664841359699399,0.23408370386773547,0.37336679859919836,0.87663316352505,-0.42936590056913826,0.02675941391983968,0.215471391501002,0.556319684743487,398713756.856513,327394061.12745494,456223.5166046092,17.352582756813625,0.7763068936753508,17.327324862805614,-0.6405626137815631,1.525831433036072,0.0,0.0,0.0,39.8714138,32.7364368,-4.074499873927856,257.1172762326653,-56.338734083907816,0.9482655370420842,18.015361287975953,-0.4584540631142285,1.7278043361903808,3.5723635386372745,-0.742470539492986,1.4929423386873748,56.45985790316633,-0.14677618050701402,0.41528977790180366,-0.20695483717434868,0.5597997513026052,21398856.138276555,0.0,1.0,0.0,0.0,0.0
21425410.0,-0.17800035904008016,0.037505817687374765,-0.021257629238476954,0.5646982200400802,0.0,1488.6366473827654,1500.0,1563.8937875751503,1591.9907745410821,1407.0092254589179,1518.0673871503006,17.69863594196393,18.09361967252505,17.63179177466934,17.658902154328658,18.053134522865733,17.573861086112224,17.966192734729457,,,192.7915628985972,192.7915628985972,12.038470161302605,-0.0016812830761523045,-0.00649855654509018,0.002633346004008016,-0.10409314150501002,0.015095703354709418,-0.09954916740280562,2.0,-1.0,0.0,11.0,0.0,0.0,1.0,0.0,0.0,0.0,0.0,0.0,0.0,0.0,-0.8618909654248497,0.23133276848496995,0.3997895810741483,0.11102960154108216,-22.438314116853707,178.48882428376754,55.97906747543086,-0.021856510701402803,-0.037184907935871744,-0.0038924098697394787,0.0,4.000510217983968,0.3450385856813628,-11.35315959246493,-7.209999999999999e-21,959.6901313262525,12.039001595350701,-0.5483303186072145,0.1167252755450902,-0.07330123342284571,4.046864854294589,0.3609881310901804,-10.594480834649298,-0.627722384018036,0.14566190876352708,-0.09460425476152305,-7.209999999999999e-21,55.76427979448898,57.644638484969946,3.894933494210421,2.3464281098997994,15.335775122264529,20.248226268797595,-0.09824902450501002,1.2788970590841684,-0.17120760982965932,-23.327110250621242,15609197.868577154,6620172.0,432.23539017735476,12.192292801442886,96239.89584386774,1.1434891109719438,-1.62814069543487,0.7360344665230463,-0.7066142316452902,-0.3686964110841684,0.041835078228456946,-0.037785831108216435,-0.8656539670220441,0.23480448653106215,0.365184817498998,0.8776210748977956,-0.42893023374949896,0.02892561390380762,0.21201178224048095,0.5576675813086173,398713758.51723444,327394109.76573145,456237.54656833666,17.422732464208416,0.7891676990300601,17.390459700480964,-0.5879502477054108,1.5252192706633267,0.0,0.0,0.0,39.8714138,32.7364368,-4.050955566136272,257.53545709579157,-56.34880049955912,0.9929054411623247,18.098274930901805,-0.4826397212885772,1.9236082624889783,3.5140928115751504,-1.0488318277034072,1.490546111222445,56.46992408314629,-0.1372547194068136,0.41880417650100205,-0.2089842720721443,0.5616388513426853,21425409.79759519,0.0,1.0,0.0,0.0,0.0
21451907.0,-0.18085646961322646,0.044329469430861725,-0.02144180588777555,0.5666441668537074,0.0,1489.0,1500.0,1565.1505470941884,1590.9073109418837,1408.0926890581163,1519.3617076553105,17.80075712777555,18.1980449401002,17.689958323767534,17.71714497220441,18.112701389478957,17.63108478703407,18.024717597334668,,,194.11886942204407,194.11886942204407,12.038327566673347,-0.001679196254509018,-0.00649681269739479,0.002626993771543086,-0.10406016918436874,0.01495721614028056,-0.09957939583567134,2.0,-1.0,0.0,11.0,0.0,0.0,1.0,0.0,0.0,0.0,0.0,0.0,0.0,0.0,-0.8616127519178357,0.2320768059278557,0.3912287185490982,0.10871950604609218,-22.00534487492986,178.3013929002004,55.99155747871743,-0.021849346509018035,-0.037116017835671346,-0.0036662814128256517,0.0,3.9543040435150303,0.39759974172144286,-11.623311295551103,-7.209999999999999e-21,959.6920354040079,12.038914484488979,-0.5951553992084168,0.13374002314428857,-0.08342800406012024,4.048345250887776,0.38369671311823644,-10.96975166286573,-0.6613542784308617,0.15652056957314628,-0.1042091156272545,-7.209999999999999e-21,55.88912122310621,57.70079251983968,3.8998904321102206,2.3848238848897796,15.335823803547095,20.27885044771543,-0.09886053370741482,1.236872937761523,-0.17169136178957917,-23.15923545486974,15632122.594509019,6620172.0,432.3381180795592,12.191494048977955,96238.71136835671,1.1434750525511022,-1.8396219067535071,0.7750396706513029,-0.44716268714028073,-0.40857932606613223,0.0645354984769539,-0.04229941621442885,-0.8646823756953907,0.2355110107234469,0.3572465585971944,0.8786038157875752,-0.42842696005010017,0.031046013591182364,0.2086506547214429,0.5590760597855712,398713760.1885771,327394158.38136274,456251.5765547094,17.492882172665333,0.8020285043847696,17.45359453935872,-0.5353378815090182,1.5246071082905812,0.0,0.0,0.0,39.8714138,32.7364368,-4.027237394144288,257.95127427815635,-56.35891061835672,1.0388720268777556,18.180166931543088,-0.5099151200140281,2.1247726354589176,3.4488816010821646,-1.3461730219238475,1.4880475236472945,56.48003396507014,-0.1287281986452906,0.42227008900601204,-0.21076332480961923,0.5637213375951904,21451906.831663325,0.0,1.0,0.0,0.0,0.0
21473947.0,-0.16957093864729458,0.04812657984368738,-0.021771331659318636,0.567385421234469,0.0,1489.0,1500.0,1565.9936108216434,1589.254588216433,1409.745411783567,1521.38727052505,17.93815809931864,18.338622020661322,17.74812487286573,17.7753877845491,18.17226825056112,17.688308482424848,18.08324245440882,,,195.44617594549098,195.44617594549098,12.038184972044087,-0.001677108879759519,-0.006495069402805611,0.0026206420921843685,-0.10402719741683367,0.014818728925851702,-0.09960962371543086,2.0,-1.0,0.0,11.0,0.0,0.0,1.0,0.0,0.0,0.0,0.0,0.0,0.0,0.0,-0.8613345378577154,0.2328208439238477,0.3826678560240481,0.10640941110420842,-21.572375638537075,178.11396146132267,56.00404748753507,-0.021842483759519037,-0.03704477371543086,-0.003428653324649299,0.0,3.9080978695991986,0.45016089776152307,-11.893462998637274,-7.209999999999999e-21,959.6939394264529,12.038827373627255,-0.6409458387755511,0.15162234715230463,-0.09186042839679359,4.006772216659319,0.39435339618036075,-11.410985926913828,-0.6949861728436874,0.16737923038276553,-0.11381397593987976,-7.209999999999999e-21,56.006754560501,57.757299430941885,3.9039159087274546,2.417192584272545,15.335867335410823,20.298117010921846,-0.09924499446893788,1.1993607820260521,-0.17214302861122247,-22.99080893014028,15656804.33975952,6620172.0,432.48724484509023,12.19067806725451,96236.98420715431,1.1434545316372746,-1.605277344573146,0.24307106229859698,-0.29720549592585166,-0.45116112723647295,0.08647147394789581,-0.054092384615230464,-0.8640003387895792,0.2361862683747495,0.34861896674148296,0.879578404997996,-0.42802345233066136,0.03326683690180361,0.20497885076152306,0.5605705473847695,398713761.80460924,327394206.99699396,456265.6065410822,17.563031875591182,0.814889309739479,17.516729383767533,-0.482725514759519,1.5239949459178357,0.0,0.0,0.0,39.8714138,32.7364368,-4.003519222152304,258.3670915158317,-56.36902073715431,1.0848386125931864,18.262058932184367,-0.5371905192925851,2.3259370084288578,3.3836703911422847,-1.6435142166973948,1.4855489360721443,56.49014384146293,-0.11981278945891784,0.4246284898396794,-0.21248535174348696,0.5649712441282565,21473947.488977958,0.0,1.0,0.0,0.0,0.0
21501263.0,-0.15701432450901806,0.05002721780761523,-0.02171810987174349,0.5677196951222445,0.0,1489.0,1500.0,1567.0682270541083,1583.8663940821643,1415.1336059178357,1522.9382399438878,18.024443750320643,18.426734589278556,17.806291421963927,17.833630601563126,18.231835116312624,17.74553218248497,18.141767311482965,,,196.77348242224448,196.77348242224448,12.038042377414829,-0.0016750219719438878,-0.006493325641282565,0.0026142899458917834,-0.1039942256492986,0.014680241711422848,-0.09963985206212425,2.0,-1.0,0.0,11.0,0.0,0.0,1.0,0.0,0.0,0.0,0.0,0.0,0.0,0.0,-0.861056324264529,0.2335648814529058,0.3741069939659319,0.10409931616232465,-21.13940639747495,177.9265300691383,56.016537496352704,-0.02183814665531062,-0.03698008441282565,-0.0032203883727454914,0.0,3.844036743190381,0.4738233701102204,-12.124296059118235,-7.209999999999999e-21,959.6895008527054,12.038726562925852,-0.6749259075711422,0.1628376385771543,-0.1034500363527054,3.9597751492825655,0.4352323126633266,-11.771496341723445,-0.7047768110581162,0.17510227991783564,-0.12217220874148296,-7.209999999999999e-21,56.120895013106214,57.81397734723447,3.9074900199859717,2.4466406921583164,15.335908373847696,20.311879918016032,-0.09951943253707415,1.164035028250501,-0.1725791484028056,-22.822115048416833,15682188.498296592,6620172.0,432.613726998998,12.189876233627254,96235.52945050101,1.1434372278977956,-1.7240236845390777,0.3072314037254505,-0.1864602001643288,-0.48631244447494987,0.10403009149298595,-0.06336294404408817,-0.8630615830440882,0.23683964363727453,0.3404531771503006,0.8805514430541083,-0.42750471980761523,0.03540110047895791,0.201496907248497,0.5622159106553106,398713763.4206413,327394255.6593186,456279.6364807615,17.633181578517032,0.8277501150941884,17.579864223507013,-0.430113148476954,1.5233827835450902,0.0,0.0,0.0,39.8714138,32.7364368,-3.9746868416412826,258.8095358907816,-56.38232629452906,1.148501828468938,18.33937127813627,-0.5817100062324648,2.557161347362725,3.254326396735471,-1.8741737396132263,1.481988655747495,56.503449609358725,-0.11297188246492987,0.42680247560921847,-0.21420893963727455,0.566225978757515,21501262.631262526,0.0,1.0,0.0,0.0,0.0
21529837.0,-0.14535353802004009,0.051288805446893786,-0.021716932188376753,0.567658777755511,0.0,1489.0,1500.0,1567.8597194388778,1577.3880193807615,1421.6119806192385,1524.2805611222445,18.097757797214427,18.501567183627255,17.864457971062123,17.891873420641282,18.29140198272545,17.80275588460922,18.20029216995992,,,198.10078889238477,198.10078889238477,12.037899782785571,-0.001672935130260521,-0.006491581813627255,0.0026079377334669337,-0.10396125374148296,0.01454175435671343,-0.09967008061523047,2.0,-1.0,0.0,11.0,0.0,0.0,1.0,0.0,0.0,0.0,0.0,0.0,0.0,0.0,-0.8607781108777555,0.2343089187755511,0.36554613197394786,0.10178922108016032,-20.7064371557515,177.73909868356714,56.02902750376754,-0.02183461798196393,-0.03691706429659319,-0.0030186771583166332,0.0,3.7715004732264528,0.483768612254509,-12.336465886012023,-7.209999999999999e-21,959.6820516547094,12.03861924997996,-0.6990547034909819,0.17044062876152305,-0.11650368317835672,3.90610243246493,0.46052446613426856,-12.072569578837674,-0.7032508093466933,0.18133696060320642,-0.12993870944288577,-7.209999999999999e-21,56.23349140076152,57.87073085809619,3.9108646006352705,2.4747977231162324,15.33594831004008,20.323209877014026,-0.09974523410420842,1.129675795513026,-0.1730083954729459,-22.653302978837676,15707515.33044088,6620172.0,432.7267745553106,12.189076410821643,96234.23416152305,1.143421820210421,-1.843768915509018,0.5516163508436873,-0.13136613761122243,-0.5204416979218437,0.11988617263527053,-0.07194388357915832,-0.8620152336492987,0.2374771248276553,0.33242849220841686,0.8815239288136273,-0.4269323546653307,0.03750611682765531,0.19806833095591184,0.5639537384549098,398713765.14889777,327394304.8893787,456292.9062194389,17.7072408852505,0.8460408609899799,17.64864620246493,-0.39009825187975955,1.5225128442785572,0.0,0.0,0.0,39.8714138,32.7364368,-3.9434269188036075,259.2646192847696,-56.39714861973948,1.220565037731463,18.414509815691382,-0.634414679751503,2.8026541381322647,3.0945407331122246,-2.0731817224348696,1.4779244256993986,56.51827235793587,-0.10589501000801603,0.4288968055531062,-0.2157369789519038,0.5677312929859719,21529836.54709419,0.0,1.0,0.0,0.0,0.0
21554334.0,-0.13923209811623247,0.05330774999198397,-0.02255647229258517,0.566779790981964,0.0,1489.0,1500.0,1567.1863727454909,1573.0419092084169,1425.9580907915831,1525.627254509018,18.207644711843685,18.614067249038076,17.92262452016032,17.95011623971944,18.350968843807614,17.859979586733466,18.258817033767535,,,199.42809541583165,199.42809541583165,12.037757188156313,-0.001670847755511022,-0.006489838519038076,0.0026015860541082165,-0.1039282813006012,0.014403266468937876,-0.09970030916833666,2.0,-1.0,0.0,11.0,0.0,0.0,1.0,0.0,0.0,0.0,0.0,0.0,0.0,0.0,-0.860499897490982,0.23505295609819638,0.35698526944889775,0.09947912546492986,-20.27346791935872,177.55166724468938,56.0415175058517,-0.021829918695390783,-0.03684937612024048,-0.0027925451182364727,0.0,3.6967519127134265,0.4901332070761523,-12.543763994869739,-7.209999999999999e-21,959.6738165573146,12.038510241883767,-0.7055880578476954,0.1755163444168337,-0.12981715123446894,3.836173692296593,0.37581875637875745,-12.283383749258517,-0.6987707934108217,0.1871831282985972,-0.13755074836873749,-7.209999999999999e-21,56.34608778841683,57.92748436895792,3.914239181284569,2.5029547540741484,15.335988246232464,20.33453983068136,-0.09997103620440882,1.095316562775551,-0.17343764254308616,-22.48449090925852,15731444.388557114,6620172.0,432.82680970080156,12.18826046276553,96233.08725683366,1.1434082132204408,-1.374177833152304,0.47946050369338666,-0.22187750854509025,-0.5631690463466934,0.13662582528456915,-0.08214148155911824,-0.860991271965932,0.23809096720040082,0.32416425640881763,0.8824969215190381,-0.42634974345891785,0.039645399200400805,0.1945236171442886,0.5657894862384769,398713767.30360717,327394356.19839674,456303.2872727455,17.796156686452907,0.8849653809418838,17.738887318296594,-0.39795373930260525,1.5206633528156313,0.0,0.0,0.0,39.8714138,32.7364368,-3.911533327460922,259.7230019316633,-56.412366874488974,1.294820921242485,18.489080915010017,-0.6892559553587174,3.0518714635671347,2.926808794450902,-2.2639276141222444,1.473728648256513,56.53349108402806,-0.09443666124649297,0.43099822900801604,-0.2165193115210421,0.5701806993186372,21554333.57314629,0.0,1.0,0.0,0.0,0.0
21576883.0,-0.13433005899599199,0.05337125454509018,-0.02268551497194389,0.5661554721042084,0.0,1488.5130260521041,1500.0,1566.5130260521041,1569.4825166492985,1429.5174833507015,1526.0,18.245692309298597,18.652947430601202,17.980791069258515,18.008359053927855,18.410535704889778,17.917203283987977,18.31734189270541,,,200.75540193927856,200.75540193927856,12.037614593527055,-0.001668760867735471,-0.00648809473747495,0.002595233887775551,-0.10389530934669339,0.014264779068136273,-0.09973053772144289,2.0,-1.0,0.0,11.0,0.0,0.0,1.0,0.0,0.0,0.0,0.0,0.0,0.0,0.0,-0.8602216841042084,0.23579699390781564,0.3484244069238477,0.09716903033667335,-19.840498678096193,177.36423585450902,56.05400751280561,-0.02182562116232465,-0.036779102112224446,-0.002576037631262525,0.0,3.6208304379499,0.4941741078236473,-12.7432750202004,-7.209999999999999e-21,959.6661054925852,12.038398935270541,-0.7029547626492986,0.18242990023847697,-0.1352357898557114,3.7457751882525048,0.3618451213927856,-12.489302351102204,-0.6938829431242486,0.19272814594789578,-0.1451595289519038,-7.209999999999999e-21,56.45868417607215,57.9842378749499,3.9176137619338682,2.5311117850320644,15.336028177555109,20.345869789218437,-0.10019683781763528,1.0609573305250501,-0.17386688961322644,-22.31567883967936,15755729.599939879,6620172.0,432.95123556953905,12.187459221322646,96231.65475166333,1.1433912256573147,-0.5479427922685377,0.09204390042685406,-0.3621863980881762,-0.5997568575751503,0.15229991660320638,-0.09092548571943887,-0.8598865836372745,0.23869455195390782,0.3159983576933868,0.8834668969338677,-0.4257240701202405,0.0417619656993988,0.1910137161262525,0.5676465293927856,398713769.50701404,327394407.7995992,456313.347848497,17.886720753246493,0.9261791357174348,17.83150924002004,-0.41112025225651305,1.5187051843507013,0.0,0.0,0.0,39.8714138,32.7364368,-3.879351523509018,260.17983960501,-56.42781408490982,1.369992220815631,18.562431146292585,-0.7444176379098196,3.3000433786533065,2.757992039995992,-2.4464353602284565,1.4694970806633267,56.54893876092184,-0.08409047430060121,0.4338046426993988,-0.21801313494188376,0.5725539331863727,21576882.703406814,0.0,1.0,0.0,0.0,0.0
21598686.0,-0.1302762924228457,0.05322833032865732,-0.022717836799599204,0.5653671695791582,0.0,1488.0,1500.0,1565.6793587174348,1566.6793587174348,1432.3206412825652,1526.1603206412826,18.281470855511024,18.689465284228458,18.038957618356715,18.06660186787575,18.47010256757515,17.974426980981963,18.375866749779558,,,202.08270846272546,202.08270846272546,12.037471998897795,-0.0016666740060120241,-0.006486350769539078,0.0025888816953907818,-0.10386233757915832,0.014126291853707415,-0.09976076627454909,2.0,-1.0,0.0,11.0,0.0,0.0,1.0,0.0,0.0,0.0,0.0,0.0,0.0,0.0,-0.8599434707174348,0.23654103174348698,0.3398635445591182,0.09485893539478957,-19.407529436573146,177.17680446693387,56.066497520020036,-0.021821699270541083,-0.03670837826452906,-0.0023614768617234464,0.0,3.5395569329238477,0.48761194413627246,-12.907253420521041,-7.209999999999999e-21,959.6607855567133,12.038277134549098,-0.6967255366132264,0.18928873191783568,-0.1391860918677355,3.6567981950020036,0.37803299047495,-12.672022516232463,-0.6871341375450901,0.19689901116633268,-0.15275344055110224,-7.209999999999999e-21,56.57128056372746,58.04099138068136,3.920988342583167,2.5592688158296597,15.336068108617233,20.35719974961924,-0.10042263924448898,1.0265980983006011,-0.1742961365230461,-22.146866770100203,15780213.076012025,6620172.0,433.08140608336674,12.18665877466934,96230.15398789578,1.1433734371202404,0.18037649161122238,-0.22294034140080074,-0.4232392445170333,-0.6333534285410822,0.1649855064709419,-0.099306232492986,-0.8587065996052105,0.23929360654308618,0.3079196728356713,0.8844343994268536,-0.4250590690781563,0.04386164832865732,0.18753599687975953,0.5694745417054108,398713771.7290581,327394459.4965932,456323.28575631266,17.97791563773547,0.9682690172404811,17.925042335971945,-0.42631938008016035,1.5167054234529056,0.0,0.0,0.0,39.8714138,32.7364368,-3.8458545996132263,260.6296277797595,-56.444306045791585,1.4493405833647295,18.630210535791583,-0.8010413438176355,3.543445067599199,2.584225249647294,-2.591352281174349,1.4651022003747496,56.56543113190381,-0.07473059101402804,0.43660850883166336,-0.2197382187735471,0.5746227761523046,21598686.34268537,0.0,1.0,0.0,0.0,0.0
21620490.0,-0.1274436083987976,0.054819644509018044,-0.023310791957915834,0.5637422298116233,0.0,1488.0,1500.0,1564.3326653306613,1565.3326653306613,1433.6673346693387,1526.8336673346694,18.397969428657316,18.808585323987977,18.097124167454908,18.124844686953907,18.529669435390783,18.03165068310621,18.43439160685371,,,203.41001498617237,203.41001498617237,12.037329404268537,-0.0016645866312625251,-0.006484606801603207,0.002582530016032064,-0.10382936581162325,0.013987804639278557,-0.09979099482765531,2.0,-1.0,0.0,11.0,0.0,0.0,1.0,0.0,0.0,0.0,0.0,0.0,0.0,0.0,-0.8596652573306613,0.23728506906613225,0.3313026827074148,0.0925488404529058,-18.97456020018036,176.98937302805612,56.078987522104214,-0.021818487406813625,-0.0366393817755511,-0.002141358480961924,0.0,3.442593389004008,0.4499657823086172,-12.967064194709419,-7.209999999999999e-21,959.6624754549098,12.038124567655311,-0.6902156483887775,0.19372165937274552,-0.14810644611222445,3.597439179210421,0.4041127118697395,-12.786503244408816,-0.6749297462344689,0.19704140446492988,-0.16030376186573148,-7.209999999999999e-21,56.683876951382764,58.09774489154309,3.924362923232465,2.5874258461142285,15.33610804480962,20.368529710020038,-0.10064844067134268,0.9922388655631262,-0.17472538291983966,-21.978054700521046,15804894.821262525,6620172.0,433.200088353507,12.18584286028056,96228.78456905812,1.1433572256252504,0.1585865791783567,0.07995609691583205,-0.1696861622885768,-0.6648970688136273,0.1694128754488978,-0.10812777176352706,-0.8573845345470942,0.2398907270240481,0.299999639745491,0.8853976838196392,-0.42432095720641283,0.04593512250901804,0.1841186243747495,0.5711835750681362,398713773.9511022,327394511.1422846,456333.2236128256,18.06911052222445,1.010358898250501,18.018575437054107,-0.44151850841683365,1.5147056625551103,0.0,0.0,0.0,39.8714138,32.7364368,-3.8085022633887777,261.0587496747495,-56.46386080811624,1.5409344452965932,18.681658418116232,-0.8619511248517034,3.7728623379158317,2.3959469089659318,-2.6260677473066134,1.4602285513486974,56.5849861298998,-0.06716482447294589,0.4385408273246493,-0.2213319792224449,0.575810855991984,21620489.98196393,0.0,1.0,0.0,0.0,0.0
21642293.0,-0.12500257851503008,0.05634551737474949,-0.02405394140280561,0.5621238802124249,0.0,1487.7340686072143,1500.0,1562.9859719438878,1563.4789579158316,1435.5210420841684,1527.2410826352705,18.40408396490982,18.814959528757516,18.155290716553107,18.183087506032063,18.589236298136274,18.08887438016032,18.492916463927855,,,204.73732145891785,204.73732145891785,12.037186809639278,-0.001662499763527054,-0.006482863340681363,0.002576177829659319,-0.10379639353707415,0.013849317424849699,-0.09982122338076152,2.0,-1.0,0.0,11.0,0.0,0.0,1.0,0.0,0.0,0.0,0.0,0.0,0.0,0.0,-0.8593870439438879,0.23802910638877756,0.3227418203486974,0.09023874551102204,-18.541590958717435,176.80194163987974,56.09147752925852,-0.02181657451302605,-0.036574041871743485,-0.001923508480961924,0.0,3.345629845591182,0.41231961997394795,-13.026874973967937,-7.209999999999999e-21,959.6641653024049,12.037972005831662,-0.6796565286272545,0.19162381214228458,-0.15628392796593188,3.477573138210421,0.40939215589178357,-12.902561222244488,-0.6627253554308616,0.19718379776352704,-0.1678540831803607,-7.209999999999999e-21,56.79647333903807,58.15449840240481,3.9277375038817635,2.615582876905812,15.336147981002004,20.379859670420842,-0.10087424260521041,0.9578796328256513,-0.17515462982364727,-21.809242636012026,15830560.777074149,6620172.0,433.36136776212425,12.185042328697394,96226.93532735472,1.1433352260581162,0.3033627744629258,0.3760256156813626,-0.13128219268336672,-0.688751456527054,0.18018015469539078,-0.11996427147294587,-0.8561395259879759,0.24047429451302604,0.29173540091583167,0.8863648848957916,-0.42359897192985974,0.04806245070541082,0.18054252250901803,0.5729048360881764,398713776.1731463,327394562.83867735,456343.16152004007,18.160305406713427,1.052448779260521,18.11210853306613,-0.456717636246493,1.5127059016573146,0.0,0.0,0.0,39.8714138,32.7364368,-3.7711499276713427,261.4878715190381,-56.483415575511025,1.632528306721443,18.733106295370742,-0.9228609058857715,4.002279607725451,2.207668568791583,-2.6607832129318636,1.4553549023226453,56.60454113296593,-0.05923822416032065,0.4408010393947896,-0.22265539320040081,0.5779598136072145,21642293.114228457,0.0,1.0,0.0,0.0,0.0
