,timestamp,control[0],control[1],control[2],control[3],control[4],output[2],output[3],output[4],output[5],output[6],output[7],indicated_airspeed_m_s,equivalent_airspeed_m_s,true_airspeed_m_s,equivalent_ground_minus_wind_m_s,true_ground_minus_wind_m_s,indicated_airspeed_m_s.1,true_airspeed_m_s.1,differential_pressure_raw_pa,differential_pressure_filtered_pa,temperature,gyro_bias[0],gyro_bias[1],gyro_bias[2],accel_bias[0],accel_bias[1],accel_bias[2],nav_roll,nav_pitch,nav_bearing,target_bearing,xtrack_error,wp_dist,acceptance_radius,rollspeed_integ,pitchspeed_integ,yawspeed_integ,additional_integ1,x,y,z,temperature.1,pressure,temperature.2,gyro_rad[0],gyro_rad[1],gyro_rad[2],accelerometer_m_s2[0],accelerometer_m_s2[1],accelerometer_m_s2[2],timestamp_sample,x.1,y.1,z.1,temperature.3,altitude_sp,altitude_filtered,height_rate_setpoint,height_rate,airspeed_sp,airspeed_filtered,airspeed_derivative_sp,airspeed_derivative,throttle_integ,pitch_integ,timestamp_sample.1,baro_alt_meter,baro_temp_celcius,baro_pressure_pa,rho,roll_body,pitch_body,yaw_body,q_d[0],q_d[1],q_d[2],q_d[3],thrust_body[0],xyz[0],xyz[1],xyz[2],xyz[0].1,xyz[1].1,xyz[2].1,lat,lon,alt,vel_m_s,vel_n_m_s,vel_e_m_s,vel_d_m_s,cog_rad,ref_lat,ref_lon,x.2,y.2,z.2,vx,vy,vz,ax,ay,az,dist_bottom,roll,pitch,yaw,thrust_body[0].1,isTakeoff,isClimbing,isDescending,isCruise,isLand
304,43800433,-0.035993076,-0.023901093999999998,-0.004870024000000001,0.59860474,0.0,1497.0,1500.0,1597.841768,1518.0,1481.0,1484.683537,20.24411141,20.25271983,20.69368749,20.33780288,20.78062334,19.98197188,20.41259352,248.4901608,248.4901608,12.13880475,-0.001399882,-0.005791502,0.001314759,-0.158155593,0.004714245,-0.038303265,-0.052468365999999995,0.22018080899999998,1.507878219,1.558574704,3.571563563,331.2335016,58.11569239,-0.021228057,-0.023535536,-0.007041261,0.0,2.360614114,0.42889223,-9.507275579,1.27e+18,961.4382103,12.13866815,-0.002586226,-0.027252516,0.007457593,2.67620021,0.329250842,-9.536613295,43830483.7,-0.008171295,-0.014905343,0.015089769,6.87e+18,49.79536289999999,52.11059938,3.8842024719999997,4.669265548,15.33144435,20.67102129,-0.10679153400000001,-0.08486394,-0.11686196800000001,-23.91409992,14489688.34,399.52761749999996,12.404602,96617.32247999999,1.147973665,-0.059835595,0.22088915899999997,1.504434633,0.7231493529999999,-0.096984196,0.06013004,0.6811999959999999,0.5619126289999999,-0.5408965029999999,0.278132539,0.538469333,0.003770414,0.008363742,0.00033951699999999995,398714138.0,327364371.9,400121.5191,0.0,-0.00879776,0.012404481,0.004808962,2.290596444,39.871413700000005,32.7364371,0.015997424,0.008445494,-0.068304728,0.002232176,0.006368937,0.005317367,-0.036112612999999995,0.06385339400000001,0.069516493,0.10009253800000001,-0.066133376,0.006008693000000001,-0.00516906,0.56270224,0,1,0,0,0
305,43836500,-0.036829757000000005,-0.032610661,-0.005088575,0.59788775,0.0,1497.0,1500.0,1597.0,1516.0,1483.0,1484.0,20.24916371,20.25795732,20.69919765,20.34325483,20.78635324,20.00379396,20.43519431,248.4358574,248.4358574,12.13768768,-0.001399984,-0.005792316,0.0013146120000000002,-0.15817013300000002,0.004743481,-0.038180779,-0.05226196599999999,0.220443759,1.5083703640000001,1.558639041,3.542626757,330.5123711,58.10931848,-0.021257809,-0.023540847,-0.007080174,0.0,2.516372521,0.433478894,-9.366256287999999,3.71e+18,961.4201320000001,12.13760374,0.003827759,-0.047247263,0.011839135,2.685909622,0.348753909,-9.322398284,43866070.81,0.000568224,-0.033677228999999996,0.015333413999999998,6.87e+18,49.96243483,52.26703888,3.884734098,4.66909445,15.33155777,20.66807394,-0.106730319,-0.08776111,-0.11758394300000001,-23.66887923,14531562.31,399.60463050000004,12.404602,96616.43437999999,1.147963055,-0.060455614000000005,0.221132695,1.504407195,0.723116333,-0.097289901,0.060008797999999995,0.6812021979999999,0.561610984,0.065744307,0.166179667,-0.202485948,-0.002831652,0.005047614000000001,-0.000790949,398714138.0,327364372.0,400121.6535,0.0,-0.009133826999999999,0.009133826999999999,0.003464693,2.63949471,39.871413700000005,32.7364371,0.015678116000000002,0.00823128,-0.067263968,0.002335082,0.007434716,0.006681503,-0.011731658999999998,0.071178751,0.042553020999999996,0.100052398,-0.066856022,0.00620263,-0.005286841,0.5622026999999999,0,1,0,0,0
306,43872567,-0.033454201,-0.031359437999999996,-0.005197369,0.59723014,0.0,1497.0,1500.0,1596.0,1516.0,1483.0,1484.0,20.25421602,20.26319481,20.70470781,20.34870678,20.79208313,20.08368552,20.51671425,248.38155409999996,248.38155409999996,12.13657062,-0.001400086,-0.00579313,0.001314464,-0.158184673,0.004772717,-0.038058293,-0.052055567000000004,0.22070671,1.508862509,1.5587033769999998,3.5136899510000004,329.79124060000004,58.10294457,-0.021288294,-0.023548741,-0.0071181809999999995,0.0,2.672130928,0.43806555700000005,-9.225236997,6.16e+18,961.4020537999999,12.13653933,0.016059101,-0.049782177000000004,0.01271336,2.604085461,0.398890429,-9.128778909,43901657.93,0.009307744,-0.052449115,0.01557706,6.87e+18,50.12950686,52.42359328,3.8852599789999998,4.668381934,15.33168464,20.66465642,-0.106659434,-0.090622286,-0.11830297199999999,-23.42314034,14573436.29,399.61644210000003,12.404602,96616.32467999999,1.14796175,-0.049186517,0.221371793,1.511689932,0.7211573609999999,-0.09352705900000001,0.063592904,0.6834769,0.561341627,-0.250590238,-0.174447674,-0.633637085,-0.00010447700000000001,0.012142401,-0.002426007,398714138.0,327364372.0,400120.8262,0.0,-0.007065413,0.007065413,0.011738348000000001,3.202231204,39.871413700000005,32.7364371,0.015358809,0.008017067,-0.06622320799999999,0.002437988,0.008500494,0.008045638,0.012649296,0.078504108,0.015589549,0.100012259,-0.066677875,0.006177006,-0.00553663,0.56196773,0,1,0,0,0
307,43904635,-0.034357588,-0.030212527000000003,-0.004877405,0.596273195,0.0,1497.0,1500.0,1594.0,1518.0,1481.0,1485.0,20.25926833,20.26843229,20.71021796,20.35415873,20.79781302,20.07339632,20.50654757,248.32725069999998,248.32725069999998,12.13545355,-0.001400188,-0.0057939440000000005,0.001314316,-0.158199214,0.004801952,-0.037935807,-0.051849168,0.220969661,1.509354655,1.558767714,3.484753145,329.0701102,58.09657065,-0.021317573,-0.02355552,-0.007144602,0.0,2.674089252,0.43460545,-9.099566696,6.87e+18,961.3853134999999,12.13530553,0.021393113999999998,-0.050523356,0.01333658,2.6491008,0.43302923,-8.964507000000001,43937245.05,0.011749077,-0.054821471,0.016192885,6.87e+18,50.29657888,52.58014768,3.88578586,4.667669418,15.33181151,20.6612389,-0.106588549,-0.093483463,-0.119022001,-23.17740145,14615310.26,399.57050380000004,12.404602,96616.82234,1.147967696,-0.049787541,0.221609986,1.5116618919999998,0.7211271929999999,-0.09382379699999999,0.06347516,0.6834790079999999,0.561079888,0.34075058799999997,-0.5043346679999999,-0.274720052,0.000136697,0.002454724,-0.001446732,398714138.0,327364372.0,400119.9988,0.0,-0.004996999,0.004996999,0.020012002,3.7649676989999996,39.871413700000005,32.7364371,0.015109321,0.007965451,-0.065437544,0.003127719,0.008944614,0.008863316999999999,0.025657388,0.058108781,0.021417982000000002,0.1,-0.066933616,0.006373441999999999,-0.0058153219999999995,0.56155944,0,1,0,0,0
308,43941403,-0.036811469,-0.028642742000000002,-0.00511978,0.59452087,0.0,1497.0,1500.0,1593.0,1518.0,1481.0,1486.0,20.26432064,20.27366978,20.71572812,20.35961067,20.80354291,20.1343018,20.56883273,248.2729474,248.2729474,12.13433648,-0.0014002910000000001,-0.0057947580000000005,0.0013141679999999999,-0.158213754,0.004831188,-0.037813321000000004,-0.051642769000000005,0.221232612,1.5098468,1.55883205,3.4558163389999996,328.3489797,58.09019674,-0.021344799999999997,-0.023561539,-0.007175859000000001,0.0,2.613040726,0.427848844,-8.980184373,6.87e+18,961.3691213999999,12.13400233,0.019072811000000002,-0.048390490999999994,0.009496741999999999,2.536963504,0.436591922,-8.861007275,43972832.17,0.011610249,-0.050475478,0.016961181000000002,6.87e+18,50.4636509,52.73670209,3.886311741,4.666956902,15.33193838,20.65782138,-0.106517664,-0.09634463900000001,-0.11974103,-22.93166256,14657184.24,399.65679,12.404602,96615.8235,1.147955784,-0.050329288,0.221853553,1.5116341880000002,0.72109937,-0.094101,0.063379604,0.6834792270000001,0.560756589,-0.25782394399999997,0.13434922400000002,0.052984715,0.003102495,0.002309602,-0.003432213,398714138.0,327364372.0,400119.1714,0.0,-0.002928586,0.002928586,0.028285657000000002,4.327704193,39.871413700000005,32.7364371,0.014890532,0.007985329000000001,-0.064764045,0.004075474,0.009115393000000001,0.00944072,0.033664869,0.02552476,0.04166491,0.1,-0.050286391,0.006187796999999999,-0.006044474,0.561234373,0,1,0,0,0
309,43984769,-0.037451492999999995,-0.02722683,-0.004962973,0.5924381999999999,0.0,1497.0,1500.0,1591.0,1518.0,1481.0,1486.0,20.26937294,20.27890727,20.72123828,20.36506262,20.80927281,20.13252289,20.567328200000002,248.23173959999997,248.23173959999997,12.13322402,-0.0014003929999999998,-0.005795572,0.001314021,-0.158228294,0.004860424,-0.037690835,-0.05143637,0.22149556199999998,1.510338945,1.5588963869999999,3.426879533,327.6278492,58.08382283,-0.021370586,-0.023573075,-0.007208303,0.0,2.5519922000000004,0.42109223799999995,-8.860802049,6.87e+18,961.3529292000002,12.13269913,0.018652936000000002,-0.042746052,0.016316,2.483320624,0.510359784,-8.802658969,44008419.28,0.011471422,-0.046129485,0.017729476,6.87e+18,50.63072292,52.89325649,3.886837622,4.666244386,15.33206525,20.65440386,-0.106446778,-0.099205816,-0.12046005900000001,-22.68592368,14699058.21,399.64230330000004,12.404602,96615.98294,1.14795768,-0.050822373,0.222102535,1.5116016159999999,0.7210749870000001,-0.09436232300000001,0.06330288099999999,0.6834758479999999,0.5604355560000001,0.039158653,-0.004935504,-0.052114022999999995,-0.0008898280000000001,0.00679619,-0.003429602,398714138.0,327364372.0,400118.3441,0.0,-0.000860172,0.000860172,0.036559312000000004,4.890440688,39.871413700000005,32.7364371,0.014726036000000001,0.008010386,-0.064179156,0.005038842,0.009381740999999999,0.009708608,0.037665026000000004,0.006435646999999999,0.0381458,0.1,-0.050409471,0.006260351999999999,-0.006207251,0.56102073,0,1,0,0,0
310,44020836,-0.03810718,-0.026275002000000002,-0.004988611,0.5912286,0.0,1497.0,1500.0,1590.0,1519.0,1480.0,1487.0,20.27442525,20.28414475,20.72674843,20.37051457,20.8150027,20.10271927,20.53700549,248.35674440000003,248.35674440000003,12.13216998,-0.001400495,-0.005796386,0.001313873,-0.158242834,0.004889659,-0.037568349,-0.051229971,0.22175851300000002,1.51083109,1.5589607230000002,3.3979427269999998,326.9067187,58.07744891,-0.02138967,-0.023579796,-0.00724153,0.0,2.512416321,0.42066831,-8.879097822,6.87e+18,961.3332803999999,12.13163053,0.016066759,-0.031531238999999996,0.018500192,2.5147333659999997,0.388283008,-8.856040399,44044006.4,0.013459371000000001,-0.036382971,0.016010583999999998,6.87e+18,50.79779495,53.04981089,3.887363503,4.66553187,15.33219213,20.65098633,-0.10637589300000001,-0.10206699300000001,-0.121179088,-22.44018479,14740932.19,399.63409920000004,12.404602,96616.08767000001,1.1479589890000002,-0.051344272999999996,0.222350162,1.511568071,0.7210496890000001,-0.09463354199999999,0.063215872,0.6834731909999999,0.560132334,-0.085426025,-0.19483192600000002,-0.12698094599999998,-0.0036065240000000003,0.002392706,-7.209999999999999e-05,398714138.0,327364372.0,400118.6041,0.0,0.0,-0.002416483,0.038791757999999996,5.064529232,39.871413700000005,32.7364371,0.014687272,0.008047439,-0.063799475,0.006038365,0.009869414,0.009259696999999999,0.03238473,0.018599029,-0.020412437,0.1,-0.051332787000000005,0.0067001230000000005,-0.006243493,0.56056696,0,1,0,0,0
311,44052903,-0.038886854,-0.02527748,-0.004851225,0.588846,0.0,1497.0,1500.0,1587.0,1519.0,1480.0,1487.0,20.2771977,20.28704289,20.72987155,20.37302994,20.81773523,20.15681445,20.59234591,248.48174930000002,248.48174930000002,12.13111594,-0.001400586,-0.005797279,0.0013135710000000001,-0.158253707,0.004916198,-0.037462532,-0.051023572,0.22202146399999997,1.511323235,1.55902506,3.3690059210000003,326.1855882,58.071075,-0.021413401000000002,-0.023583631,-0.007270011999999999,0.0,2.475242695,0.420952851,-8.912796331000001,6.87e+18,961.3132447999999,12.13058819,0.013626271,-0.024582444,0.008682093,2.439326588,0.408402923,-9.091228787999999,44079593.52,0.015685254,-0.026032273999999998,0.014013437,6.87e+18,50.97984571,53.21997958,3.8879576,4.664506331,15.33232349,20.64652265,-0.106283992,-0.103599265,-0.121957266,-22.17184197,14782806.16,399.47704480000004,12.404602,96617.87857999999,1.14798019,-0.051863675,0.222586268,1.511540684,0.7210228320000001,-0.094900123,0.063125252,0.683472889,0.559920224,-0.062432822,-0.265543972,0.066504997,0.002074447,0.0070301109999999995,-0.000671385,398714138.0,327364372.0,400119.6383,0.0,0.0,-0.006553311,0.036723345,4.961931321000001,39.871413700000005,32.7364371,0.014648508000000001,0.008084491,-0.063419795,0.007037888000000001,0.010357088,0.008810786,0.027104434,0.030762412000000003,-0.078970674,0.1,-0.051556740999999996,0.0070185180000000005,-0.00626954,0.56035465,0,1,0,0,0
312,44088971,-0.038698988999999996,-0.024937458,-0.005033886,0.5877107,0.0,1497.0,1500.0,1586.0,1519.0,1480.0,1487.0,20.27529252,20.28514131,20.72809712,20.36952029,20.81431798,20.11327756,20.54809392,248.60675409999996,248.60675409999996,12.13006189,-0.0014006539999999999,-0.005798335999999999,0.001312955,-0.158257055,0.004937204000000001,-0.037390913,-0.051129365999999996,0.222261226,1.511582966,1.559049184,3.353461036,325.48050739999996,58.06302153,-0.02143893,-0.023584219,-0.007306821,0.0,2.43823727,0.417781412,-8.955821006,6.87e+18,961.2935305,12.12954775,0.013400851,-0.01896943,0.010557168,2.369478893,0.40889616799999995,-9.138989662,44115180.64,0.017364176000000002,-0.016361,0.012251123000000001,6.87e+18,51.16780157,53.39551544,3.8885785910000004,4.6633573880000005,15.33245663,20.64164655,-0.106183805,-0.10460764300000001,-0.122758763,-21.89458799,14824680.14,399.5805557,12.404602,96616.69975,1.147966297,-0.052417515,0.22280922600000003,1.511512786,0.720995017,-0.09517462199999999,0.063018126,0.6834739790000001,0.55984395,0.105596839,0.6639923529999999,-0.191228591,0.000961382,0.005724868,-0.000806568,398714138.0,327364372.0,400120.6725,0.0,0.0,-0.010690138,0.034654931,4.859333411000001,39.871413700000005,32.7364371,0.014676395,0.008261036999999999,-0.062720527,0.00647684,0.009811946,0.009423005,0.009126209,0.00619901,-0.045777654,0.1,-0.052482337999999996,0.007381413000000001,-0.006293375,0.5599746720000001,0,1,0,0,0
313,44125038,-0.039081772,-0.024448413,-0.004734411,0.5852989000000001,0.0,1497.0,1500.0,1584.077215,1519.922785,1479.077215,1487.0,20.27338733,20.28323974,20.726322699999997,20.36601063,20.81090074,20.17030841,20.60653304,248.73175899999998,248.73175899999998,12.12900785,-0.001400722,-0.005799393000000001,0.001312339,-0.158260402,0.004958211,-0.037319295,-0.051620459,0.222472368,1.5115558580000001,1.5590236780000002,3.354444154,324.7952348,58.05289518,-0.021466341,-0.023583811,-0.00733782,0.0,2.402945596,0.379398112,-9.093866992999999,6.87e+18,961.2770893,12.12852675,0.007809159,-0.007890412,0.012885707,2.332448017,0.42280161299999997,-9.240822981,44150767.75,0.013470287,-0.013612156,0.012881451,6.87e+18,51.35575742,53.57105129,3.889199582,4.662208445,15.33258976,20.63677044,-0.106083619,-0.10561602099999999,-0.123560259,-21.61733401,14866979.8,399.581274,12.404602,96616.70449,1.147966283,-0.052917874000000004,0.223035426,1.51148256,0.720970399,-0.095430866,0.062930582,0.6834723359999999,0.559755331,0.212587996,0.193577293,-0.069556587,-0.000887895,0.006905695,7.929999999999999e-05,398714138.0,327364372.0,400121.7067,0.0,0.0,-0.014826965,0.032586517,4.7567355000000004,39.871413700000005,32.7364371,0.014710988999999999,0.00845162,-0.061989099000000006,0.005758748,0.009162868000000001,0.010142007,-0.010129836,-0.022060291,-0.0033514990000000004,0.1,-0.053203877000000004,0.0074241509999999995,-0.006262124,0.55990183,0,1,0,0,0
314,44165105,-0.039185986,-0.024351999,-0.004713897,0.5841618000000001,0.0,1497.0,1500.0,1583.0,1519.0,1480.0,1487.0,20.27148215,20.28133817,20.72454827,20.36250097,20.80748349,20.17445642,20.61105658,248.85676380000004,248.85676380000004,12.12795381,-0.00140079,-0.00580045,0.0013117220000000002,-0.15826375,0.004979217,-0.037247676,-0.052111553,0.22268351100000003,1.511528749,1.558998172,3.355427272,324.1099621,58.04276883,-0.021492895,-0.023585479,-0.007372511,0.0,2.367653923,0.34101481100000003,-9.23191298,6.87e+18,961.2606480000001,12.12750576,0.008074483,-0.009856198,0.012697142,2.322984066,0.360235905,-9.338662431,44186354.87,0.009576398,-0.010863312,0.013511778,6.87e+18,51.54371327,53.74658715,3.889820573,4.661059502,15.332722899999998,20.63189433,-0.10598343199999999,-0.10662439800000001,-0.12436175599999999,-21.34008003,14909023.4,399.4987605,12.404602,96617.67047000001,1.1479777009999999,-0.053447635,0.223255436,1.5114526000000001,0.720944351,-0.095695606,0.062830728,0.683471866,0.559688579,0.7401641959999999,0.661852761,-0.211525722,0.001780595,0.004062156,-0.000829381,398714138.0,327364372.0,400122.7409,0.0,0.0,-0.018963793,0.030518104,4.65413759,39.871413700000005,32.7364371,0.014695882,0.008680511,-0.061223174000000005,0.0053846169999999995,0.008875058,0.010686145,-0.019736336,-0.016240555,0.01524261,0.1,-0.054083494,0.007914807,-0.006302077,0.55978864,0,1,0,0,0
315,44197172,-0.039908145,-0.023860262,-0.004696888,0.58209866,0.0,1497.0,1500.0,1582.0,1520.0,1479.0,1488.0,20.26957697,20.27943659,20.72277385,20.35899132,20.80406625,20.27694727,20.71575384,248.9817687,248.9817687,12.12689977,-0.0014008579999999998,-0.005801506999999999,0.001311106,-0.158267098,0.005000223,-0.037176057,-0.052602647,0.222894653,1.51150164,1.5589726659999998,3.35641039,323.4246895,58.03264248,-0.0215216,-0.023588629,-0.007414438000000001,0.0,2.316217107,0.3177253,-9.343268506,6.19e+18,961.2432921,12.12648178,0.001213801,-0.001225931,0.0075630440000000005,2.161297701,0.333999889,-9.391330614,44221941.99,0.006000426,-0.007899050999999999,0.013581952,6.19e+18,51.73166912,53.92212301,3.8904415639999996,4.659910559,15.33285604,20.62701823,-0.105883246,-0.107632776,-0.125163252,-21.06282605,14950302.06,399.5914546,12.404602,96616.56465,1.1479646270000001,-0.053887627,0.223475855,1.5114264240000002,0.720921368,-0.09592823199999999,0.062761528,0.6834700020000001,0.5596093120000001,0.26258564,0.272939114,0.26947197300000003,-0.0067649469999999995,0.0037813540000000002,-0.002230896,398714138.0,327364372.0,400123.7752,0.0,0.00155031,-0.01689938,0.02844969,3.9233066510000003,39.871413700000005,32.7364371,0.014634072,0.008945399,-0.060424833,0.005333689,0.008926712,0.011065972,-0.020275668,0.021601452,0.011443003,0.1,-0.054572042,0.007878711,-0.00629298,0.5597241999999999,0,1,0,0,0
316,44229239,-0.03988723,-0.023770637,-0.00468208,0.581146,0.0,1497.0,1500.0,1580.0,1519.0,1480.0,1488.0,20.26767178,20.27753502,20.72099942,20.35548166,20.80064901,20.14024629,20.57616674,249.10677349999997,249.10677349999997,12.12584573,-0.001400926,-0.0058025640000000005,0.00131049,-0.158270446,0.005021229,-0.037104438999999996,-0.05309374099999999,0.22310579600000002,1.511474531,1.5589471609999999,3.357393508,322.7394169,58.02251614,-0.021550298,-0.023586925,-0.007460909,0.0,2.223134268,0.33336987,-9.385776606,3.74e+18,961.2235768999999,12.12545011,-0.0019549710000000002,-0.004841132,0.007987602,2.2269736019999997,0.37819823700000005,-9.518451612,44257529.11,0.003244516,-0.004379126,0.012207222,3.74e+18,51.91962497,54.09765887,3.891062555,4.6587616160000005,15.33298917,20.62214212,-0.105783059,-0.108641154,-0.12596474800000002,-20.78557207,14992176.04,399.53560669999996,12.404602,96617.22594,1.14797247,-0.054356447,0.22369659,1.5113978430000001,0.720897673,-0.096171276,0.062682723,0.6834680609999999,0.559520869,0.423342725,-0.14783053,0.002980848,-0.004567873,0.003360959,0.001224823,398714138.0,327364372.0,400124.8094,0.0,0.0036187240000000002,-0.012762553000000001,0.026381276000000002,2.982524287,39.871413700000005,32.7364371,0.014584189,0.009230852,-0.059592411,0.005425039,0.009040511999999999,0.011520495,-0.015410058,0.050031569000000005,0.0072361430000000004,0.1,-0.05534349,0.008191432,-0.006333002,0.559641773,0,1,0,0,0
317,44261307,-0.039394237,-0.023959438,-0.004561563,0.5802331000000001,0.0,1497.0,1500.0,1579.0,1519.0,1480.0,1488.0,20.265766600000003,20.27563345,20.71922499,20.35197201,20.79723176,20.292840100000003,20.73254954,249.2317784,249.2317784,12.12479168,-0.001400994,-0.005803621,0.001309874,-0.158273793,0.005042235999999999,-0.03703282,-0.053584834000000005,0.223316939,1.5114474230000001,1.558921655,3.358376626,322.0541442,58.01238979,-0.021577574,-0.023589377,-0.007509776,0.0,2.13005143,0.349014441,-9.428284706,1.3e+18,961.2038616,12.12441844,-0.003310977,0.004256251,0.006659917,2.1298488030000002,0.378914276,-9.558931666,44293116.22,0.000488605,-0.000859202,0.010832491000000001,1.3e+18,52.08729693,54.25473149999999,3.891592505,4.659520354,15.33308276,20.61430521,-0.10562444800000001,-0.109647705,-0.126670186,-20.53927291,15034050.01,399.6701863,12.404602,96615.67866,1.147954044,-0.054891889000000006,0.223885673,1.511366601,0.720873054,-0.09642749,0.062569786,0.683468272,0.559654115,-0.277937948,-0.025708993,-0.101142749,0.001250756,0.010918799,0.0007560239999999999,398714138.0,327364372.0,400125.8436,0.0,0.005687136999999999,-0.008625725,0.024312862999999997,2.041741922,39.871413700000005,32.7364371,0.014619699,0.009663553,-0.058515955,0.006535129000000001,0.009599289,0.012509852,0.028155773999999998,0.011071092,0.00011329100000000001,0.1,-0.055569979000000005,0.008071191,-0.006408269,0.5595778,0,1,0,0,0
318,44293374,-0.039808457,-0.023685087999999997,-0.004605495,0.5782496,0.0,1497.0,1500.0,1577.0,1519.0,1480.0,1488.0,20.26386141,20.27373188,20.71745057,20.34846235,20.79381452,20.21952441,20.65779975,249.3567832,249.3567832,12.12373764,-0.001401063,-0.005804678000000001,0.0013092569999999999,-0.158277141,0.005063242,-0.036961201,-0.054075927999999995,0.22352808100000002,1.511420314,1.558896149,3.359359744,321.3688716,58.00226344,-0.021604993,-0.023591165,-0.007558949000000001,0.0,2.0939766580000003,0.351798038,-9.486047132000001,1.15e+18,961.1843200999999,12.12339178,-0.0041977690000000005,0.002009557,0.00883801,2.1727404359999998,0.38254911,-9.676704218,44328703.34,-0.002930248,-0.000607072,0.008626075,1.15e+18,52.25436878,54.41125788,3.8921197610000005,4.6603355330000005,15.33317517,20.60638071,-0.105464109,-0.110654202,-0.127372782,-20.29388958,15075923.98,399.4702858,12.404602,96617.99823,1.14798176,-0.05539572,0.224080843,1.511337455,0.7208488670000001,-0.09667443,0.062469767,0.683467973,0.559739491,0.059293572999999995,0.075180738,-0.174610249,0.001955198,0.008250909,-0.004484367,398714138.0,327364372.0,400126.8778,0.0,0.007755550999999999,-0.004488898,0.022244449,1.100959558,39.871413700000005,32.7364371,0.014655208999999999,0.010096254,-0.057439499000000005,0.0076452180000000005,0.010158066,0.013499209,0.071721606,-0.027889385,-0.007009561,0.1,-0.055773706,0.008202796,-0.006500051,0.55951726,0,1,0,0,0
319,44325441,-0.040039397000000004,-0.023959377999999996,-0.0045907990000000004,0.57719517,0.0,1497.0,1500.0,1576.0,1520.0,1479.0,1488.0,20.26195623,20.2718303,20.71567614,20.34495269,20.79039728,20.33030028,20.77085699,249.48178810000002,249.48178810000002,12.1226836,-0.0014011310000000001,-0.005805735,0.0013086410000000001,-0.158280489,0.0050842479999999995,-0.036889583,-0.054567022,0.223739224,1.511393205,1.5588706430000001,3.360342862,320.68359889999994,57.99213709,-0.02163133,-0.023596187999999997,-0.007604397,0.0,2.1223517259999998,0.340041805,-9.561055167000001,3.59e+18,961.1649749,12.12237079,0.0005167619999999999,-0.001328004,0.002029766,2.143733148,0.38320253,-9.627407583,44364290.46,-0.007098581999999999,-0.004049312,0.005479404,3.59e+18,52.42144063,54.56778427,3.892647017,4.6611507119999995,15.33326758,20.59845621,-0.10530377,-0.111660699,-0.12807537800000002,-20.04850624,15117797.96,399.5666203,12.404602,96616.88759,1.147968469,-0.055855867000000003,0.22428941,1.5113136040000001,0.7208242979999999,-0.096910324,0.062389294000000005,0.683467797,0.559680906,0.318611468,-0.44239791700000003,-0.293007804,0.001389025,0.0068027719999999995,-0.000272425,398714138.0,327364372.0,400127.912,0.0,0.009823965,-0.00035207,0.020176035,0.160177194,39.871413700000005,32.7364371,0.01470968,0.010583424,-0.05618727900000001,0.008166728,0.010579463999999998,0.014003976000000001,0.062245035,-0.035860257,0.004498955,0.1,-0.056506056,0.008609838,-0.006581525,0.5596956,0,1,0,0,0
320,44357508,-0.040085991,-0.023801607000000002,-0.004635198,0.576192,0.0,1497.0,1500.0,1575.0,1519.85077,1479.14923,1488.0,20.26005104,20.26992873,20.71390172,20.34144304,20.78698003,20.25827252,20.69758537,249.606793,249.606793,12.12162956,-0.0014011989999999999,-0.0058067909999999995,0.001308025,-0.15828383699999998,0.005105254,-0.036817964,-0.055058116,0.223950366,1.511366096,1.5588451369999998,3.36132598,319.99832630000003,57.98201075,-0.021659263999999998,-0.023594441,-0.007650313000000001,0.0,2.150726794,0.328285573,-9.636063202,6.04e+18,961.1456297,12.12134979,-0.002540731,-0.005865673,0.007733604,2.213222466,0.4126539000000001,-9.682594454,44399877.58,-0.011266917,-0.007491551999999999,0.002332734,6.04e+18,52.58851248,54.72431065,3.893174272,4.661965891,15.33335999,20.59053171,-0.105143431,-0.112667197,-0.12877797400000002,-19.80312291,15160950.59,399.5030645,12.404602,96617.61797,1.1479771570000001,-0.056390622,0.224529625,1.5112838419999999,0.7207964170000001,-0.097183671,0.062295082,0.683466974,0.5593159670000001,-0.080131889,0.26632974800000003,0.545593011,-0.00184814,0.0052813240000000004,0.000940485,398714138.0,327364372.0,400126.6753,0.0,0.0062152430000000005,0.0,0.016215243,0.703155235,39.871413700000005,32.7364371,0.014771181000000001,0.011090788,-0.054869898,0.008470031999999999,0.010949931999999999,0.014329086999999999,0.033103793,-0.032342199,0.02291477,0.1,-0.05715419999999999,0.008869864,-0.006652841,0.5597686270000001,0,1,0,0,0
321,44389576,-0.035938053,-0.023438274,-0.004503095,0.5742206,0.0,1497.0,1500.0,1573.0,1517.0,1482.0,1488.0,20.25814586,20.26802716,20.71212729,20.33793338,20.78356279,20.21893399,20.6575303,249.7317978,249.7317978,12.12057552,-0.001401267,-0.005807848000000001,0.001307408,-0.158287184,0.005126261,-0.036746346,-0.055549209,0.22416150899999998,1.5113389869999998,1.558819631,3.3623090980000003,319.3130537,57.97188440000001,-0.021685199,-0.023592197000000002,-0.007688779000000001,0.0,2.1501994840000003,0.319587545,-9.652125113,6.87e+18,961.1269932,12.12032903,-0.003060462,0.000589694,0.014162083999999998,2.136999934,0.393984571,-9.573242331,44435464.69,-0.012619159,-0.005730515,0.001974832,6.87e+18,52.75558433,54.88083703,3.8937015280000002,4.66278107,15.33345241,20.58260721,-0.10498309199999999,-0.113673694,-0.12948057,-19.55773957,15201545.91,399.62183439999995,12.404602,96616.19404,1.147960221,-0.056905385999999995,0.224768936,1.511256745,0.720768643,-0.097449566,0.062207258,0.6834664970000001,0.558918004,-0.464343568,-0.395866214,0.120531648,0.00010941,0.00531591,-0.002133349,398714138.0,327364372.0,400125.2274,0.0,0.002078416,0.0,0.012078416000000002,1.384157499,39.871413700000005,32.7364371,0.014867207,0.011633902,-0.05357322,0.008805958000000001,0.011239843000000001,0.01469456,0.017852617,-0.044036395,0.040391137,0.1,-0.057317125,0.009053683,-0.006712755999999999,0.5595255,0,1,0,0,0
322,44425643,-0.035882401,-0.023236186000000002,-0.004604944000000001,0.57325923,0.0,1497.0,1500.0,1572.0,1518.0,1481.0,1488.0,20.25624068,20.26612559,20.71035286,20.33442373,20.78014555,20.31959554,20.76059999,249.85680269999997,249.85680269999997,12.11952147,-0.001401335,-0.005808905,0.001306792,-0.15829053199999998,0.0051472670000000005,-0.036674727000000004,-0.056040303,0.224372652,1.511311879,1.558794126,3.363292216,318.627781,57.96175805,-0.021712642,-0.023592176,-0.007736143000000001,0.0,2.134740512,0.31246946,-9.637734038,6.87e+18,961.1087228,12.11930839,-0.00303891,-0.001920112,0.008434225,2.055964826,0.334986012,-9.641261926,44471051.81,-0.01251654,-0.001281341,0.003057675,6.87e+18,52.92265625,55.03742681,3.8942256239999997,4.663389471,15.3335565,20.57527663,-0.104834397,-0.114496055,-0.130181476,-19.31241034,15243419.88,399.6779847,12.404602,96615.58969,1.1479530340000001,-0.057438422,0.224986503,1.5112297630000002,0.720740838,-0.09771467199999999,0.062105306,0.683467244,0.558675839,0.364028358,-0.452529818,-0.381015095,0.000992992,0.0069874659999999995,-0.0025059979999999997,398714138.0,327364372.0,400123.7796,0.0,-0.002058412,0.0,0.007941588000000001,2.065159763,39.871413700000005,32.7364371,0.015031301,0.012247497,-0.052317361,0.009206203,0.011370934,0.015139605,0.029986407000000003,-0.08572231400000001,0.056015330999999995,0.1,-0.057378825999999994,0.009179416,-0.006861148,0.55927557,0,1,0,0,0
323,44457710,-0.036384423,-0.023284872,-0.004792903,0.571946483,0.0,1497.0,1500.0,1570.0,1518.0,1481.0,1488.0,20.25433549,20.26422401,20.70857844,20.33091407,20.7767283,20.29058845,20.73109325,249.98180750000003,249.98180750000003,12.11846743,-0.0014014029999999999,-0.005809961999999999,0.001306176,-0.15829388,0.005168273,-0.036603107999999995,-0.056531397000000004,0.22458379399999998,1.51128477,1.55876862,3.364275335,317.94250839999995,57.95163170000001,-0.021739362,-0.023590846000000002,-0.007773824,0.0,2.119281539,0.305351374,-9.623342963999999,6.87e+18,961.0904524,12.11828776,-0.004084648,-0.004349852,0.014658802,2.059199911,0.366599419,-9.639998783,44506638.93,-0.01241392,0.003167832,0.004140517,6.87e+18,53.08972845,55.19423461,3.8947388530000002,4.6632868080000005,15.33370078,20.56998841,-0.10472574400000001,-0.11468521300000001,-0.130876569,-19.06726718,15285293.86,399.5961534,12.404602,96616.52102,1.1479640759999998,-0.057932810999999994,0.225194394,1.511205361,0.720714431,-0.097962621,0.062012927,0.683467924,0.558542517,-0.230181661,0.31358768600000003,0.108773776,-0.000681802,0.00202796,-0.002062875,398714138.0,327364372.0,400122.3317,0.0,-0.006195239,0.0,0.003804761,2.746162028,39.871413700000005,32.7364371,0.015195394,0.012861092,-0.051061502,0.009606448,0.011502024,0.01558465,0.042120196,-0.127408234,0.071639526,0.1,-0.057754995999999996,0.009562159,-0.007030355,0.55872375,0,1,0,0,0
324,44489777,-0.036942944,-0.022844754,-0.0047967240000000005,0.57053643,0.0,1497.0,1500.0,1569.0,1518.0,1481.0,1488.0,20.25243031,20.26232244,20.70680401,20.32740441,20.77331106,20.32390417,20.76521738,250.1068124,250.1068124,12.11741339,-0.001401471,-0.005811019000000001,0.001305559,-0.158297228,0.005189279000000001,-0.03653149,-0.057022490999999995,0.224794937,1.511257661,1.558743114,3.365258453,317.2572358,57.94150536,-0.021764547999999998,-0.023589642,-0.007813552,0.0,2.104266224,0.323472055,-9.609089418,6.87e+18,961.0679443,12.11704526,-0.001644356,-0.007749341999999999,0.014492133,1.977310586,0.313847724,-9.529062286,44542226.05,-0.009838747,0.002257916,0.0075287240000000005,6.87e+18,53.25680065,55.35104241,3.895252081,4.663184145,15.33384505,20.56470019,-0.104617092,-0.11487437199999999,-0.131571662,-18.82212401,15327167.83,399.6473963,12.404602,96615.93896,1.14795719,-0.058317504000000006,0.225407847,1.511179475,0.720693592,-0.098172884,0.06196013,0.683464537,0.558388813,-0.065758592,0.249404178,-0.264745653,0.000514625,-0.0006453359999999999,0.0005880130000000001,398714138.0,327364372.0,400121.0664,0.0,-0.009667934,0.0,-0.000996199,3.4104293439999998,39.871413700000005,32.7364371,0.01519153,0.013019793,-0.050665879000000004,0.010110554,0.009901786,0.015993036000000002,0.05185152,-0.092643815,0.027053079,0.1,-0.05821375,0.010136565,-0.0072160309999999995,0.5585681,0,1,0,0,0
325,44521844,-0.03654437,-0.022877987000000002,-0.004845973,0.5696813000000001,0.0,1497.0,1500.0,1568.0,1518.0,1481.0,1488.0,20.25052512,20.26042087,20.70502959,20.32389476,20.76989381,20.33925288,20.78108624,250.23181719999997,250.23181719999997,12.11635935,-0.001401539,-0.005812075999999999,0.001304943,-0.158300575,0.005210286,-0.036459871,-0.057513584000000006,0.225006079,1.5112305519999998,1.558717608,3.366241571,316.5719631,57.93137901,-0.021789562000000002,-0.023587515,-0.007844651999999999,0.0,2.089329599,0.346069234,-9.594860265,6.87e+18,961.0446845,12.11576341,0.000300693,-0.006402552,0.012306399999999999,1.992784307,0.337030096,-9.545394297,44577813.16,-0.006825026999999999,0.00039748,0.011325823999999998,6.87e+18,53.42387284,55.50785021,3.89576531,4.663081482,15.33398933,20.55941197,-0.10450843900000001,-0.11506353,-0.13226675599999999,-18.57698084,15369041.81,399.7563751,12.404602,96614.68382,1.147942299,-0.058673228,0.22566586800000002,1.51115206,0.720672315,-0.098387776,0.061933472,0.6834584579999999,0.557773459,0.42824653,-0.546762706,-0.072051867,-0.001828639,0.008281192,-0.000389507,398714138.0,327364372.0,400121.8938,0.0,-0.005531106,0.0,-0.013406681,3.882950445,39.871413700000005,32.7364371,0.01517761,0.01315126,-0.050321758,0.010620879,0.008197896,0.016399228000000002,0.061439012,-0.053302460999999995,-0.021138065,0.1,-0.058158365999999996,0.010476264,-0.007337576,0.5584704,0,1,0,0,0
326,44553912,-0.037273204,-0.022531755,-0.004964377,0.5685116929999999,0.0,1497.0,1500.0,1567.0,1518.0,1481.0,1488.0,20.24861994,20.2585193,20.70325516,20.320385100000003,20.76647657,20.31805349,20.75962548,250.3568221,250.3568221,12.11530531,-0.001401608,-0.005813133000000001,0.0013043269999999999,-0.158303923,0.005231292,-0.036388252999999995,-0.057719217,0.22522640800000002,1.511351574,1.5587193680000002,3.358664033,315.8772538,57.92101474,-0.021815775,-0.023580726,-0.007882174,0.0,2.07378546,0.366830274,-9.581005925,6.87e+18,961.021458,12.11449141,0.000243313,-0.00497544,0.01326345,1.967873016,0.321992987,-9.580381798,44613400.28,-0.003906015,-0.001286782,0.014988643000000001,6.87e+18,53.59094504,55.664657999999996,3.896278539,4.662978819,15.334133600000001,20.55412374,-0.104399787,-0.115252689,-0.132961849,-18.33183768,15414068.41,399.4664729,12.404602,96617.99768,1.14798166,-0.059060588,0.22593850000000001,1.5111287709999999,0.720647275,-0.098619132,0.06190110099999999,0.6834543940000001,0.557035715,0.5564925039999999,0.54101282,-0.26648341600000003,-0.000749922,0.006750987,-0.0037996379999999997,398714138.0,327364372.0,400122.7211,0.0,-0.001394279,0.0,-0.025817162999999997,4.355471546,39.871413700000005,32.7364371,0.015170285,0.013137828999999998,-0.050186117999999995,0.010700757,0.0066792990000000005,0.016461096,0.054544007,-0.019258486000000002,-0.02875725,0.1,-0.058254170999999993,0.011176216000000001,-0.007460044,0.55787957,0,1,0,0,0
327,44585979,-0.037588487999999996,-0.022231215,-0.004927028,0.5674296,0.0,1497.0,1500.0,1566.0,1518.0,1481.0,1488.0,20.24671475,20.25661772,20.70148074,20.31687545,20.76305933,20.34331571,20.78569895,250.4818269,250.4818269,12.11425126,-0.0014016760000000001,-0.00581419,0.00130371,-0.158307271,0.005252298000000001,-0.036316634,-0.057212611,0.22546965600000002,1.511842186,1.558789156,3.329727234,315.15899939999997,57.91005684,-0.021841767,-0.023573226,-0.007923626,0.0,2.0434092930000003,0.34276329,-9.576302376000001,6.87e+18,960.9990416000002,12.11345974,-0.000850744,-0.0048126359999999995,0.013757753000000001,1.9623546619999999,0.349273792,-9.666124966,44648987.4,-0.0032992390000000003,0.001330144,0.015373086000000001,6.87e+18,53.75801724,55.82146579999999,3.896791767,4.662876156,15.33427788,20.54883552,-0.10429113400000001,-0.11544184699999999,-0.133656942,-18.08669451,15454921.38,399.6960493,12.404602,96615.37671,1.147950461,-0.059457248,0.22621098399999998,1.511105428,0.72062175,-0.098853798,0.061865521,0.6834507009999999,0.556307922,0.052501628,-0.016700418,0.399825772,0.00466354,0.008154215,-0.005118232,398714138.0,327364372.0,400123.5485,0.0,0.0027425490000000004,0.0,-0.038227646000000004,4.827992647,39.871413700000005,32.7364371,0.015168345,0.013006084,-0.050220707999999996,0.010429168,0.005311998,0.016241817,0.034190683,0.010460063,-0.0032485490000000003,0.1,-0.058065824,0.011463723,-0.0076319890000000005,0.5573763,0,1,0,0,0
328,44618046,-0.037857154,-0.022241177999999997,-0.004992464,0.56691706,0.0,1497.0,1500.0,1565.0,1519.0,1480.0,1489.0,20.24480957,20.25471615,20.69970631,20.31336579,20.75964208,20.2795128,20.72053629,250.6068318,250.6068318,12.11319722,-0.001401744,-0.005815247,0.0013030939999999999,-0.158310619,0.005273305,-0.036245015,-0.056706005,0.225712904,1.512332799,1.558858944,3.300790435,314.440745,57.89909894,-0.021867708,-0.023565557999999997,-0.007965802,0.0,2.013033126,0.31869630600000004,-9.571598826,6.87e+18,960.9766252999999,12.11242806,-0.01432422,-0.0030945879999999997,0.011901738,1.965267295,0.306615612,-9.681138031,44684574.51,-0.002692463,0.003947071,0.015757529,6.87e+18,53.93509918,55.98760784,3.897338763,4.662002355,15.33441289,20.54243569,-0.10416044,-0.115844976,-0.134388957,-17.827229199999998,15494663.73,399.55723650000004,12.404602,96616.9884,1.147969679,-0.059787132,0.226464253,1.511078312,0.720601788,-0.099057745,0.061845964,0.683444058,0.555762807,0.509418905,0.473060625,0.111553308,0.0017252220000000002,0.005330092,-0.001895811,398714138.0,327364372.0,400124.3759,0.0,0.0068793759999999995,0.0,-0.050638128,5.300513748,39.871413700000005,32.7364371,0.015157381999999999,0.012862739,-0.05025378,0.010088896,0.0041656440000000005,0.016033198000000002,0.014608909,0.035200997000000005,0.021044032,0.1,-0.05831334,0.012207813999999999,-0.0077614730000000005,0.5563859999999999,0,1,0,0,0
329,44650113,-0.038431546000000004,-0.022032902000000004,-0.004971999,0.5661821539999999,0.0,1497.0,1500.0,1565.0,1518.0,1481.0,1489.0,20.24290439,20.25281458,20.69793188,20.30985613,20.75622484,20.32743128,20.76970428,250.73183659999998,250.73183659999998,12.11214318,-0.0014018120000000001,-0.0058163040000000004,0.001302478,-0.158313966,0.0052943109999999995,-0.036173397,-0.056199399000000004,0.225956152,1.512823412,1.558928731,3.2718536360000003,313.7224907,57.88814104,-0.02189377,-0.023558241,-0.008004164,0.0,1.988413971,0.29948254399999996,-9.584468168999999,6.87e+18,960.9545281,12.11139892,-0.010338425,-0.000964033,0.008348831,1.9097831680000001,0.348932505,-9.604711052,44719835.17,-0.002750022,0.005615628,0.015564381,6.87e+18,54.12305504,56.16388996,3.8979224410000004,4.660290845,15.33453785,20.53482828,-0.1040058,-0.116480548,-0.135161082,-17.5522053,15536537.71,399.5367311,12.404602,96617.22292,1.147972417,-0.058789615,0.226696444,1.511846889,0.720375069,-0.098802239,0.062234382000000005,0.683682087,0.555451395,0.34331693799999996,0.229410371,0.23447216399999998,0.0068992030000000005,0.009445094000000001,-0.006396618000000001,398714138.0,327364372.0,400124.7459,0.0,0.01,0.000508102,-0.05695139,5.415785624,39.871413700000005,32.7364371,0.015098156000000001,0.012657331,-0.050278734000000005,0.009381201,0.004201249000000001,0.015881607,-0.000845433,0.033313958,0.038830927,0.1,-0.058147332,0.012394036,-0.007943707,0.5558975,0,1,0,0,0
330,44686180,-0.037356411,-0.021964707000000003,-0.0050721559999999995,0.5655394,0.0,1497.0,1500.0,1564.966393,1518.966393,1480.033607,1489.0,20.2409992,20.250913,20.69615746,20.30634648,20.7528076,20.34322144,20.78602911,250.8568415,250.8568415,12.11108914,-0.00140188,-0.00581736,0.001301861,-0.15831731400000001,0.005315317,-0.036101778,-0.055692792000000005,0.22619940000000002,1.513314025,1.558998519,3.2429168369999997,313.0042363,57.87718314,-0.021919191,-0.023549651,-0.008035162,0.0,1.983140067,0.296577033,-9.656387598,6.87e+18,960.9335032,12.11037829,-0.017523672,0.006250454,0.018270754,1.9963357,0.34553112,-9.694958087,44753998.8,-0.005039938,0.0040973879999999996,0.01343036,6.87e+18,54.31101089,56.34017208,3.898506119,4.658579334,15.33466281,20.52722087,-0.103851161,-0.117116119,-0.135933206,-17.2771814,15581480.3,399.5858807,12.404602,96616.64242999999,1.147965578,-0.048580782,0.22693151399999997,1.518359817,0.718630733,-0.09541628699999999,0.06549683099999999,0.685693685,0.5551530029999999,0.105128594,-0.529409929,0.117857195,0.0051908990000000006,0.003060978,-0.0015689389999999999,398714138.0,327364372.0,400123.7117,0.0,0.01,0.002576515,-0.044540908,4.43399295,39.871413700000005,32.7364371,0.01503893,0.012451923,-0.050303688,0.008673506999999999,0.004236854,0.015730016,-0.016299775,0.031426919,0.056617821,0.1,-0.057727411,0.012455215,-0.008142643,0.55568516,0,1,0,0,0
331,44718248,-0.038497348,-0.021910136,-0.005002844,0.5651885999999999,0.0,1497.0,1500.0,1564.0,1518.0,1481.0,1488.54811,20.23909402,20.24901143,20.69438303,20.30283682,20.74939035,20.30645654,20.74853727,250.9818463,250.9818463,12.1100351,-0.0014019479999999999,-0.005818416999999999,0.001301245,-0.158320662,0.0053363230000000005,-0.03603016,-0.055186186,0.226442648,1.513804638,1.559068307,3.2139800380000003,312.28598189999997,57.86622524,-0.021944791,-0.023544836,-0.008067599,0.0,1.977866162,0.293671523,-9.728307027,6.87e+18,960.9124784,12.10935765,-0.009112623,0.010351766,0.011649485,1.977313366,0.23521233800000002,-9.627037166000001,44788162.43,-0.007329854,0.002579148,0.011296338000000001,6.87e+18,54.49896674,56.5164542,3.899089797,4.656867824,15.33478776,20.51961346,-0.103696521,-0.11775169099999999,-0.13670533099999999,-17.002157500000003,15622333.27,399.45993010000007,12.404602,96618.09524,1.147982826,-0.048754788,0.227161282,1.5183342830000002,0.718619769,-0.095556294,0.065521392,0.685683272,0.554832824,-0.343179135,0.023315931,-0.006669551,0.0071807780000000005,0.007816782,-0.007509639,398714138.0,327364372.0,400122.6775,0.0,0.01,0.004644929,-0.032130426000000004,3.452200276,39.871413700000005,32.7364371,0.01497761,0.012264203000000001,-0.049825795,0.008374791,0.00395133,0.015923804,-0.029081338999999998,0.020288675,0.042939477999999996,0.1,-0.040641092000000004,0.012394134,-0.00838677,0.5552698,0,1,0,0,0
332,44750315,-0.037107291,-0.02189091,-0.005293689,0.56450564,0.0,1497.0,1500.0,1563.1298259999999,1519.0,1480.0,1488.0,20.23718883,20.24710986,20.69260861,20.29932716,20.74597311,20.31485857,20.7574581,251.10685120000002,251.10685120000002,12.10898105,-0.001402016,-0.005819474,0.001300629,-0.15832401,0.00535733,-0.035958541000000004,-0.05467958,0.22668589600000003,1.51429525,1.559138095,3.1850432389999996,311.5677275,57.85526734,-0.021968422999999997,-0.023542142000000002,-0.008103085,0.0,1.972750472,0.306496623,-9.757631035,5.84e+18,960.8971644999999,12.10833231,-0.017094633999999997,0.0008189839999999999,0.013118718,1.947119078,0.353691154,-9.760758968,44823519.9,-0.009017615999999999,0.001815363,0.009212042,5.84e+18,54.68692259,56.69273632,3.899673475,4.655156313,15.33491272,20.51200605,-0.10354188199999999,-0.118387263,-0.137477456,-16.72713361,15662159.63,399.57786289999996,12.404602,96616.73517999999,1.147966592,-0.049068802,0.22740901,1.5183060959999999,0.71860218,-0.095752629,0.065504566,0.685675936,0.554520455,-0.453639678,0.138435416,0.6088493970000001,0.005262256,0.0005656719999999999,-0.00941671,398714138.0,327364372.0,400121.6433,0.0,0.01,0.006713343,-0.019719944,2.470407602,39.871413700000005,32.7364371,0.014915646000000001,0.012081933999999999,-0.049192985999999994,0.008202073,0.003566873,0.016223997,-0.041039479,0.00630034,0.019567399,0.1,-0.040405081,0.012499663999999999,-0.008523496,0.55506957,0,1,0,0,0
333,44792764,-0.038428458,-0.022129678,-0.005118359,0.5639641989999999,0.0,1497.0,1500.0,1563.0,1518.0,1481.0,1489.0,20.23528365,20.24520829,20.69083418,20.29581751,20.74255586,20.33869009,20.7819591,251.231856,251.231856,12.10792701,-0.0014020839999999998,-0.0058205309999999994,0.001300012,-0.158327357,0.005378336,-0.035886922,-0.054172973,0.22692914399999997,1.5147858630000002,1.559207883,3.15610644,310.8494732,57.84430944,-0.021988392000000002,-0.023542485,-0.008136728000000001,0.0,1.9678538630000002,0.341104191,-9.727972376,3.4e+18,960.8897588,12.10730046,-0.009756839,-0.002913109,0.008456109,1.9681946559999999,0.29805573399999996,-9.715600299,44860530.51,-0.009871564000000001,0.002096286,0.007196602,3.4e+18,54.87487844,56.86901844,3.900257153,4.653444803,15.33503768,20.50439864,-0.10338724199999999,-0.11902283400000001,-0.13824958,-16.45210971,15708028.01,399.67209249999996,12.404602,96615.662,1.147953924,-0.049263934,0.227646309,1.518279925,0.718590038,-0.095902758,0.065524641,0.685665801,0.554167128,-0.170883265,-0.45922725200000003,0.46558353799999996,0.0033545420000000003,0.007815328,-0.0032485009999999996,398714138.0,327364372.0,400120.6091,0.0,0.01,0.008781756,-0.007309461999999999,1.488614928,39.871413700000005,32.7364371,0.014838414,0.011894223999999998,-0.048569065,0.008121135,0.0033899190000000004,0.016499492,-0.021639217000000002,0.004128016,0.01054839,0.1,-0.040795673,0.012982752,-0.008532435,0.5546409000000001,0,1,0,0,0
334,44826449,-0.03771608,-0.021934511,-0.005162702,0.56342256,0.0,1497.0,1500.0,1563.0,1519.0,1480.0,1489.0,20.23337846,20.24330671,20.68905975,20.29230785,20.73913862,20.23707374,20.67820813,251.35686090000002,251.35686090000002,12.10687297,-0.001402152,-0.005821588000000001,0.001299396,-0.158330705,0.005399342,-0.035815304,-0.053666367,0.227172392,1.515276476,1.559277671,3.127169641,310.1312188,57.83335154,-0.022004809,-0.023538477000000002,-0.008181218,0.0,1.9629572530000001,0.375711759,-9.698313716,9.55e+17,960.8823532,12.10626861,-0.013906756000000001,-0.001023346,0.013785066,1.902126845,0.248669478,-9.694343516,44897541.11,-0.010725512,0.002377209,0.0051811620000000004,9.55e+17,55.04751923,57.03056363,3.9008119619999997,4.653198803,15.33515766,20.50112884,-0.103319447,-0.12061768099999999,-0.138953878,-16.19907466,15748892.18,399.63307549999996,12.404602,96616.11899,1.147959309,-0.049585174,0.227880273,1.5182466469999998,0.7185744340000001,-0.096096821,0.065500617,0.685657304,0.553926446,-0.09538551,0.295101237,0.3047143,0.00087856,0.006823085,-0.005596753,398714138.0,327364372.0,400120.2551,0.0,0.00829966,0.00744949,0.00085017,1.177467343,39.871413700000005,32.7364371,0.01473535,0.011697309,-0.047960182000000004,0.008195492,0.00356406,0.0167332,0.050819787000000005,0.021948504,0.025814925,0.1,-0.041025322999999995,0.012946273000000001,-0.008541587,0.55441463,0,1,0,0,0
335,44858517,-0.038479535,-0.021850315,-0.005135115,0.5630531999999999,0.0,1497.0,1500.0,1562.0,1519.0,1480.0,1489.0,20.23147328,20.24140514,20.68728533,20.2887982,20.73572138,20.298794,20.74140504,251.48186569999996,251.48186569999996,12.10581893,-0.0014022210000000002,-0.005822645,0.00129878,-0.158334053,0.005420348,-0.035743685,-0.05315976099999999,0.22741564,1.5157670890000001,1.559347459,3.098232842,309.41296439999996,57.82239364,-0.022028949,-0.023532017000000002,-0.008222415,0.0,1.942124608,0.367024991,-9.677313612999999,1.49e+18,960.866393,12.10523676,-0.011802318000000001,-0.001295348,0.002549546,1.906960749,0.342178793,-9.69824147,44933684.34,-0.012665263000000001,0.003585358,0.005999701999999999,1.49e+18,55.2145909,57.18674995,3.901356273,4.653485717,15.33527583,20.49943635,-0.103283231,-0.122561356,-0.139633512,-15.95403557,15789817.96,399.5293642,12.404602,96617.30127000001,1.1479733559999998,-0.049909391,0.22811504600000002,1.518214027,0.71855832,-0.09629223699999999,0.065475852,0.685649052,0.553642738,-0.370488818,-0.393215356,0.078786177,0.000369594,0.0034574329999999998,-0.00312065,398714138.0,327364372.0,400120.8756,0.0,0.0041628329999999995,0.001244249,0.002918584,1.827314722,39.871413700000005,32.7364371,0.014632286000000001,0.011500393999999999,-0.047351300000000006,0.008269849000000001,0.0037382009999999996,0.016966908,0.123278791,0.039768992,0.04108146,0.1,-0.041686361,0.013060303,-0.00848651,0.5540164000000001,0,1,0,0,0
336,44890584,-0.038122123,-0.021860082000000003,-0.005231952,0.562534957,0.0,1497.0,1500.0,1562.0,1519.0,1480.0,1489.0,20.2295681,20.23950357,20.6855109,20.28528854,20.73230413,20.28828986,20.73078906,251.60687059999998,251.60687059999998,12.10476489,-0.001402289,-0.005823701999999999,0.0012981639999999999,-0.1583374,0.005441355,-0.035672066,-0.052653155,0.227658888,1.5162577019999999,1.5594172469999998,3.069296043,308.69471,57.81143574,-0.022050095,-0.0235284,-0.008254023000000001,0.0,1.91107467,0.330580324,-9.661864889,3.93e+18,960.8449482000001,12.10420491,-0.016227231,-0.001267928,0.008960051,1.918927305,0.335907494,-9.716549494,44969271.45,-0.01530117,0.0053879919999999994,0.008635232,3.93e+18,55.38166258,57.34293627,3.901900584,4.653772631,15.335394,20.49774386,-0.103247015,-0.124505031,-0.140313146,-15.70899648,15830598.12,399.5607005,12.404602,96616.91057000001,1.147968782,-0.050292157000000004,0.228351263,1.5181878580000001,0.71853703,-0.09650939900000001,0.065431214,0.685645078,0.553361139,-0.176306131,-0.220054975,0.10581313699999999,-0.0009456719999999999,0.011647375,-0.0029010959999999997,398714138.0,327364372.0,400121.4961,0.0,2.6000000000000002e-05,-0.004960992,0.004986997,2.477162101,39.871413700000005,32.7364371,0.014644351000000002,0.011430511,-0.046458475,0.009511223000000001,0.004196549,0.016931573999999998,0.07669722400000001,0.004135517,0.030035042,0.1,-0.042593883,0.013325809,-0.00840084,0.5536340999999999,0,1,0,0,0
337,44922651,-0.038748279,-0.02190811,-0.005021416,0.5622026999999999,0.0,1497.0,1500.0,1561.0,1519.0,1480.0,1489.0,20.22766291,20.237602,20.68373648,20.28177888,20.72888689,20.28577271,20.72847022,251.7318755,251.7318755,12.10371084,-0.0014023570000000001,-0.0058247590000000005,0.001297547,-0.158340748,0.005462361,-0.035600448,-0.052146548,0.227902136,1.516748314,1.559487035,3.040359244,307.97645570000003,57.80047784,-0.022074003999999998,-0.023527947,-0.008292223,0.0,1.8800247319999999,0.294135657,-9.646416165,6.38e+18,960.8235034,12.10317307,-0.01946695,0.002473696,0.00550484,1.883502241,0.34176795299999996,-9.801348866,45004858.57,-0.017937078000000002,0.0071906259999999994,0.011270762,6.38e+18,55.54873425,57.49912259,3.902444895,4.654059545,15.33551217,20.49605138,-0.103210799,-0.126448705,-0.140992779,-15.46395738,15871607.92,399.5504758,12.404602,96617.05647000001,1.147970557,-0.050666592,0.228586226,1.518160419,0.718516609,-0.09672308199999999,0.065389049,0.685640373,0.553091743,-0.149047238,0.344848463,0.68318049,0.003135271,0.009320334,-0.0049341129999999995,398714138.0,327364372.0,400122.1166,0.0,-0.004110822,-0.011166233000000001,0.007055411,3.12700948,39.871413700000005,32.7364371,0.014658951000000002,0.011363423999999999,-0.045559398,0.01077829,0.004661154,0.016890316000000002,0.027494900000000003,-0.032674782,0.018409326,0.1,-0.043064654,0.013347447,-0.008369425,0.5534344,0,1,0,0,0
338,44962718,-0.037845187,-0.021729645,-0.005256148,0.561815799,0.0,1497.0,1500.0,1561.0,1518.0,1481.0,1489.0,20.22575773,20.23570042,20.68196205,20.27826923,20.72546965,20.292005800000002,20.73489884,251.70348219999997,251.70348219999997,12.1026224,-0.001402425,-0.005825816,0.001296931,-0.158344096,0.005483366999999999,-0.035528829,-0.051639942,0.22814538399999998,1.517238927,1.559556823,3.011422445,307.25820130000005,57.78951994,-0.022098338999999998,-0.023522822999999998,-0.008328428,0.0,1.872402464,0.24136332,-9.631630226,6.87e+18,960.8037539999999,12.10214136,-0.013770511000000001,0.001046984,0.006180631,1.876189249,0.336557641,-9.744722823,45040445.69,-0.016046469,0.005335666,0.011608007,6.87e+18,55.71580593,57.65530891,3.902989207,4.654346459,15.33563034,20.49435889,-0.103174584,-0.12839238,-0.141672413,-15.21891829,15913403.48,399.52553989999996,12.404602,96617.36882999999,1.147974186,-0.051001784,0.228825153,1.518128266,0.718499459,-0.096923847,0.06536201,0.685632624,0.552819209,-0.432649512,0.503774061,0.18170204899999998,0.0034219370000000003,0.006188395,0.000493773,398714138.0,327364372.0,400122.7371,0.0,-0.00824765,-0.017371473999999998,0.009123825,3.7768568589999996,39.871413700000005,32.7364371,0.014764675,0.011307184,-0.044623244000000006,0.010853551000000001,0.004530185,0.0164708,0.011182942,-0.033209325,0.017773358,0.1,-0.043674169000000006,0.013332853,-0.008305576,0.55326414,0,1,0,0,0
339,44994785,-0.037098998,-0.021866686,-0.005197801,0.56155944,0.0,1497.0,1500.0,1561.0,1516.0,1483.0,1489.0,20.22360412,20.23353854,20.67992108,20.274665,20.72195522,20.25000629,20.69217391,251.6733457,251.6733457,12.10153357,-0.001402469,-0.005826844,0.001296347,-0.158348622,0.005500794,-0.035458421000000004,-0.051133335999999995,0.22838863199999998,1.51772954,1.5596266109999999,2.982485646,306.53994689999996,57.77856204,-0.022122249,-0.023519016,-0.008360003000000001,0.0,1.870661827,0.18449184300000002,-9.617010683,6.87e+18,960.7844302000001,12.10110969,-0.01335252,0.0008725919999999999,0.00520297,1.894220695,0.31070880100000003,-9.643623474,45076032.81,-0.013019456,0.002562449,0.011368256,6.87e+18,55.88287760000001,57.81149523,3.903533518,4.654633372,15.33574851,20.492666399999997,-0.10313836800000001,-0.130336055,-0.14235204699999998,-14.973879199999999,15955277.46,399.525427,12.404602,96617.34556,1.14797383,-0.051274155999999994,0.229070677,1.5180966409999999,0.718484792,-0.09710431800000001,0.06535887900000001,0.685622753,0.552439328,0.237192923,0.15613232300000002,0.252172978,0.001562049,0.00541957,-0.0014665770000000002,398714138.0,327364372.0,400121.927,0.0,-0.01,-0.017615523,0.008807762,3.920870779,39.871413700000005,32.7364371,0.014934925,0.011258623999999998,-0.043660835999999995,0.010084903000000001,0.0039774929999999995,0.015783439,0.018160483,-0.008057193,0.024919172000000003,0.1,-0.044256515,0.013453396000000001,-0.008280725,0.55299389,0,1,0,0,0
340,45041705,-0.03367415,-0.021888262999999998,-0.005399202,0.56119996,0.0,1497.0,1500.0,1561.0,1517.0,1482.0,1489.0,20.21876759,20.22856533,20.67500137,20.27003934,20.71739117,20.32504576,20.76902448,251.64320930000002,251.64320930000002,12.10044474,-0.001402249,-0.005827564,0.0012961189999999999,-0.15836587300000002,0.00547957,-0.035401088,-0.050733158,0.228631865,1.518155236,1.559684267,2.957286411,305.8218908,57.76729591,-0.022147832000000003,-0.023515572000000002,-0.008397741,0.0,1.86892119,0.12762036599999999,-9.602391139,6.87e+18,960.7651063999999,12.10007802,-0.002330725,-0.001501701,0.008239453,1.864860695,0.209237745,-9.629495621,45111619.92,-0.009992444,-0.00021076799999999999,0.011128505,6.87e+18,56.04994962,57.96767072,3.90407831,4.654037642,15.33585654,20.491599899999997,-0.10311487300000001,-0.131333015,-0.14302684,-14.72742195,16000292.86,399.5280765,12.404602,96617.30131,1.147973284,-0.051674063,0.229325328,1.518067386,0.71846257,-0.09733377900000001,0.065315193,0.6856176420000001,0.551981588,-0.180140352,0.18449016399999998,0.24487681100000003,0.001955857,0.009762743,-0.0011207810000000002,398714138.0,327364372.0,400120.0654,0.0,-0.01,-0.013478696,0.006739348,3.69314803,39.871413700000005,32.7364371,0.01512406,0.011217072,-0.042738211,0.009526757,0.003599867,0.015179303,0.024719319,0.004212390999999999,0.028266249,0.1,-0.04481825,0.013631478999999998,-0.008234766999999999,0.55270106,0,1,0,0,0
341,45081840,-0.034560276,-0.021775642,-0.00541566,0.560851288,0.0,1497.0,1500.0,1560.0,1517.0,1482.0,1489.0,20.21393105,20.22359213,20.67008166,20.26541369,20.71282713,20.29474701,20.7383032,251.61307280000003,251.61307280000003,12.09935591,-0.001402029,-0.005828284,0.00129589,-0.15838312300000001,0.005458345,-0.035343754,-0.051080398,0.228874992,1.5181250419999999,1.5596567280000002,2.958335074,305.10522660000004,57.753865100000006,-0.02217281,-0.023512013,-0.008435309,0.0,1.846764835,0.206581433,-9.601975524,6.87e+18,960.7355021,12.09878863,-0.008220846,-0.003186565,0.004611982,1.884793109,0.384983588,-9.698673203,45147207.04,-0.007351821999999999,-0.001526779,0.010125341999999999,6.87e+18,56.21702164,58.12384608,3.9046231089999996,4.653430608,15.33596444,20.49054142,-0.103091541,-0.13231785199999999,-0.143701571,-14.48094655,16039025.41,399.6402869,12.404602,96616.00426,1.147957924,-0.052030281,0.229581846,1.518041084,0.718441269,-0.09754826400000001,0.06528703799999999,0.6856121479999999,0.551498698,0.37625512,-0.09092385900000001,-0.6704417970000001,-0.0042335820000000005,0.002597081,-0.001570732,398714138.0,327364372.0,400118.2038,0.0,-0.01,-0.009341868,0.004670934,3.4654252810000004,39.871413700000005,32.7364371,0.015392448000000001,0.011204928999999999,-0.041982535999999994,0.009851993,0.003956908,0.01492442,0.029521052000000002,-0.037579861,0.015671853,0.1,-0.045063849,0.013792337,-0.008232156,0.5523945,0,1,0,0,0
342,45114987,-0.034972943,-0.021648725,-0.005484518000000001,0.56056696,0.0,1497.0,1500.0,1560.0,1517.0,1482.0,1489.0,20.20909451,20.21861892,20.66516195,20.26078804,20.70826309,20.264193,20.70726878,251.5829364,251.5829364,12.09826708,-0.001401809,-0.005829005,0.001295662,-0.158400374,0.00543712,-0.035286421,-0.051427638,0.22911811899999998,1.518094847,1.5596291880000002,2.9593837360000004,304.3885625,57.74043429,-0.022199725,-0.023506911000000002,-0.00846771,0.0,1.8243880819999998,0.287008873,-9.601713247000001,6.87e+18,960.7057868999999,12.09749646,-0.0030345890000000003,-0.005995775,0.010372424,1.886519764,0.360473407,-9.635835148,45182794.16,-0.00471537,-0.0028270590000000003,0.009113939,6.87e+18,56.38409366,58.28002143,3.905167907,4.652823575,15.33607234,20.48948294,-0.10306820900000001,-0.133302689,-0.144376303,-14.23447115,16080899.38,399.6371591,12.404602,96616.06101,1.147958599,-0.052412,0.229813391,1.518004982,0.7184233720000001,-0.097763074,0.065241603,0.6856046579999999,0.5512445220000001,-0.10401356099999999,-0.139980333,-0.428186021,-0.001807209,0.004188531,-0.001398311,398714138.0,327364372.0,400116.3423,0.0,-0.01,-0.005205041,0.002602521,3.2377025319999997,39.871413700000005,32.7364371,0.015660836,0.011192786000000001,-0.041226862,0.010177228,0.004313948,0.014669536,0.034322785,-0.079372113,0.003077457,0.1,-0.045915964000000004,0.014412639,-0.008215700000000001,0.5517666999999999,0,1,0,0,0
343,45151054,-0.035237655,-0.021529541,-0.00539349,0.56035465,0.0,1497.0,1500.0,1559.528706,1517.0,1482.0,1489.0,20.20425798,20.21364571,20.66024224,20.25616239,20.70369904,20.26655785,20.70993638,251.5528,251.5528,12.09717825,-0.001401589,-0.005829725,0.0012954330000000001,-0.158417625,0.005415895,-0.035229087,-0.051774877999999996,0.229361247,1.5180646530000002,1.559601649,2.960432398,303.6718983,57.72700349,-0.022224893,-0.023498138,-0.008502204000000001,0.0,1.808441059,0.3557539,-9.598169526,6.87e+18,960.6776567,12.09625094,-0.005290555,-0.0025669160000000002,0.002202448,1.862553013,0.347987871,-9.622678947,45218381.28,-0.003431944,-0.003664375,0.008850532,6.87e+18,56.55116568,58.43619679,3.905712706,4.652216542,15.33618024,20.48842446,-0.103044877,-0.134287526,-0.145051034,-13.98799574,16124977.8,399.6211997,12.404602,96616.20536,1.147960319,-0.052637604000000005,0.230046561,1.51797461,0.718410963,-0.09792254199999999,0.06524998,0.6855941,0.550997516,0.381487725,-0.09275537699999999,-0.35709557799999997,-0.003214867,0.007887141,-0.000759928,398714138.0,327364372.0,400114.4807,0.0,-0.01,-0.0010682139999999998,0.0005341069999999999,3.009979783,39.871413700000005,32.7364371,0.015839475,0.01113628,-0.040854909,0.009846833000000001,0.0037558390000000004,0.015553562,0.020944286,-0.055128977999999995,0.007286554000000001,0.1,-0.046428566,0.014811881,-0.008202282,0.551362936,0,1,0,0,0
